time,.header.seq,.header.stamp.secs,.header.stamp.nsecs,.header.frame_id,.wrench.force.x,.wrench.force.y,.wrench.force.z,.wrench.torque.x,.wrench.torque.y,.wrench.torque.z
2020/05/26/02:05:04.504176,45764,1590426304,504024914,robotiq_ft_frame_id,-10.6400003433,239.210006714,4.21999979019,5.22800016403,2.13499999046,1.32400000095
2020/05/26/02:05:04.520524,45765,1590426304,520351797,robotiq_ft_frame_id,-10.6199998856,239.309997559,4.19999980927,5.23000001907,2.132999897,1.3259999752
2020/05/26/02:05:04.536866,45766,1590426304,536708702,robotiq_ft_frame_id,-10.6499996185,239.279998779,4.32999992371,5.22800016403,2.13199996948,1.32500004768
2020/05/26/02:05:04.553167,45767,1590426304,553027305,robotiq_ft_frame_id,-10.5600004196,239.300003052,4.28000020981,5.23000001907,2.13400006294,1.32299995422
2020/05/26/02:05:04.569509,45768,1590426304,569339248,robotiq_ft_frame_id,-10.5600004196,239.309997559,4.28000020981,5.23099994659,2.13499999046,1.32400000095
2020/05/26/02:05:04.585869,45769,1590426304,585687618,robotiq_ft_frame_id,-10.6199998856,239.309997559,4.32000017166,5.23000001907,2.132999897,1.3259999752
2020/05/26/02:05:04.598222,45770,1590426304,597990118,robotiq_ft_frame_id,-10.6499996185,239.339996338,4.23000001907,5.22900009155,2.13499999046,1.32500004768
2020/05/26/02:05:04.614491,45771,1590426304,614306275,robotiq_ft_frame_id,-10.6999998093,239.289993286,4.23999977112,5.22800016403,2.13599991798,1.32500004768
2020/05/26/02:05:04.630800,45772,1590426304,630603954,robotiq_ft_frame_id,-10.75,239.320007324,4.34999990463,5.22599983215,2.132999897,1.32500004768
2020/05/26/02:05:04.647034,45773,1590426304,646906745,robotiq_ft_frame_id,-10.6800003052,239.25,4.36000013351,5.22499990463,2.13100004196,1.32400000095
2020/05/26/02:05:04.663450,45774,1590426304,663261322,robotiq_ft_frame_id,-10.6300001144,239.339996338,4.23000001907,5.22900009155,2.132999897,1.32400000095
2020/05/26/02:05:04.679794,45775,1590426304,679628863,robotiq_ft_frame_id,-10.6199998856,239.309997559,4.26000022888,5.23199987411,2.132999897,1.32500004768
2020/05/26/02:05:04.696236,45776,1590426304,696048276,robotiq_ft_frame_id,-10.6899995804,239.199996948,4.26000022888,5.22900009155,2.132999897,1.32299995422
2020/05/26/02:05:04.712571,45777,1590426304,712411756,robotiq_ft_frame_id,-10.6499996185,239.320007324,4.23999977112,5.22900009155,2.13499999046,1.32400000095
2020/05/26/02:05:04.728921,45778,1590426304,728734393,robotiq_ft_frame_id,-10.6099996567,239.279998779,4.28000020981,5.22800016403,2.13499999046,1.32500004768
2020/05/26/02:05:04.745227,45779,1590426304,745026174,robotiq_ft_frame_id,-10.5900001526,239.339996338,4.36000013351,5.23000001907,2.13100004196,1.32400000095
2020/05/26/02:05:04.762043,45780,1590426304,761801955,robotiq_ft_frame_id,-10.5699996948,239.289993286,4.26999998093,5.22700023651,2.13100004196,1.32500004768
2020/05/26/02:05:04.774289,45781,1590426304,774106086,robotiq_ft_frame_id,-10.6099996567,239.25,4.28000020981,5.22900009155,2.13499999046,1.32700002193
2020/05/26/02:05:04.790605,45782,1590426304,790442238,robotiq_ft_frame_id,-10.6099996567,239.199996948,4.28000020981,5.22800016403,2.132999897,1.32700002193
2020/05/26/02:05:04.806963,45783,1590426304,806798327,robotiq_ft_frame_id,-10.6800003052,239.270004272,4.23999977112,5.22800016403,2.13499999046,1.32700002193
2020/05/26/02:05:04.823345,45784,1590426304,823106441,robotiq_ft_frame_id,-10.6000003815,239.38999939,4.21000003815,5.23199987411,2.13400006294,1.3259999752
2020/05/26/02:05:04.839631,45785,1590426304,839421252,robotiq_ft_frame_id,-10.5799999237,239.240005493,4.30999994278,5.22599983215,2.13000011444,1.32799994946
2020/05/26/02:05:04.855894,45786,1590426304,855723937,robotiq_ft_frame_id,-10.5799999237,239.240005493,4.23000001907,5.22900009155,2.13199996948,1.32700002193
2020/05/26/02:05:04.872236,45787,1590426304,872037686,robotiq_ft_frame_id,-10.6800003052,239.279998779,4.23999977112,5.22900009155,2.13499999046,1.3259999752
2020/05/26/02:05:04.888497,45788,1590426304,888351109,robotiq_ft_frame_id,-10.6199998856,239.210006714,4.28000020981,5.22800016403,2.132999897,1.3259999752
2020/05/26/02:05:04.904967,45789,1590426304,904722747,robotiq_ft_frame_id,-10.6199998856,239.339996338,4.21000003815,5.22900009155,2.132999897,1.32899999619
2020/05/26/02:05:04.921355,45790,1590426304,921124624,robotiq_ft_frame_id,-10.7600002289,239.190002441,4.23000001907,5.22800016403,2.13800001144,1.32700002193
2020/05/26/02:05:04.933611,45791,1590426304,933417375,robotiq_ft_frame_id,-10.6400003433,239.350006104,4.25,5.23199987411,2.13599991798,1.32700002193
2020/05/26/02:05:04.950037,45792,1590426304,949822077,robotiq_ft_frame_id,-10.6099996567,239.199996948,4.25,5.22800016403,2.132999897,1.32700002193
2020/05/26/02:05:04.966407,45793,1590426304,966230011,robotiq_ft_frame_id,-10.6499996185,239.25,4.21000003815,5.23000001907,2.132999897,1.3259999752
2020/05/26/02:05:04.982726,45794,1590426304,982590108,robotiq_ft_frame_id,-10.6499996185,239.339996338,4.21999979019,5.23000001907,2.13599991798,1.32700002193
2020/05/26/02:05:04.999212,45795,1590426304,999002360,robotiq_ft_frame_id,-10.6199998856,239.339996338,4.21999979019,5.23000001907,2.132999897,1.32700002193
2020/05/26/02:05:05.015665,45796,1590426305,15456582,robotiq_ft_frame_id,-10.6800003052,239.259994507,4.19000005722,5.23000001907,2.13499999046,1.3259999752
2020/05/26/02:05:05.032038,45797,1590426305,31861175,robotiq_ft_frame_id,-10.529999733,239.300003052,4.23000001907,5.23000001907,2.13199996948,1.32700002193
2020/05/26/02:05:05.048510,45798,1590426305,48232596,robotiq_ft_frame_id,-10.5600004196,239.380004883,4.25,5.23099994659,2.13199996948,1.32700002193
2020/05/26/02:05:05.064759,45799,1590426305,64598038,robotiq_ft_frame_id,-10.6499996185,239.190002441,4.19999980927,5.23000001907,2.13499999046,1.3259999752
2020/05/26/02:05:05.081215,45800,1590426305,80992756,robotiq_ft_frame_id,-10.6199998856,239.199996948,4.19000005722,5.22800016403,2.132999897,1.3259999752
2020/05/26/02:05:05.093445,45801,1590426305,93287142,robotiq_ft_frame_id,-10.6199998856,239.339996338,4.28000020981,5.22900009155,2.132999897,1.3259999752
2020/05/26/02:05:05.109945,45802,1590426305,109728322,robotiq_ft_frame_id,-10.6199998856,239.350006104,4.26000022888,5.22900009155,2.132999897,1.3259999752
2020/05/26/02:05:05.126277,45803,1590426305,126116797,robotiq_ft_frame_id,-10.6199998856,239.350006104,4.25,5.22900009155,2.132999897,1.3259999752
2020/05/26/02:05:05.142687,45804,1590426305,142468807,robotiq_ft_frame_id,-10.6599998474,239.25,4.28000020981,5.22900009155,2.132999897,1.32700002193
2020/05/26/02:05:05.158983,45805,1590426305,158769915,robotiq_ft_frame_id,-10.6800003052,239.229995728,4.28000020981,5.23000001907,2.13400006294,1.32799994946
2020/05/26/02:05:05.175362,45806,1590426305,175104262,robotiq_ft_frame_id,-10.6499996185,239.25,4.25,5.22900009155,2.13199996948,1.32500004768
2020/05/26/02:05:05.191668,45807,1590426305,191494482,robotiq_ft_frame_id,-10.6099996567,239.229995728,4.23999977112,5.22599983215,2.132999897,1.32299995422
2020/05/26/02:05:05.208117,45808,1590426305,207875415,robotiq_ft_frame_id,-10.6099996567,239.229995728,4.26999998093,5.22599983215,2.132999897,1.32400000095
2020/05/26/02:05:05.224465,45809,1590426305,224232816,robotiq_ft_frame_id,-10.6700000763,239.270004272,4.19000005722,5.22700023651,2.13400006294,1.32400000095
2020/05/26/02:05:05.240820,45810,1590426305,240604808,robotiq_ft_frame_id,-10.6800003052,239.279998779,4.21999979019,5.22800016403,2.13499999046,1.32500004768
2020/05/26/02:05:05.253147,45811,1590426305,252889814,robotiq_ft_frame_id,-10.5799999237,239.240005493,4.23000001907,5.22900009155,2.132999897,1.3259999752
2020/05/26/02:05:05.269464,45812,1590426305,269284971,robotiq_ft_frame_id,-10.5600004196,239.160003662,4.19999980927,5.22499990463,2.13199996948,1.32500004768
2020/05/26/02:05:05.285886,45813,1590426305,285732858,robotiq_ft_frame_id,-10.6300001144,239.25,4.19999980927,5.22900009155,2.13199996948,1.3259999752
2020/05/26/02:05:05.302256,45814,1590426305,302087588,robotiq_ft_frame_id,-10.6199998856,239.229995728,4.28999996185,5.22700023651,2.132999897,1.32299995422
2020/05/26/02:05:05.318612,45815,1590426305,318392278,robotiq_ft_frame_id,-10.5900001526,239.259994507,4.19000005722,5.22800016403,2.132999897,1.32299995422
2020/05/26/02:05:05.334909,45816,1590426305,334772167,robotiq_ft_frame_id,-10.6000003815,239.330001831,4.21000003815,5.22900009155,2.13100004196,1.32400000095
2020/05/26/02:05:05.351234,45817,1590426305,351070691,robotiq_ft_frame_id,-10.6300001144,239.339996338,4.23999977112,5.22900009155,2.13400006294,1.32400000095
2020/05/26/02:05:05.367629,45818,1590426305,367480198,robotiq_ft_frame_id,-10.5900001526,239.289993286,4.26999998093,5.22800016403,2.132999897,1.32500004768
2020/05/26/02:05:05.384005,45819,1590426305,383782616,robotiq_ft_frame_id,-10.6800003052,239.38999939,4.28000020981,5.23099994659,2.13499999046,1.32500004768
2020/05/26/02:05:05.400274,45820,1590426305,400118581,robotiq_ft_frame_id,-10.720000267,239.36000061,4.28999996185,5.22900009155,2.13400006294,1.32400000095
2020/05/26/02:05:05.416734,45821,1590426305,416522262,robotiq_ft_frame_id,-10.6499996185,239.330001831,4.30000019073,5.22900009155,2.13400006294,1.3259999752
2020/05/26/02:05:05.429015,45822,1590426305,428817898,robotiq_ft_frame_id,-10.6700000763,239.279998779,4.21000003815,5.22900009155,2.13400006294,1.32500004768
2020/05/26/02:05:05.445317,45823,1590426305,445155415,robotiq_ft_frame_id,-10.6899995804,239.279998779,4.23000001907,5.22900009155,2.13499999046,1.32500004768
2020/05/26/02:05:05.461804,45824,1590426305,461524948,robotiq_ft_frame_id,-10.6199998856,239.259994507,4.30999994278,5.22499990463,2.13199996948,1.32400000095
2020/05/26/02:05:05.478043,45825,1590426305,477879198,robotiq_ft_frame_id,-10.6099996567,239.259994507,4.21000003815,5.22800016403,2.13499999046,1.32400000095
2020/05/26/02:05:05.494367,45826,1590426305,494188776,robotiq_ft_frame_id,-10.6199998856,239.339996338,4.23999977112,5.22900009155,2.13400006294,1.32500004768
2020/05/26/02:05:05.510776,45827,1590426305,510538099,robotiq_ft_frame_id,-10.5799999237,239.259994507,4.25,5.23000001907,2.132999897,1.32500004768
2020/05/26/02:05:05.527074,45828,1590426305,526896959,robotiq_ft_frame_id,-10.6499996185,239.320007324,4.21000003815,5.23000001907,2.13599991798,1.32400000095
2020/05/26/02:05:05.543281,45829,1590426305,543179360,robotiq_ft_frame_id,-10.6599998474,239.330001831,4.19999980927,5.23000001907,2.13599991798,1.32299995422
2020/05/26/02:05:05.559551,45830,1590426305,559439370,robotiq_ft_frame_id,-10.6499996185,239.309997559,4.30999994278,5.22700023651,2.13199996948,1.32299995422
2020/05/26/02:05:05.576092,45831,1590426305,575828275,robotiq_ft_frame_id,-10.6800003052,239.279998779,4.26000022888,5.22800016403,2.13400006294,1.32500004768
2020/05/26/02:05:05.592332,45832,1590426305,592184354,robotiq_ft_frame_id,-10.6899995804,239.259994507,4.21000003815,5.22800016403,2.13499999046,1.32500004768
2020/05/26/02:05:05.604593,45833,1590426305,604444158,robotiq_ft_frame_id,-10.6800003052,239.25,4.23000001907,5.22900009155,2.13499999046,1.32500004768
2020/05/26/02:05:05.621018,45834,1590426305,620814508,robotiq_ft_frame_id,-10.6899995804,239.259994507,4.21999979019,5.22900009155,2.13499999046,1.32500004768
2020/05/26/02:05:05.637462,45835,1590426305,637201115,robotiq_ft_frame_id,-10.6899995804,239.270004272,4.28000020981,5.22800016403,2.13499999046,1.32500004768
2020/05/26/02:05:05.653687,45836,1590426305,653506302,robotiq_ft_frame_id,-10.5799999237,239.220001221,4.34999990463,5.22499990463,2.13000011444,1.3259999752
2020/05/26/02:05:05.669977,45837,1590426305,669857384,robotiq_ft_frame_id,-10.6199998856,239.320007324,4.26999998093,5.22900009155,2.132999897,1.32500004768
2020/05/26/02:05:05.686484,45838,1590426305,686280706,robotiq_ft_frame_id,-10.6700000763,239.369995117,4.28999996185,5.23099994659,2.13400006294,1.32500004768
2020/05/26/02:05:05.702872,45839,1590426305,702678054,robotiq_ft_frame_id,-10.75,239.199996948,4.28999996185,5.22800016403,2.13599991798,1.3259999752
2020/05/26/02:05:05.719326,45840,1590426305,719123649,robotiq_ft_frame_id,-10.6800003052,239.25,4.30000019073,5.22800016403,2.13400006294,1.32700002193
2020/05/26/02:05:05.735674,45841,1590426305,735490475,robotiq_ft_frame_id,-10.6899995804,239.270004272,4.26999998093,5.22800016403,2.13499999046,1.32400000095
2020/05/26/02:05:05.752060,45842,1590426305,751862647,robotiq_ft_frame_id,-10.6599998474,239.300003052,4.30000019073,5.22599983215,2.132999897,1.32400000095
2020/05/26/02:05:05.764342,45843,1590426305,764137873,robotiq_ft_frame_id,-10.6700000763,239.309997559,4.28999996185,5.22499990463,2.132999897,1.32400000095
2020/05/26/02:05:05.780816,45844,1590426305,780541839,robotiq_ft_frame_id,-10.7100000381,239.279998779,4.28999996185,5.22700023651,2.13700008392,1.32400000095
2020/05/26/02:05:05.797050,45845,1590426305,796886627,robotiq_ft_frame_id,-10.6599998474,239.330001831,4.28000020981,5.22900009155,2.13599991798,1.32400000095
2020/05/26/02:05:05.813385,45846,1590426305,813197587,robotiq_ft_frame_id,-10.6300001144,239.210006714,4.25,5.22700023651,2.13400006294,1.3259999752
2020/05/26/02:05:05.829746,45847,1590426305,829518730,robotiq_ft_frame_id,-10.6999998093,239.369995117,4.19999980927,5.23199987411,2.13599991798,1.32500004768
2020/05/26/02:05:05.846075,45848,1590426305,845891695,robotiq_ft_frame_id,-10.6700000763,239.330001831,4.23000001907,5.23099994659,2.13599991798,1.3259999752
2020/05/26/02:05:05.862437,45849,1590426305,862272754,robotiq_ft_frame_id,-10.6300001144,239.350006104,4.30999994278,5.22900009155,2.132999897,1.32700002193
2020/05/26/02:05:05.878863,45850,1590426305,878679793,robotiq_ft_frame_id,-10.6700000763,239.300003052,4.23999977112,5.22800016403,2.13400006294,1.32700002193
2020/05/26/02:05:05.895277,45851,1590426305,895072853,robotiq_ft_frame_id,-10.6400003433,239.320007324,4.17999982834,5.23099994659,2.13400006294,1.32400000095
2020/05/26/02:05:05.911776,45852,1590426305,911550397,robotiq_ft_frame_id,-10.6000003815,239.259994507,4.21000003815,5.23000001907,2.13400006294,1.32500004768
2020/05/26/02:05:05.924021,45853,1590426305,923869062,robotiq_ft_frame_id,-10.6400003433,239.380004883,4.30999994278,5.23000001907,2.132999897,1.3259999752
2020/05/26/02:05:05.940382,45854,1590426305,940200631,robotiq_ft_frame_id,-10.6300001144,239.339996338,4.25,5.23099994659,2.132999897,1.32700002193
2020/05/26/02:05:05.956736,45855,1590426305,956541842,robotiq_ft_frame_id,-10.6300001144,239.320007324,4.21000003815,5.23099994659,2.13400006294,1.32700002193
2020/05/26/02:05:05.973119,45856,1590426305,972852976,robotiq_ft_frame_id,-10.6000003815,239.190002441,4.26000022888,5.22900009155,2.13199996948,1.3259999752
2020/05/26/02:05:05.989463,45857,1590426305,989182372,robotiq_ft_frame_id,-10.6300001144,239.199996948,4.25,5.22700023651,2.13400006294,1.32400000095
2020/05/26/02:05:06.005707,45858,1590426306,5546485,robotiq_ft_frame_id,-10.6800003052,239.229995728,4.21000003815,5.22900009155,2.13599991798,1.32299995422
2020/05/26/02:05:06.022097,45859,1590426306,21959672,robotiq_ft_frame_id,-10.6599998474,239.259994507,4.21000003815,5.23000001907,2.132999897,1.32500004768
2020/05/26/02:05:06.038549,45860,1590426306,38372318,robotiq_ft_frame_id,-10.6099996567,239.309997559,4.21999979019,5.23099994659,2.13199996948,1.32500004768
2020/05/26/02:05:06.054917,45861,1590426306,54718497,robotiq_ft_frame_id,-10.6800003052,239.38999939,4.23999977112,5.23199987411,2.13400006294,1.32500004768
2020/05/26/02:05:06.071312,45862,1590426306,71126715,robotiq_ft_frame_id,-10.6099996567,239.289993286,4.25,5.22900009155,2.13400006294,1.3259999752
2020/05/26/02:05:06.083586,45863,1590426306,83385972,robotiq_ft_frame_id,-10.6599998474,239.25,4.26000022888,5.22900009155,2.13400006294,1.32500004768
2020/05/26/02:05:06.100002,45864,1590426306,99722634,robotiq_ft_frame_id,-10.5500001907,239.320007324,4.23999977112,5.23099994659,2.132999897,1.3259999752
2020/05/26/02:05:06.116300,45865,1590426306,116069031,robotiq_ft_frame_id,-10.5399999619,239.289993286,4.28000020981,5.22900009155,2.13100004196,1.32700002193
2020/05/26/02:05:06.132605,45866,1590426306,132408218,robotiq_ft_frame_id,-10.6099996567,239.330001831,4.23999977112,5.22900009155,2.13199996948,1.32500004768
2020/05/26/02:05:06.148996,45867,1590426306,148809565,robotiq_ft_frame_id,-10.6099996567,239.330001831,4.23000001907,5.22900009155,2.13199996948,1.32500004768
2020/05/26/02:05:06.165469,45868,1590426306,165273817,robotiq_ft_frame_id,-10.6199998856,239.320007324,4.26999998093,5.23000001907,2.132999897,1.32400000095
2020/05/26/02:05:06.181818,45869,1590426306,181607605,robotiq_ft_frame_id,-10.6400003433,239.229995728,4.23999977112,5.22800016403,2.13400006294,1.32299995422
2020/05/26/02:05:06.198132,45870,1590426306,197982795,robotiq_ft_frame_id,-10.6199998856,239.229995728,4.23000001907,5.22700023651,2.132999897,1.32299995422
2020/05/26/02:05:06.214475,45871,1590426306,214305192,robotiq_ft_frame_id,-10.6400003433,239.229995728,4.32000017166,5.22499990463,2.13400006294,1.32500004768
2020/05/26/02:05:06.230878,45872,1590426306,230683468,robotiq_ft_frame_id,-10.6599998474,239.270004272,4.32999992371,5.22700023651,2.132999897,1.32400000095
2020/05/26/02:05:06.247332,45873,1590426306,247059453,robotiq_ft_frame_id,-10.6300001144,239.339996338,4.26000022888,5.23000001907,2.13400006294,1.32400000095
2020/05/26/02:05:06.259547,45874,1590426306,259344197,robotiq_ft_frame_id,-10.6499996185,239.309997559,4.26999998093,5.23099994659,2.13499999046,1.3259999752
2020/05/26/02:05:06.275868,45875,1590426306,275677480,robotiq_ft_frame_id,-10.6300001144,239.320007324,4.28000020981,5.23000001907,2.132999897,1.32700002193
2020/05/26/02:05:06.292206,45876,1590426306,292001363,robotiq_ft_frame_id,-10.6099996567,239.320007324,4.19999980927,5.23099994659,2.13199996948,1.32400000095
2020/05/26/02:05:06.308682,45877,1590426306,308418630,robotiq_ft_frame_id,-10.6499996185,239.330001831,4.19999980927,5.22900009155,2.13499999046,1.32500004768
2020/05/26/02:05:06.324942,45878,1590426306,324813656,robotiq_ft_frame_id,-10.6700000763,239.300003052,4.36000013351,5.22700023651,2.132999897,1.32500004768
2020/05/26/02:05:06.341312,45879,1590426306,341144689,robotiq_ft_frame_id,-10.6599998474,239.38999939,4.23999977112,5.23000001907,2.132999897,1.32500004768
2020/05/26/02:05:06.357645,45880,1590426306,357448898,robotiq_ft_frame_id,-10.7100000381,239.36000061,4.23999977112,5.23099994659,2.13499999046,1.32500004768
2020/05/26/02:05:06.373991,45881,1590426306,373771059,robotiq_ft_frame_id,-10.6800003052,239.289993286,4.30999994278,5.22800016403,2.13400006294,1.32700002193
2020/05/26/02:05:06.390408,45882,1590426306,390134757,robotiq_ft_frame_id,-10.6300001144,239.25,4.30999994278,5.22700023651,2.132999897,1.3259999752
2020/05/26/02:05:06.406706,45883,1590426306,406535010,robotiq_ft_frame_id,-10.6199998856,239.320007324,4.26000022888,5.22900009155,2.13400006294,1.32500004768
2020/05/26/02:05:06.423056,45884,1590426306,422835981,robotiq_ft_frame_id,-10.6700000763,239.259994507,4.30000019073,5.22900009155,2.13400006294,1.32500004768
2020/05/26/02:05:06.435343,45885,1590426306,435138149,robotiq_ft_frame_id,-10.6300001144,239.300003052,4.26000022888,5.23000001907,2.132999897,1.32500004768
2020/05/26/02:05:06.451694,45886,1590426306,451510187,robotiq_ft_frame_id,-10.6099996567,239.309997559,4.26999998093,5.23099994659,2.13199996948,1.32500004768
2020/05/26/02:05:06.468110,45887,1590426306,467920143,robotiq_ft_frame_id,-10.5900001526,239.289993286,4.28000020981,5.22900009155,2.132999897,1.32500004768
2020/05/26/02:05:06.484469,45888,1590426306,484273981,robotiq_ft_frame_id,-10.6199998856,239.38999939,4.36999988556,5.22900009155,2.13100004196,1.32500004768
2020/05/26/02:05:06.500819,45889,1590426306,500647172,robotiq_ft_frame_id,-10.6599998474,239.350006104,4.25,5.23099994659,2.13499999046,1.32500004768
2020/05/26/02:05:06.517213,45890,1590426306,517029009,robotiq_ft_frame_id,-10.6499996185,239.320007324,4.28000020981,5.23099994659,2.13599991798,1.3259999752
2020/05/26/02:05:06.533564,45891,1590426306,533377981,robotiq_ft_frame_id,-10.6599998474,239.380004883,4.30999994278,5.23299980164,2.132999897,1.32400000095
2020/05/26/02:05:06.549929,45892,1590426306,549744019,robotiq_ft_frame_id,-10.6300001144,239.350006104,4.26000022888,5.23000001907,2.13199996948,1.32400000095
2020/05/26/02:05:06.566367,45893,1590426306,566172636,robotiq_ft_frame_id,-10.6400003433,239.320007324,4.25,5.23099994659,2.13499999046,1.3259999752
2020/05/26/02:05:06.582837,45894,1590426306,582632907,robotiq_ft_frame_id,-10.6099996567,239.36000061,4.38000011444,5.22800016403,2.13199996948,1.32500004768
2020/05/26/02:05:06.595040,45895,1590426306,594926578,robotiq_ft_frame_id,-10.5900001526,239.240005493,4.30999994278,5.22499990463,2.13199996948,1.3259999752
2020/05/26/02:05:06.611541,45896,1590426306,611337119,robotiq_ft_frame_id,-10.6300001144,239.190002441,4.30000019073,5.22599983215,2.13400006294,1.3259999752
2020/05/26/02:05:06.627975,45897,1590426306,627774759,robotiq_ft_frame_id,-10.7100000381,239.279998779,4.30999994278,5.22900009155,2.13499999046,1.3259999752
2020/05/26/02:05:06.644407,45898,1590426306,644187428,robotiq_ft_frame_id,-10.6999998093,239.289993286,4.28000020981,5.22900009155,2.13499999046,1.32700002193
2020/05/26/02:05:06.660723,45899,1590426306,660552545,robotiq_ft_frame_id,-10.6499996185,239.320007324,4.26000022888,5.22900009155,2.13400006294,1.32500004768
2020/05/26/02:05:06.677137,45900,1590426306,676928312,robotiq_ft_frame_id,-10.6599998474,239.309997559,4.32999992371,5.22800016403,2.13400006294,1.32299995422
2020/05/26/02:05:06.693466,45901,1590426306,693255342,robotiq_ft_frame_id,-10.6199998856,239.220001221,4.32000017166,5.22599983215,2.132999897,1.3259999752
2020/05/26/02:05:06.709867,45902,1590426306,709666325,robotiq_ft_frame_id,-10.6499996185,239.259994507,4.28999996185,5.22800016403,2.132999897,1.32500004768
2020/05/26/02:05:06.726220,45903,1590426306,726042177,robotiq_ft_frame_id,-10.6199998856,239.320007324,4.26999998093,5.23000001907,2.132999897,1.32400000095
2020/05/26/02:05:06.738554,45904,1590426306,738369834,robotiq_ft_frame_id,-10.6400003433,239.300003052,4.26999998093,5.22900009155,2.13199996948,1.32500004768
2020/05/26/02:05:06.754999,45905,1590426306,754785211,robotiq_ft_frame_id,-10.6300001144,239.320007324,4.23000001907,5.22900009155,2.132999897,1.32500004768
2020/05/26/02:05:06.771454,45906,1590426306,771122242,robotiq_ft_frame_id,-10.6000003815,239.240005493,4.30999994278,5.22599983215,2.13199996948,1.3259999752
2020/05/26/02:05:06.787779,45907,1590426306,787518566,robotiq_ft_frame_id,-10.6400003433,239.279998779,4.34000015259,5.22599983215,2.13199996948,1.32500004768
2020/05/26/02:05:06.804040,45908,1590426306,803847897,robotiq_ft_frame_id,-10.6899995804,239.369995117,4.26000022888,5.23099994659,2.13599991798,1.32500004768
2020/05/26/02:05:06.820446,45909,1590426306,820200715,robotiq_ft_frame_id,-10.7299995422,239.36000061,4.26999998093,5.23000001907,2.13599991798,1.32400000095
2020/05/26/02:05:06.836859,45910,1590426306,836611969,robotiq_ft_frame_id,-10.6700000763,239.149993896,4.28000020981,5.22700023651,2.13400006294,1.32400000095
2020/05/26/02:05:06.853122,45911,1590426306,852960283,robotiq_ft_frame_id,-10.7700004578,239.330001831,4.21999979019,5.22800016403,2.13700008392,1.32500004768
2020/05/26/02:05:06.869438,45912,1590426306,869308695,robotiq_ft_frame_id,-10.7100000381,239.309997559,4.23999977112,5.22800016403,2.13499999046,1.3259999752
2020/05/26/02:05:06.885937,45913,1590426306,885680015,robotiq_ft_frame_id,-10.6000003815,239.289993286,4.30000019073,5.22900009155,2.13400006294,1.32700002193
2020/05/26/02:05:06.902275,45914,1590426306,902050035,robotiq_ft_frame_id,-10.5799999237,239.259994507,4.26000022888,5.22800016403,2.132999897,1.32700002193
2020/05/26/02:05:06.914709,45915,1590426306,914413417,robotiq_ft_frame_id,-10.6599998474,239.289993286,4.26999998093,5.22900009155,2.13499999046,1.32500004768
2020/05/26/02:05:06.930978,45916,1590426306,930793013,robotiq_ft_frame_id,-10.6800003052,239.279998779,4.25,5.22900009155,2.13400006294,1.32299995422
2020/05/26/02:05:06.947397,45917,1590426306,947223986,robotiq_ft_frame_id,-10.6599998474,239.229995728,4.26999998093,5.22800016403,2.13400006294,1.32299995422
2020/05/26/02:05:06.963838,45918,1590426306,963673256,robotiq_ft_frame_id,-10.6199998856,239.289993286,4.28999996185,5.23000001907,2.13400006294,1.32500004768
2020/05/26/02:05:06.980272,45919,1590426306,980053293,robotiq_ft_frame_id,-10.6599998474,239.279998779,4.28999996185,5.23000001907,2.13400006294,1.3259999752
2020/05/26/02:05:06.996712,45920,1590426306,996432052,robotiq_ft_frame_id,-10.6499996185,239.279998779,4.34000015259,5.23000001907,2.13400006294,1.32700002193
2020/05/26/02:05:07.013036,45921,1590426307,12842645,robotiq_ft_frame_id,-10.6599998474,239.350006104,4.23999977112,5.22800016403,2.13700008392,1.32500004768
2020/05/26/02:05:07.029420,45922,1590426307,29228871,robotiq_ft_frame_id,-10.6400003433,239.330001831,4.19999980927,5.22900009155,2.13499999046,1.3259999752
2020/05/26/02:05:07.045806,45923,1590426307,45611638,robotiq_ft_frame_id,-10.5699996948,239.300003052,4.28999996185,5.22800016403,2.13100004196,1.32500004768
2020/05/26/02:05:07.058086,45924,1590426307,57915589,robotiq_ft_frame_id,-10.5900001526,239.229995728,4.26999998093,5.22700023651,2.13100004196,1.3259999752
2020/05/26/02:05:07.074541,45925,1590426307,74324660,robotiq_ft_frame_id,-10.6000003815,239.279998779,4.23000001907,5.23099994659,2.13000011444,1.32500004768
2020/05/26/02:05:07.090938,45926,1590426307,90725335,robotiq_ft_frame_id,-10.6000003815,239.339996338,4.32000017166,5.23099994659,2.132999897,1.32700002193
2020/05/26/02:05:07.107438,45927,1590426307,107198535,robotiq_ft_frame_id,-10.5600004196,239.320007324,4.28999996185,5.23099994659,2.132999897,1.3259999752
2020/05/26/02:05:07.123708,45928,1590426307,123570920,robotiq_ft_frame_id,-10.7100000381,239.199996948,4.25,5.22900009155,2.132999897,1.32700002193
2020/05/26/02:05:07.140196,45929,1590426307,139917572,robotiq_ft_frame_id,-10.6800003052,239.320007324,4.30000019073,5.23099994659,2.13199996948,1.32700002193
2020/05/26/02:05:07.156511,45930,1590426307,156327368,robotiq_ft_frame_id,-10.5699996948,239.270004272,4.32000017166,5.22800016403,2.13199996948,1.32500004768
2020/05/26/02:05:07.172862,45931,1590426307,172648743,robotiq_ft_frame_id,-10.6599998474,239.25,4.26000022888,5.22900009155,2.13199996948,1.32400000095
2020/05/26/02:05:07.189128,45932,1590426307,188937530,robotiq_ft_frame_id,-10.6999998093,239.190002441,4.34000015259,5.22800016403,2.132999897,1.32500004768
2020/05/26/02:05:07.205467,45933,1590426307,205305268,robotiq_ft_frame_id,-10.6099996567,239.25,4.48999977112,5.22800016403,2.12800002098,1.32500004768
2020/05/26/02:05:07.221877,45934,1590426307,221680579,robotiq_ft_frame_id,-10.6099996567,239.240005493,4.48999977112,5.23000001907,2.12800002098,1.32500004768
2020/05/26/02:05:07.234141,45935,1590426307,233965822,robotiq_ft_frame_id,-10.6199998856,239.259994507,4.34000015259,5.22900009155,2.1289999485,1.32400000095
2020/05/26/02:05:07.250522,45936,1590426307,250362302,robotiq_ft_frame_id,-10.6000003815,239.259994507,4.30000019073,5.22599983215,2.132999897,1.32400000095
2020/05/26/02:05:07.266934,45937,1590426307,266723019,robotiq_ft_frame_id,-10.6499996185,239.350006104,4.28000020981,5.22900009155,2.13400006294,1.32500004768
2020/05/26/02:05:07.283282,45938,1590426307,283114197,robotiq_ft_frame_id,-10.6800003052,239.289993286,4.25,5.22800016403,2.132999897,1.32500004768
2020/05/26/02:05:07.299705,45939,1590426307,299501977,robotiq_ft_frame_id,-10.6300001144,239.300003052,4.26000022888,5.23000001907,2.13199996948,1.3259999752
2020/05/26/02:05:07.316087,45940,1590426307,315841949,robotiq_ft_frame_id,-10.6599998474,239.309997559,4.25,5.22800016403,2.13400006294,1.32299995422
2020/05/26/02:05:07.332361,45941,1590426307,332208862,robotiq_ft_frame_id,-10.6700000763,239.270004272,4.28000020981,5.22800016403,2.132999897,1.32500004768
2020/05/26/02:05:07.348663,45942,1590426307,348549537,robotiq_ft_frame_id,-10.6300001144,239.240005493,4.28000020981,5.22700023651,2.13199996948,1.32500004768
2020/05/26/02:05:07.365127,45943,1590426307,364911883,robotiq_ft_frame_id,-10.6400003433,239.339996338,4.26000022888,5.23099994659,2.132999897,1.32400000095
2020/05/26/02:05:07.381534,45944,1590426307,381289979,robotiq_ft_frame_id,-10.6899995804,239.36000061,4.21999979019,5.23099994659,2.13400006294,1.32400000095
2020/05/26/02:05:07.393703,45945,1590426307,393535396,robotiq_ft_frame_id,-10.6099996567,239.229995728,4.26999998093,5.22599983215,2.13199996948,1.32299995422
2020/05/26/02:05:07.410105,45946,1590426307,409883300,robotiq_ft_frame_id,-10.6000003815,239.229995728,4.32000017166,5.22599983215,2.13100004196,1.32400000095
2020/05/26/02:05:07.426489,45947,1590426307,426239627,robotiq_ft_frame_id,-10.6800003052,239.25,4.17999982834,5.23000001907,2.13499999046,1.32400000095
2020/05/26/02:05:07.442883,45948,1590426307,442641138,robotiq_ft_frame_id,-10.6099996567,239.330001831,4.23000001907,5.23099994659,2.13199996948,1.3259999752
2020/05/26/02:05:07.459145,45949,1590426307,458981308,robotiq_ft_frame_id,-10.6000003815,239.229995728,4.23999977112,5.22900009155,2.132999897,1.3259999752
2020/05/26/02:05:07.475547,45950,1590426307,475323081,robotiq_ft_frame_id,-10.6499996185,239.279998779,4.21000003815,5.23000001907,2.13400006294,1.32500004768
2020/05/26/02:05:07.491814,45951,1590426307,491618826,robotiq_ft_frame_id,-10.6300001144,239.320007324,4.21999979019,5.23000001907,2.13400006294,1.32400000095
2020/05/26/02:05:07.508178,45952,1590426307,507941125,robotiq_ft_frame_id,-10.6400003433,239.309997559,4.30000019073,5.22599983215,2.13199996948,1.32400000095
2020/05/26/02:05:07.524404,45953,1590426307,524268387,robotiq_ft_frame_id,-10.6400003433,239.320007324,4.21000003815,5.23099994659,2.13499999046,1.3259999752
2020/05/26/02:05:07.540795,45954,1590426307,540613498,robotiq_ft_frame_id,-10.6499996185,239.300003052,4.19999980927,5.23000001907,2.13400006294,1.3259999752
2020/05/26/02:05:07.557130,45955,1590426307,556924520,robotiq_ft_frame_id,-10.6599998474,239.240005493,4.28000020981,5.22900009155,2.132999897,1.32799994946
2020/05/26/02:05:07.569488,45956,1590426307,569249819,robotiq_ft_frame_id,-10.6700000763,239.240005493,4.21999979019,5.23000001907,2.13400006294,1.32700002193
2020/05/26/02:05:07.585808,45957,1590426307,585625048,robotiq_ft_frame_id,-10.6000003815,239.270004272,4.21000003815,5.23000001907,2.132999897,1.3259999752
2020/05/26/02:05:07.602155,45958,1590426307,602000762,robotiq_ft_frame_id,-10.5900001526,239.210006714,4.40000009537,5.22700023651,2.13000011444,1.3259999752
2020/05/26/02:05:07.618583,45959,1590426307,618400538,robotiq_ft_frame_id,-10.6099996567,239.179992676,4.36000013351,5.22700023651,2.132999897,1.32500004768
2020/05/26/02:05:07.634964,45960,1590426307,634753643,robotiq_ft_frame_id,-10.6000003815,239.210006714,4.30000019073,5.22800016403,2.132999897,1.32500004768
2020/05/26/02:05:07.651412,45961,1590426307,651140151,robotiq_ft_frame_id,-10.5699996948,239.279998779,4.28999996185,5.23000001907,2.13100004196,1.32500004768
2020/05/26/02:05:07.667726,45962,1590426307,667570529,robotiq_ft_frame_id,-10.6099996567,239.220001221,4.28000020981,5.22900009155,2.13100004196,1.32400000095
2020/05/26/02:05:07.684137,45963,1590426307,683950157,robotiq_ft_frame_id,-10.5699996948,239.289993286,4.26999998093,5.22900009155,2.13100004196,1.32500004768
2020/05/26/02:05:07.700596,45964,1590426307,700292223,robotiq_ft_frame_id,-10.6099996567,239.320007324,4.36000013351,5.22800016403,2.13000011444,1.32500004768
2020/05/26/02:05:07.716780,45965,1590426307,716616094,robotiq_ft_frame_id,-10.6099996567,239.270004272,4.32000017166,5.22800016403,2.12800002098,1.32500004768
2020/05/26/02:05:07.729067,45966,1590426307,728885503,robotiq_ft_frame_id,-10.7600002289,239.5,4.25,5.24300003052,2.12299990654,1.32400000095
2020/05/26/02:05:07.745476,45967,1590426307,745226373,robotiq_ft_frame_id,-11.4399995804,239.070007324,4.21999979019,5.20499992371,2.05500006676,1.32500004768
2020/05/26/02:05:07.761831,45968,1590426307,761623988,robotiq_ft_frame_id,-11.1999998093,239.100006104,4.17999982834,5.23099994659,2.10400009155,1.3259999752
2020/05/26/02:05:07.778249,45969,1590426307,777993361,robotiq_ft_frame_id,-10.7899999619,238.850006104,4.19000005722,5.19799995422,2.132999897,1.32500004768
2020/05/26/02:05:07.794526,45970,1590426307,794354074,robotiq_ft_frame_id,-11.1400003433,239.630004883,4.32000017166,5.23500013351,2.10299992561,1.32700002193
2020/05/26/02:05:07.810974,45971,1590426307,810773385,robotiq_ft_frame_id,-11.25,239.440002441,4.38000011444,5.22200012207,2.08599996567,1.3259999752
2020/05/26/02:05:07.827417,45972,1590426307,827199811,robotiq_ft_frame_id,-11.2399997711,239.240005493,4.17000007629,5.23400020599,2.09800004959,1.32799994946
2020/05/26/02:05:07.843802,45973,1590426307,843609782,robotiq_ft_frame_id,-11.220000267,239.330001831,4.19000005722,5.23500013351,2.09800004959,1.32799994946
2020/05/26/02:05:07.860150,45974,1590426307,859983360,robotiq_ft_frame_id,-11.4099998474,239.259994507,4.28999996185,5.21400022507,2.07899999619,1.32899999619
2020/05/26/02:05:07.876518,45975,1590426307,876324191,robotiq_ft_frame_id,-11.5,239.559997559,4.26000022888,5.24100017548,2.0490000248,1.3259999752
2020/05/26/02:05:07.892902,45976,1590426307,892703150,robotiq_ft_frame_id,-11.2700004578,239.479995728,4.23000001907,5.24599981308,2.08400011063,1.3259999752
2020/05/26/02:05:07.905295,45977,1590426307,905001783,robotiq_ft_frame_id,-11.1099996567,239.179992676,4.36999988556,5.22300004959,2.10100007057,1.32700002193
2020/05/26/02:05:07.921645,45978,1590426307,921388887,robotiq_ft_frame_id,-11.3999996185,239.259994507,4.42000007629,5.22800016403,2.08100008965,1.32799994946
2020/05/26/02:05:07.937940,45979,1590426307,937781292,robotiq_ft_frame_id,-11.1800003052,239.220001221,4.46000003815,5.22200012207,2.09899997711,1.32899999619
2020/05/26/02:05:07.954333,45980,1590426307,954171926,robotiq_ft_frame_id,-10.6800003052,239.179992676,4.53999996185,5.22399997711,2.13700008392,1.33000004292
2020/05/26/02:05:07.970760,45981,1590426307,970543852,robotiq_ft_frame_id,-10.6700000763,239.350006104,4.67999982834,5.24300003052,2.14899992943,1.33000004292
2020/05/26/02:05:07.987165,45982,1590426307,986932496,robotiq_ft_frame_id,-11.1899995804,239.179992676,4.67999982834,5.22599983215,2.10700011253,1.32899999619
2020/05/26/02:05:08.003442,45983,1590426308,3253493,robotiq_ft_frame_id,-11.6300001144,239.289993286,4.57000017166,5.22800016403,2.06100010872,1.33000004292
2020/05/26/02:05:08.019840,45984,1590426308,19597402,robotiq_ft_frame_id,-11.6499996185,239.279998779,4.65000009537,5.22900009155,2.06200003624,1.33099997044
2020/05/26/02:05:08.036272,45985,1590426308,35998140,robotiq_ft_frame_id,-11.4799995422,239.270004272,4.78999996185,5.23999977112,2.07299995422,1.33299994469
2020/05/26/02:05:08.052496,45986,1590426308,52359926,robotiq_ft_frame_id,-11.220000267,239.089996338,4.82999992371,5.22800016403,2.09999990463,1.33399999142
2020/05/26/02:05:08.064758,45987,1590426308,64614329,robotiq_ft_frame_id,-10.0600004196,239.369995117,4.94000005722,5.23400020599,2.20399999619,1.33599996567
2020/05/26/02:05:08.081177,45988,1590426308,80965892,robotiq_ft_frame_id,-10.3400001526,239.229995728,5.07000017166,5.23099994659,2.20499992371,1.33599996567
2020/05/26/02:05:08.097540,45989,1590426308,97345995,robotiq_ft_frame_id,-11.3100004196,239.660003662,5.11000013351,5.27299976349,2.08999991417,1.3370000124
2020/05/26/02:05:08.114033,45990,1590426308,113782162,robotiq_ft_frame_id,-12.0799999237,239.119995117,4.96999979019,5.25099992752,1.98599994183,1.33399999142
2020/05/26/02:05:08.130299,45991,1590426308,130136177,robotiq_ft_frame_id,-11.7100000381,239.270004272,4.90000009537,5.26999998093,2.04999995232,1.33500003815
2020/05/26/02:05:08.146672,45992,1590426308,146510300,robotiq_ft_frame_id,-10.8100004196,239.210006714,5.15999984741,5.22300004959,2.12199997902,1.33599996567
2020/05/26/02:05:08.163049,45993,1590426308,162886720,robotiq_ft_frame_id,-10.2299995422,239.240005493,5.61000013351,5.22200012207,2.18300008774,1.3370000124
2020/05/26/02:05:08.179425,45994,1590426308,179228002,robotiq_ft_frame_id,-9.93000030518,238.910003662,5.59999990463,5.21199989319,2.22300004959,1.3370000124
2020/05/26/02:05:08.195714,45995,1590426308,195565194,robotiq_ft_frame_id,-10.75,239.470001221,5.46000003815,5.26200008392,2.16100001335,1.3370000124
2020/05/26/02:05:08.212039,45996,1590426308,211854065,robotiq_ft_frame_id,-11.6499996185,238.970001221,5.44000005722,5.20499992371,2.04099988937,1.33500003815
2020/05/26/02:05:08.228355,45997,1590426308,228175573,robotiq_ft_frame_id,-12.25,238.940002441,5.36000013351,5.22200012207,1.98599994183,1.33500003815
2020/05/26/02:05:08.240644,45998,1590426308,240437912,robotiq_ft_frame_id,-11.2600002289,238.869995117,5.40000009537,5.22599983215,2.07699990273,1.3370000124
2020/05/26/02:05:08.256999,45999,1590426308,256806688,robotiq_ft_frame_id,-9.31000041962,238.660003662,5.82999992371,5.18800020218,2.29699993134,1.33899998665
2020/05/26/02:05:08.273329,46000,1590426308,273132910,robotiq_ft_frame_id,-10.3999996185,239.710006714,6.17999982834,5.24700021744,2.18499994278,1.33899998665
2020/05/26/02:05:08.289734,46001,1590426308,289519088,robotiq_ft_frame_id,-11.6400003433,238.600006104,5.94000005722,5.17000007629,2.03600001335,1.3370000124
2020/05/26/02:05:08.306100,46002,1590426308,305850214,robotiq_ft_frame_id,-12.5500001907,238.809997559,5.53000020981,5.25400018692,1.97500002384,1.33800005913
2020/05/26/02:05:08.322319,46003,1590426308,322193402,robotiq_ft_frame_id,-12.0900001526,238.910003662,5.67000007629,5.24499988556,2.02200007439,1.33899998665
2020/05/26/02:05:08.338661,46004,1590426308,338505633,robotiq_ft_frame_id,-10.9499998093,239.179992676,6.28999996185,5.21600008011,2.14599990845,1.3409999609
2020/05/26/02:05:08.355083,46005,1590426308,354818112,robotiq_ft_frame_id,-9.59000015259,239.009994507,6.46999979019,5.17100000381,2.29099988937,1.33899998665
2020/05/26/02:05:08.371346,46006,1590426308,371150072,robotiq_ft_frame_id,-10.1999998093,238.86000061,6.48000001907,5.17999982834,2.24799990654,1.33899998665
2020/05/26/02:05:08.387782,46007,1590426308,387527334,robotiq_ft_frame_id,-13.2299995422,237.830001831,6.07999992371,5.15199995041,1.92599999905,1.3409999609
2020/05/26/02:05:08.404016,46008,1590426308,403852445,robotiq_ft_frame_id,-13.4499998093,239.0,5.96000003815,5.27400016785,1.85899996758,1.34200000763
2020/05/26/02:05:08.416296,46009,1590426308,416103614,robotiq_ft_frame_id,-10.6099996567,237.759994507,6.25,5.15500020981,2.17300009727,1.34300005436
2020/05/26/02:05:08.432683,46010,1590426308,432457053,robotiq_ft_frame_id,-9.06000041962,240.160003662,7.32000017166,5.24100017548,2.38800001144,1.34500002861
2020/05/26/02:05:08.449235,46011,1590426308,448945663,robotiq_ft_frame_id,-11.1199998856,237.699996948,7.09000015259,5.03100013733,2.13700008392,1.33800005913
2020/05/26/02:05:08.465551,46012,1590426308,465356305,robotiq_ft_frame_id,-13.9200000763,238.979995728,6.30999994278,5.26599979401,1.82899999619,1.34200000763
2020/05/26/02:05:08.481970,46013,1590426308,481797696,robotiq_ft_frame_id,-12.529999733,237.570007324,6.11999988556,5.19299983978,1.9279999733,1.34700000286
2020/05/26/02:05:08.498362,46014,1590426308,498193330,robotiq_ft_frame_id,-9.64000034332,237.869995117,6.73999977112,5.15600013733,2.30800008774,1.34800004959
2020/05/26/02:05:08.514697,46015,1590426308,514517740,robotiq_ft_frame_id,-10.4200000763,240.660003662,7.94000005722,5.27799987793,2.20499992371,1.35000002384
2020/05/26/02:05:08.531008,46016,1590426308,530839657,robotiq_ft_frame_id,-11.9399995804,238.539993286,7.94000005722,5.10799980164,2.02399992943,1.34500002861
2020/05/26/02:05:08.547301,46017,1590426308,547132522,robotiq_ft_frame_id,-12.5799999237,238.820007324,6.59000015259,5.29600000381,1.9960000515,1.35000002384
2020/05/26/02:05:08.563660,46018,1590426308,563435132,robotiq_ft_frame_id,-10.75,236.580001831,6.42000007629,5.15700006485,2.14400005341,1.35099995136
2020/05/26/02:05:08.575970,46019,1590426308,575733245,robotiq_ft_frame_id,-10.2299995422,239.649993896,7.61000013351,5.30399990082,2.29399991035,1.35300004482
2020/05/26/02:05:08.592309,46020,1590426308,592123837,robotiq_ft_frame_id,-12.6000003815,240.649993896,7.98000001907,5.25699996948,1.9279999733,1.34399998188
2020/05/26/02:05:08.608632,46021,1590426308,608469130,robotiq_ft_frame_id,-12.8199996948,239.910003662,7.44000005722,5.25899982452,1.95799994469,1.34599995613
2020/05/26/02:05:08.625063,46022,1590426308,624877406,robotiq_ft_frame_id,-10.5699996948,239.490005493,7.36000013351,5.37099981308,2.22799992561,1.35500001907
2020/05/26/02:05:08.641435,46023,1590426308,641254818,robotiq_ft_frame_id,-9.82999992371,237.940002441,7.61999988556,5.24399995804,2.29699993134,1.35399997234
2020/05/26/02:05:08.657877,46024,1590426308,657597671,robotiq_ft_frame_id,-12.0799999237,240.660003662,7.82999992371,5.31799983978,2.08599996567,1.34599995613
2020/05/26/02:05:08.674173,46025,1590426308,673987003,robotiq_ft_frame_id,-12.8599996567,239.369995117,7.69999980927,5.16900014877,1.90100002289,1.35000002384
2020/05/26/02:05:08.690528,46026,1590426308,690348764,robotiq_ft_frame_id,-11.9200000763,239.660003662,7.65000009537,5.3029999733,2.09800004959,1.35300004482
2020/05/26/02:05:08.707055,46027,1590426308,706763040,robotiq_ft_frame_id,-8.96000003815,238.0,8.26000022888,5.27500009537,2.36800003052,1.35399997234
2020/05/26/02:05:08.723253,46028,1590426308,723098639,robotiq_ft_frame_id,-10.9799995422,240.410003662,8.59000015259,5.40999984741,2.21399998665,1.36600005627
2020/05/26/02:05:08.739578,46029,1590426308,739445721,robotiq_ft_frame_id,-13.6000003815,240.080001831,7.78999996185,5.27699995041,1.81599998474,1.33500003815
2020/05/26/02:05:08.751935,46030,1590426308,751737278,robotiq_ft_frame_id,-11.8599996567,238.589996338,7.82999992371,5.15600013733,2.03099989891,1.35599994659
2020/05/26/02:05:08.768333,46031,1590426308,768107431,robotiq_ft_frame_id,-10.470000267,240.300003052,8.53999996185,5.37699985504,2.27800011635,1.35500001907
2020/05/26/02:05:08.784678,46032,1590426308,784469257,robotiq_ft_frame_id,-9.77999973297,237.809997559,8.77000045776,5.14900016785,2.257999897,1.35800004005
2020/05/26/02:05:08.801033,46033,1590426308,800823892,robotiq_ft_frame_id,-12.25,240.899993896,8.63000011444,5.37200021744,2.03600001335,1.36500000954
2020/05/26/02:05:08.817362,46034,1590426308,817195379,robotiq_ft_frame_id,-14.5,238.130004883,8.09000015259,5.18699979782,1.74699997902,1.34300005436
2020/05/26/02:05:08.833717,46035,1590426308,833578393,robotiq_ft_frame_id,-10.0100002289,235.660003662,8.30000019073,4.99499988556,2.19000005722,1.35000002384
2020/05/26/02:05:08.850062,46036,1590426308,849900887,robotiq_ft_frame_id,-8.14000034332,238.660003662,9.19999980927,5.27899980545,2.43700003624,1.34899997711
2020/05/26/02:05:08.866415,46037,1590426308,866242152,robotiq_ft_frame_id,-12.4099998474,237.300003052,9.22000026703,5.02199983597,2.02099990845,1.35500001907
2020/05/26/02:05:08.882798,46038,1590426308,882608012,robotiq_ft_frame_id,-14.3400001526,241.130004883,8.65999984741,5.32399988174,1.77600002289,1.34800004959
2020/05/26/02:05:08.899156,46039,1590426308,898943154,robotiq_ft_frame_id,-12.9799995422,236.479995728,7.88999986649,5.06699991226,1.82299995422,1.35000002384
2020/05/26/02:05:08.911454,46040,1590426308,911249561,robotiq_ft_frame_id,-9.64000034332,238.330001831,9.57999992371,5.21199989319,2.4470000267,1.36399996281
2020/05/26/02:05:08.927832,46041,1590426308,927679240,robotiq_ft_frame_id,-9.52999973297,237.259994507,9.72999954224,5.03499984741,2.36100006104,1.36500000954
2020/05/26/02:05:08.944248,46042,1590426308,944050779,robotiq_ft_frame_id,-14.4399995804,237.660003662,9.18000030518,5.11899995804,1.80799996853,1.34700000286
2020/05/26/02:05:08.960680,46043,1590426308,960428243,robotiq_ft_frame_id,-15.3599996567,238.630004883,8.89999961853,5.20599985123,1.70700001717,1.35500001907
2020/05/26/02:05:08.977080,46044,1590426308,976861962,robotiq_ft_frame_id,-10.5600004196,235.330001831,8.68999958038,5.01700019836,2.17199993134,1.34599995613
2020/05/26/02:05:08.993426,46045,1590426308,993232112,robotiq_ft_frame_id,-10.2899999619,243.089996338,10.3100004196,5.51499986649,2.34999990463,1.38300001621
2020/05/26/02:05:09.009747,46046,1590426309,9546324,robotiq_ft_frame_id,-13.3900003433,237.399993896,9.81000041962,5.007999897,2.01799988747,1.37199997902
2020/05/26/02:05:09.026069,46047,1590426309,25871438,robotiq_ft_frame_id,-15.0500001907,240.320007324,8.43000030518,5.34700012207,1.67299997807,1.35099995136
2020/05/26/02:05:09.042461,46048,1590426309,42192719,robotiq_ft_frame_id,-13.3100004196,236.220001221,8.56000041962,5.0560002327,1.82000005245,1.36899995804
2020/05/26/02:05:09.058808,46049,1590426309,58595293,robotiq_ft_frame_id,-10.5900001526,238.179992676,10.1199998856,5.23699998856,2.4430000782,1.36300003529
2020/05/26/02:05:09.071054,46050,1590426309,70926541,robotiq_ft_frame_id,-10.1099996567,237.210006714,10.0399999619,4.99499988556,2.28099989891,1.37399995327
2020/05/26/02:05:09.087519,46051,1590426309,87288216,robotiq_ft_frame_id,-14.9200000763,237.410003662,9.56999969482,5.11100006104,1.77199995518,1.34500002861
2020/05/26/02:05:09.103840,46052,1590426309,103646905,robotiq_ft_frame_id,-14.3000001907,241.789993286,9.80000019073,5.53000020981,1.89600002766,1.38399994373
2020/05/26/02:05:09.120201,46053,1590426309,119977474,robotiq_ft_frame_id,-11.0500001907,235.580001831,9.60000038147,5.0560002327,2.18700003624,1.35199999809
2020/05/26/02:05:09.136587,46054,1590426309,136413267,robotiq_ft_frame_id,-10.8100004196,243.160003662,10.6700000763,5.4889998436,2.26900005341,1.38900005817
2020/05/26/02:05:09.152944,46055,1590426309,152748455,robotiq_ft_frame_id,-14.1700000763,237.419998169,10.279999733,5.02099990845,1.97500002384,1.3710000515
2020/05/26/02:05:09.169278,46056,1590426309,169075767,robotiq_ft_frame_id,-15.2100000381,240.600006104,9.11999988556,5.37200021744,1.63100004196,1.35800004005
2020/05/26/02:05:09.185596,46057,1590426309,185464319,robotiq_ft_frame_id,-11.25,240.669998169,10.4499998093,5.492000103,2.15799999237,1.36899995804
2020/05/26/02:05:09.202008,46058,1590426309,201812517,robotiq_ft_frame_id,-10.7100000381,238.690002441,10.9499998093,5.25500011444,2.40000009537,1.37300002575
2020/05/26/02:05:09.218245,46059,1590426309,218090625,robotiq_ft_frame_id,-12.4099998474,241.960006714,10.3400001526,5.41599988937,1.92100000381,1.3710000515
2020/05/26/02:05:09.234487,46060,1590426309,234359766,robotiq_ft_frame_id,-15.3500003815,237.580001831,9.89999961853,5.1360001564,1.72599995136,1.34800004959
2020/05/26/02:05:09.246816,46061,1590426309,246619576,robotiq_ft_frame_id,-14.6899995804,241.699996948,10.6400003433,5.51200008392,1.84800004959,1.38600003719
2020/05/26/02:05:09.263095,46062,1590426309,262933284,robotiq_ft_frame_id,-8.81999969482,238.800003052,10.9300003052,5.22700023651,2.29200005531,1.36699998379
2020/05/26/02:05:09.279407,46063,1590426309,279218650,robotiq_ft_frame_id,-10.9499998093,243.13999939,11.2600002289,5.48400020599,2.22300004959,1.39199995995
2020/05/26/02:05:09.295690,46064,1590426309,295507209,robotiq_ft_frame_id,-15.6199998856,240.009994507,10.1599998474,5.35099983215,1.63399994373,1.35599994659
2020/05/26/02:05:09.312011,46065,1590426309,311816749,robotiq_ft_frame_id,-15.8800001144,240.130004883,9.72999954224,5.37099981308,1.57400000095,1.36099994183
2020/05/26/02:05:09.328313,46066,1590426309,328115085,robotiq_ft_frame_id,-11.7100000381,241.059997559,10.8800001144,5.47300004959,2.08800005913,1.375
2020/05/26/02:05:09.344592,46067,1590426309,344389506,robotiq_ft_frame_id,-11.1999998093,237.130004883,11.3999996185,5.00099992752,2.21799993515,1.3789999485
2020/05/26/02:05:09.360901,46068,1590426309,360691758,robotiq_ft_frame_id,-12.9099998474,241.910003662,11.0699996948,5.42700004578,1.91700005531,1.38100004196
2020/05/26/02:05:09.377472,46069,1590426309,377170893,robotiq_ft_frame_id,-16.5799999237,237.990005493,10.3999996185,5.22300004959,1.60800004005,1.36600005627
2020/05/26/02:05:09.393678,46070,1590426309,393540996,robotiq_ft_frame_id,-15.0,241.300003052,10.6700000763,5.48299980164,1.73599994183,1.38199996948
2020/05/26/02:05:09.410002,46071,1590426309,409868355,robotiq_ft_frame_id,-10.1199998856,239.419998169,11.4899997711,5.24900007248,2.27800011635,1.37800002098
2020/05/26/02:05:09.426551,46072,1590426309,426276174,robotiq_ft_frame_id,-14.2600002289,236.509994507,11.1700000763,4.99800014496,1.91999995708,1.375
2020/05/26/02:05:09.438698,46073,1590426309,438526162,robotiq_ft_frame_id,-16.0499992371,240.320007324,10.6300001144,5.37200021744,1.59700000286,1.36800003052
2020/05/26/02:05:09.454969,46074,1590426309,454844413,robotiq_ft_frame_id,-15.8699998856,235.75,10.6199998856,5.03599977493,1.71500003338,1.36399996281
2020/05/26/02:05:09.471393,46075,1590426309,471202196,robotiq_ft_frame_id,-12.4600000381,241.36000061,11.1700000763,5.4470000267,1.99300003052,1.38100004196
2020/05/26/02:05:09.487767,46076,1590426309,487597431,robotiq_ft_frame_id,-11.6199998856,237.289993286,11.8100004196,5.02699995041,2.22199988365,1.37699997425
2020/05/26/02:05:09.504206,46077,1590426309,503960488,robotiq_ft_frame_id,-16.3999996185,237.61000061,10.8599996567,5.13500022888,1.68499994278,1.37399995327
2020/05/26/02:05:09.520487,46078,1590426309,520289692,robotiq_ft_frame_id,-16.7299995422,238.039993286,10.6300001144,5.23999977112,1.53299999237,1.36800003052
2020/05/26/02:05:09.536886,46079,1590426309,536669568,robotiq_ft_frame_id,-14.220000267,235.779998779,11.529999733,4.98299980164,2.00600004196,1.38399994373
2020/05/26/02:05:09.553189,46080,1590426309,553000231,robotiq_ft_frame_id,-11.3100004196,240.070007324,12.1700000763,5.26200008392,2.23699998856,1.39999997616
2020/05/26/02:05:09.569510,46081,1590426309,569319147,robotiq_ft_frame_id,-13.9899997711,236.020004272,11.3999996185,4.97499990463,1.88100004196,1.36800003052
2020/05/26/02:05:09.585915,46082,1590426309,585708223,robotiq_ft_frame_id,-18.2299995422,239.869995117,10.9300003052,5.34600019455,1.48599994183,1.37600004673
2020/05/26/02:05:09.602178,46083,1590426309,602042932,robotiq_ft_frame_id,-16.5799999237,235.619995117,10.9799995422,5.03000020981,1.63900005817,1.36699998379
2020/05/26/02:05:09.614429,46084,1590426309,614266843,robotiq_ft_frame_id,-11.5100002289,239.179992676,11.8999996185,5.18200016022,2.18899989128,1.39400005341
2020/05/26/02:05:09.630806,46085,1590426309,630619817,robotiq_ft_frame_id,-12.4200000763,237.059997559,12.1899995804,5.03900003433,2.1819999218,1.3789999485
2020/05/26/02:05:09.647291,46086,1590426309,647060921,robotiq_ft_frame_id,-16.8199996948,237.869995117,11.3900003433,5.11999988556,1.61699998379,1.38300001621
2020/05/26/02:05:09.663518,46087,1590426309,663372592,robotiq_ft_frame_id,-16.25,240.740005493,11.529999733,5.45800018311,1.5870000124,1.37300002575
2020/05/26/02:05:09.679821,46088,1590426309,679665758,robotiq_ft_frame_id,-14.8400001526,235.940002441,12.0799999237,4.98600006104,1.93599998951,1.38900005817
2020/05/26/02:05:09.696157,46089,1590426309,695981421,robotiq_ft_frame_id,-11.5699996948,241.729995728,12.3000001907,5.44799995422,2.12400007248,1.38499999046
2020/05/26/02:05:09.712529,46090,1590426309,712307126,robotiq_ft_frame_id,-14.4499998093,235.869995117,11.8199996948,4.96600008011,1.81099998951,1.3710000515
2020/05/26/02:05:09.728870,46091,1590426309,728676653,robotiq_ft_frame_id,-19.1399993896,240.059997559,11.4600000381,5.34899997711,1.45500004292,1.38300001621
2020/05/26/02:05:09.745263,46092,1590426309,745041649,robotiq_ft_frame_id,-13.3999996185,241.070007324,11.9399995804,5.42000007629,1.82000005245,1.38999998569
2020/05/26/02:05:09.761741,46093,1590426309,761499738,robotiq_ft_frame_id,-12.5399999619,238.839996338,12.5,5.12599992752,2.09999990463,1.40600001812
2020/05/26/02:05:09.774062,46094,1590426309,773844046,robotiq_ft_frame_id,-14.6899995804,241.600006104,12.4899997711,5.45900011063,1.89300000668,1.38499999046
2020/05/26/02:05:09.790355,46095,1590426309,790179780,robotiq_ft_frame_id,-16.9200000763,237.75,11.6499996185,5.10099983215,1.56599998474,1.38900005817
2020/05/26/02:05:09.806766,46096,1590426309,806548978,robotiq_ft_frame_id,-17.5400009155,240.460006714,11.9600000381,5.42299985886,1.52600002289,1.38100004196
2020/05/26/02:05:09.823096,46097,1590426309,822885600,robotiq_ft_frame_id,-15.9899997711,235.949996948,12.470000267,5.02400016785,1.82299995422,1.39100003242
2020/05/26/02:05:09.839360,46098,1590426309,839199339,robotiq_ft_frame_id,-12.3599996567,240.800003052,12.6000003815,5.375,2.09299993515,1.39800000191
2020/05/26/02:05:09.855695,46099,1590426309,855556431,robotiq_ft_frame_id,-17.7099990845,241.410003662,12.0500001907,5.3860001564,1.51400005817,1.39699995518
2020/05/26/02:05:09.872149,46100,1590426309,871959637,robotiq_ft_frame_id,-19.4799995422,240.080001831,11.8500003815,5.29099988937,1.36099994183,1.39199995995
2020/05/26/02:05:09.888447,46101,1590426309,888289573,robotiq_ft_frame_id,-15.0200004578,241.369995117,12.3599996567,5.43400001526,1.71300005913,1.39300000668
2020/05/26/02:05:09.904823,46102,1590426309,904658855,robotiq_ft_frame_id,-13.6199998856,238.210006714,12.8299999237,5.08300018311,2.04800009727,1.40699994564
2020/05/26/02:05:09.921300,46103,1590426309,921090751,robotiq_ft_frame_id,-14.6899995804,242.320007324,12.7899999619,5.46999979019,1.86199998856,1.38999998569
2020/05/26/02:05:09.937573,46104,1590426309,937403858,robotiq_ft_frame_id,-18.5599994659,239.410003662,11.75,5.22599983215,1.33800005913,1.39900004864
2020/05/26/02:05:09.949866,46105,1590426309,949644892,robotiq_ft_frame_id,-18.7000007629,240.770004272,12.0600004196,5.42899990082,1.44799995422,1.39900004864
2020/05/26/02:05:09.966252,46106,1590426309,966019252,robotiq_ft_frame_id,-13.4600000381,239.380004883,12.9600000381,5.40299987793,1.92599999905,1.40100002289
2020/05/26/02:05:09.982649,46107,1590426309,982393116,robotiq_ft_frame_id,-14.1000003815,240.179992676,13.1899995804,5.33199977875,2.11299991608,1.4129999876
2020/05/26/02:05:09.998911,46108,1590426309,998739530,robotiq_ft_frame_id,-17.4500007629,242.190002441,12.1199998856,5.39900016785,1.48399996758,1.38300001621
2020/05/26/02:05:10.015287,46109,1590426310,15095540,robotiq_ft_frame_id,-18.9699993134,237.539993286,12.0200004578,5.00500011444,1.32299995422,1.39600002766
2020/05/26/02:05:10.031591,46110,1590426310,31400516,robotiq_ft_frame_id,-17.3299999237,241.429992676,12.7700004578,5.4310002327,1.65999996662,1.39800000191
2020/05/26/02:05:10.047971,46111,1590426310,47710903,robotiq_ft_frame_id,-13.0,237.880004883,13.1800003052,5.05499982834,2.01999998093,1.40600001812
2020/05/26/02:05:10.064224,46112,1590426310,64020520,robotiq_ft_frame_id,-14.5399999619,242.770004272,12.9799995422,5.43200016022,1.81299996376,1.40799999237
2020/05/26/02:05:10.080559,46113,1590426310,80329197,robotiq_ft_frame_id,-19.5900001526,239.229995728,12.25,5.27500009537,1.29999995232,1.39600002766
2020/05/26/02:05:10.096878,46114,1590426310,96636877,robotiq_ft_frame_id,-16.9300003052,235.949996948,12.1400003433,5.08500003815,1.53100001812,1.40400004387
2020/05/26/02:05:10.113246,46115,1590426310,112974454,robotiq_ft_frame_id,-14.1700000763,239.990005493,12.9600000381,5.43800020218,1.8220000267,1.39900004864
2020/05/26/02:05:10.125410,46116,1590426310,125297598,robotiq_ft_frame_id,-16.1000003815,237.399993896,13.0,4.93200016022,1.8409999609,1.4129999876
2020/05/26/02:05:10.141884,46117,1590426310,141648212,robotiq_ft_frame_id,-17.9200000763,242.669998169,12.4300003052,5.41300010681,1.44599997997,1.38699996471
2020/05/26/02:05:10.158105,46118,1590426310,157938063,robotiq_ft_frame_id,-20.1399993896,237.800003052,12.2600002289,4.992000103,1.2159999609,1.39999997616
2020/05/26/02:05:10.174516,46119,1590426310,174243393,robotiq_ft_frame_id,-15.6099996567,236.949996948,13.1199998856,5.0689997673,1.88600003719,1.39400005341
2020/05/26/02:05:10.190880,46120,1590426310,190580429,robotiq_ft_frame_id,-13.4499998093,238.369995117,13.2299995422,5.09100008011,1.95500004292,1.40799999237
2020/05/26/02:05:10.207065,46121,1590426310,206882066,robotiq_ft_frame_id,-19.0599994659,237.809997559,12.7700004578,5.06599998474,1.5,1.39999997616
2020/05/26/02:05:10.223299,46122,1590426310,223173914,robotiq_ft_frame_id,-20.4200000763,239.800003052,12.6400003433,5.31500005722,1.23500001431,1.39800000191
2020/05/26/02:05:10.239589,46123,1590426310,239475300,robotiq_ft_frame_id,-18.0,236.169998169,12.1899995804,5.06699991226,1.4090000391,1.40999996662
2020/05/26/02:05:10.255995,46124,1590426310,255840438,robotiq_ft_frame_id,-15.470000267,239.839996338,13.470000267,5.28499984741,1.97899997234,1.41600000858
2020/05/26/02:05:10.272349,46125,1590426310,272183099,robotiq_ft_frame_id,-16.2700004578,237.13999939,13.25,4.93300008774,1.80900001526,1.41600000858
2020/05/26/02:05:10.288681,46126,1590426310,288502789,robotiq_ft_frame_id,-20.6499996185,239.339996338,12.2299995422,5.12099981308,1.13199996948,1.38399994373
2020/05/26/02:05:10.305180,46127,1590426310,304901274,robotiq_ft_frame_id,-21.1700000763,237.970001221,12.4899997711,5.00299978256,1.10199999809,1.40600001812
2020/05/26/02:05:10.317386,46128,1590426310,317208908,robotiq_ft_frame_id,-16.6100006104,236.960006714,13.1599998474,5.03700017929,1.73399996758,1.39699995518
2020/05/26/02:05:10.333676,46129,1590426310,333517221,robotiq_ft_frame_id,-15.4600000381,243.160003662,13.4799995422,5.42600011826,1.76999998093,1.42299997807
2020/05/26/02:05:10.349982,46130,1590426310,349822083,robotiq_ft_frame_id,-19.2600002289,237.789993286,12.9300003052,5.03900003433,1.49500000477,1.40799999237
2020/05/26/02:05:10.366441,46131,1590426310,366219553,robotiq_ft_frame_id,-21.3199996948,241.080001831,12.2100000381,5.40100002289,1.09000003338,1.42100000381
2020/05/26/02:05:10.382895,46132,1590426310,382642912,robotiq_ft_frame_id,-19.3899993896,236.669998169,12.3100004196,5.05800008774,1.26800000668,1.41999995708
2020/05/26/02:05:10.399209,46133,1590426310,399042684,robotiq_ft_frame_id,-16.2999992371,239.470001221,13.7600002289,5.26300001144,1.9129999876,1.42200005054
2020/05/26/02:05:10.415565,46134,1590426310,415350274,robotiq_ft_frame_id,-18.8500003815,242.369995117,12.8400001526,5.375,1.39900004864,1.41199994087
2020/05/26/02:05:10.431791,46135,1590426310,431634511,robotiq_ft_frame_id,-21.4200000763,239.059997559,13.1199998856,5.0609998703,1.04299998283,1.39499998093
2020/05/26/02:05:10.448177,46136,1590426310,447960954,robotiq_ft_frame_id,-20.6399993896,242.270004272,13.3699998856,5.40999984741,1.27799999714,1.41900002956
2020/05/26/02:05:10.464516,46137,1590426310,464327878,robotiq_ft_frame_id,-17.6700000763,237.220001221,13.220000267,5.02899980545,1.61899995804,1.40199995041
2020/05/26/02:05:10.480820,46138,1590426310,480637756,robotiq_ft_frame_id,-16.2999992371,242.869995117,13.7600002289,5.40299987793,1.73000001907,1.42599999905
2020/05/26/02:05:10.493070,46139,1590426310,492868922,robotiq_ft_frame_id,-21.8299999237,240.86000061,12.4499998093,5.34299993515,1.08000004292,1.41499996185
2020/05/26/02:05:10.509356,46140,1590426310,509159661,robotiq_ft_frame_id,-22.3899993896,241.300003052,12.5900001526,5.375,0.95300000906,1.41999995708
2020/05/26/02:05:10.525678,46141,1590426310,525542558,robotiq_ft_frame_id,-18.3099994659,240.660003662,13.8199996948,5.41800022125,1.59200000763,1.43200004101
2020/05/26/02:05:10.542079,46142,1590426310,541914041,robotiq_ft_frame_id,-17.0499992371,239.320007324,14.0399999619,5.28800010681,1.84399998188,1.41700005531
2020/05/26/02:05:10.558419,46143,1590426310,558235842,robotiq_ft_frame_id,-19.7800006866,243.36000061,12.9399995804,5.42500019073,1.29600000381,1.43099999428
2020/05/26/02:05:10.574836,46144,1590426310,574608297,robotiq_ft_frame_id,-24.3899993896,236.449996948,11.8400001526,4.96899986267,0.927999973297,1.39699995518
