time,.header.seq,.header.stamp.secs,.header.stamp.nsecs,.header.frame_id,.name,.pulse,.position,.velocity,.torque
2020/05/26/01:50:21.454416,1,1590425421,408479928,,"['joint_S', 'joint_L', 'joint_E', 'joint_U', 'joint_R', 'joint_B', 'joint_T']","(5, 1, 5, 5, 2, -3, 1)","(0.0043, -0.0008, 0.0043, 0.0043, -0.0017, -0.0029, -0.0014)","(0.0, 0.0, 0.0, 0.0, 0.0, 0.0, 0.0)","(9e-06, -0.003758, 0.000276, 0.004673, 0.000583, 0.001881, -0.000138)"
2020/05/26/01:50:21.501119,2,1590425421,454276084,,"['joint_S', 'joint_L', 'joint_E', 'joint_U', 'joint_R', 'joint_B', 'joint_T']","(5, 1, 5, 5, 2, -3, 1)","(0.0043, -0.0008, 0.0043, 0.0043, -0.0017, -0.0029, -0.0014)","(0.0, 0.0, 0.0, 0.0, 0.0, 0.0, 0.0)","(9e-06, -0.003758, 0.000276, 0.004673, 0.000583, 0.001881, -0.000138)"
2020/05/26/01:50:21.546759,3,1590425421,500864982,,"['joint_S', 'joint_L', 'joint_E', 'joint_U', 'joint_R', 'joint_B', 'joint_T']","(5, 1, 5, 5, 2, -3, 1)","(0.0043, -0.0008, 0.0043, 0.0043, -0.0017, -0.0029, -0.0014)","(0.0, 0.0, 0.0, 0.0, 0.0, 0.0, 0.0)","(9e-06, -0.003758, 0.000276, 0.004673, 0.000583, 0.001881, -0.000138)"
2020/05/26/01:50:21.593361,4,1590425421,546554088,,"['joint_S', 'joint_L', 'joint_E', 'joint_U', 'joint_R', 'joint_B', 'joint_T']","(5, 1, 5, 5, 2, -3, 1)","(0.0043, -0.0008, 0.0043, 0.0043, -0.0017, -0.0029, -0.0014)","(0.0, 0.0, 0.0, 0.0, 0.0, 0.0, 0.0)","(9e-06, -0.003758, 0.000276, 0.004673, 0.000583, 0.001881, -0.000138)"
2020/05/26/01:50:21.637640,5,1590425421,593206882,,"['joint_S', 'joint_L', 'joint_E', 'joint_U', 'joint_R', 'joint_B', 'joint_T']","(5, 1, 5, 5, 2, -3, 1)","(0.0043, -0.0008, 0.0043, 0.0043, -0.0017, -0.0029, -0.0014)","(0.0, 0.0, 0.0, 0.0, 0.0, 0.0, 0.0)","(9e-06, -0.003758, 0.000276, 0.004673, 0.000583, 0.001881, -0.000138)"
2020/05/26/01:50:21.682122,6,1590425421,637406110,,"['joint_S', 'joint_L', 'joint_E', 'joint_U', 'joint_R', 'joint_B', 'joint_T']","(5, 1, 5, 5, 2, -3, 1)","(0.0043, -0.0008, 0.0043, 0.0043, -0.0017, -0.0029, -0.0014)","(0.0, 0.0, 0.0, 0.0, 0.0, 0.0, 0.0)","(9e-06, -0.003758, 0.000276, 0.004673, 0.000583, 0.001881, -0.000138)"
2020/05/26/01:50:21.728145,7,1590425421,682121992,,"['joint_S', 'joint_L', 'joint_E', 'joint_U', 'joint_R', 'joint_B', 'joint_T']","(5, 1, 5, 5, 2, -3, 1)","(0.0043, -0.0008, 0.0043, 0.0043, -0.0017, -0.0029, -0.0014)","(0.0, 0.0, 0.0, 0.0, 0.0, 0.0, 0.0)","(9e-06, -0.003758, 0.000276, 0.004673, 0.000583, 0.001881, -0.000138)"
2020/05/26/01:50:21.774257,8,1590425421,728101015,,"['joint_S', 'joint_L', 'joint_E', 'joint_U', 'joint_R', 'joint_B', 'joint_T']","(5, 1, 5, 5, 2, -3, 1)","(0.0043, -0.0008, 0.0043, 0.0043, -0.0017, -0.0029, -0.0014)","(0.0, 0.0, 0.0, 0.0, 0.0, 0.0, 0.0)","(9e-06, -0.003758, 0.000276, 0.004673, 0.000583, 0.001881, -0.000138)"
2020/05/26/01:50:21.819113,9,1590425421,774116039,,"['joint_S', 'joint_L', 'joint_E', 'joint_U', 'joint_R', 'joint_B', 'joint_T']","(5, 1, 5, 5, 2, -3, 1)","(0.0043, -0.0008, 0.0043, 0.0043, -0.0017, -0.0029, -0.0014)","(0.0, 0.0, 0.0, 0.0, 0.0, 0.0, 0.0)","(9e-06, -0.003758, 0.000276, 0.004673, 0.000583, 0.001881, -0.000138)"
2020/05/26/01:50:21.863617,10,1590425421,819117069,,"['joint_S', 'joint_L', 'joint_E', 'joint_U', 'joint_R', 'joint_B', 'joint_T']","(5, 1, 5, 5, 2, -3, 1)","(0.0043, -0.0008, 0.0043, 0.0043, -0.0017, -0.0029, -0.0014)","(0.0, 0.0, 0.0, 0.0, 0.0, 0.0, 0.0)","(9e-06, -0.003758, 0.000276, 0.004673, 0.000583, 0.001881, -0.000138)"
2020/05/26/01:50:21.911087,11,1590425421,863569021,,"['joint_S', 'joint_L', 'joint_E', 'joint_U', 'joint_R', 'joint_B', 'joint_T']","(5, 1, 5, 5, 2, -3, 1)","(0.0043, -0.0008, 0.0043, 0.0043, -0.0017, -0.0029, -0.0014)","(0.0, 0.0, 0.0, 0.0, 0.0, 0.0, 0.0)","(9e-06, -0.003758, 0.000276, 0.004673, 0.000583, 0.001881, -0.000138)"
2020/05/26/01:50:21.955812,12,1590425421,911027908,,"['joint_S', 'joint_L', 'joint_E', 'joint_U', 'joint_R', 'joint_B', 'joint_T']","(5, 1, 5, 5, 2, -3, 1)","(0.0043, -0.0008, 0.0043, 0.0043, -0.0017, -0.0029, -0.0014)","(0.0, 0.0, 0.0, 0.0, 0.0, 0.0, 0.0)","(9e-06, -0.003758, 0.000276, 0.004673, 0.000583, 0.001881, -0.000138)"
2020/05/26/01:50:22.007874,13,1590425421,955648899,,"['joint_S', 'joint_L', 'joint_E', 'joint_U', 'joint_R', 'joint_B', 'joint_T']","(5, 1, 5, 5, 2, -3, 1)","(0.0043, -0.0008, 0.0043, 0.0043, -0.0017, -0.0029, -0.0014)","(0.0, 0.0, 0.0, 0.0, 0.0, 0.0, 0.0)","(9e-06, -0.003758, 0.000276, 0.004673, 0.000583, 0.001881, -0.000138)"
2020/05/26/01:50:22.045976,14,1590425422,7694005,,"['joint_S', 'joint_L', 'joint_E', 'joint_U', 'joint_R', 'joint_B', 'joint_T']","(5, 1, 5, 5, 2, -3, 1)","(0.0043, -0.0008, 0.0043, 0.0043, -0.0017, -0.0029, -0.0014)","(0.0, 0.0, 0.0, 0.0, 0.0, 0.0, 0.0)","(9e-06, -0.003758, 0.000276, 0.004673, 0.000583, 0.001881, -0.000138)"
2020/05/26/01:50:22.090279,15,1590425422,45706033,,"['joint_S', 'joint_L', 'joint_E', 'joint_U', 'joint_R', 'joint_B', 'joint_T']","(5, 1, 5, 5, 2, -3, 1)","(0.0043, -0.0008, 0.0043, 0.0043, -0.0017, -0.0029, -0.0014)","(0.0, 0.0, 0.0, 0.0, 0.0, 0.0, 0.0)","(9e-06, -0.003758, 0.000276, 0.004673, 0.000583, 0.001881, -0.000138)"
2020/05/26/01:50:22.135061,16,1590425422,90131998,,"['joint_S', 'joint_L', 'joint_E', 'joint_U', 'joint_R', 'joint_B', 'joint_T']","(5, 1, 5, 5, 2, -3, 1)","(0.0043, -0.0008, 0.0043, 0.0043, -0.0017, -0.0029, -0.0014)","(0.0, 0.0, 0.0, 0.0, 0.0, 0.0, 0.0)","(9e-06, -0.003758, 0.000276, 0.004673, 0.000583, 0.001881, -0.000138)"
2020/05/26/01:50:22.181422,17,1590425422,134922027,,"['joint_S', 'joint_L', 'joint_E', 'joint_U', 'joint_R', 'joint_B', 'joint_T']","(5, 1, 5, 5, 2, -3, 1)","(0.0043, -0.0008, 0.0043, 0.0043, -0.0017, -0.0029, -0.0014)","(0.0, 0.0, 0.0, 0.0, 0.0, 0.0, 0.0)","(9e-06, -0.003758, 0.000276, 0.004673, 0.000583, 0.001881, -0.000138)"
2020/05/26/01:50:22.227751,18,1590425422,181365013,,"['joint_S', 'joint_L', 'joint_E', 'joint_U', 'joint_R', 'joint_B', 'joint_T']","(5, 1, 5, 5, 2, -3, 1)","(0.0043, -0.0008, 0.0043, 0.0043, -0.0017, -0.0029, -0.0014)","(0.0, 0.0, 0.0, 0.0, 0.0, 0.0, 0.0)","(9e-06, -0.003758, 0.000276, 0.004673, 0.000583, 0.001881, -0.000138)"
2020/05/26/01:50:22.271528,19,1590425422,227557897,,"['joint_S', 'joint_L', 'joint_E', 'joint_U', 'joint_R', 'joint_B', 'joint_T']","(5, 1, 5, 5, 2, -3, 1)","(0.0043, -0.0008, 0.0043, 0.0043, -0.0017, -0.0029, -0.0014)","(0.0, 0.0, 0.0, 0.0, 0.0, 0.0, 0.0)","(9e-06, -0.003758, 0.000276, 0.004673, 0.000583, 0.001881, -0.000138)"
2020/05/26/01:50:22.317137,20,1590425422,271505117,,"['joint_S', 'joint_L', 'joint_E', 'joint_U', 'joint_R', 'joint_B', 'joint_T']","(5, 1, 5, 5, 2, -3, 1)","(0.0043, -0.0008, 0.0043, 0.0043, -0.0017, -0.0029, -0.0014)","(0.0, 0.0, 0.0, 0.0, 0.0, 0.0, 0.0)","(9e-06, -0.003758, 0.000276, 0.004673, 0.000583, 0.001881, -0.000138)"
2020/05/26/01:50:22.364320,21,1590425422,317084074,,"['joint_S', 'joint_L', 'joint_E', 'joint_U', 'joint_R', 'joint_B', 'joint_T']","(5, 1, 5, 5, 2, -3, 1)","(0.0043, -0.0008, 0.0043, 0.0043, -0.0017, -0.0029, -0.0014)","(0.0, 0.0, 0.0, 0.0, 0.0, 0.0, 0.0)","(9e-06, -0.003758, 0.000276, 0.004673, 0.000583, 0.001881, -0.000138)"
2020/05/26/01:50:22.406343,22,1590425422,364240884,,"['joint_S', 'joint_L', 'joint_E', 'joint_U', 'joint_R', 'joint_B', 'joint_T']","(5, 1, 5, 5, 2, -3, 1)","(0.0043, -0.0008, 0.0043, 0.0043, -0.0017, -0.0029, -0.0014)","(0.0, 0.0, 0.0, 0.0, 0.0, 0.0, 0.0)","(9e-06, -0.003758, 0.000276, 0.004673, 0.000583, 0.001881, -0.000138)"
2020/05/26/01:50:22.453068,23,1590425422,406322956,,"['joint_S', 'joint_L', 'joint_E', 'joint_U', 'joint_R', 'joint_B', 'joint_T']","(5, 1, 5, 5, 2, -3, 1)","(0.0043, -0.0008, 0.0043, 0.0043, -0.0017, -0.0029, -0.0014)","(0.0, 0.0, 0.0, 0.0, 0.0, 0.0, 0.0)","(9e-06, -0.003758, 0.000276, 0.004673, 0.000583, 0.001881, -0.000138)"
2020/05/26/01:50:22.499778,24,1590425422,453001022,,"['joint_S', 'joint_L', 'joint_E', 'joint_U', 'joint_R', 'joint_B', 'joint_T']","(5, 1, 5, 5, 2, -3, 1)","(0.0043, -0.0008, 0.0043, 0.0043, -0.0017, -0.0029, -0.0014)","(0.0, 0.0, 0.0, 0.0, 0.0, 0.0, 0.0)","(9e-06, -0.003758, 0.000276, 0.004673, 0.000583, 0.001881, -0.000138)"
2020/05/26/01:50:22.544174,25,1590425422,499774932,,"['joint_S', 'joint_L', 'joint_E', 'joint_U', 'joint_R', 'joint_B', 'joint_T']","(5, 1, 5, 5, 2, -3, 1)","(0.0043, -0.0008, 0.0043, 0.0043, -0.0017, -0.0029, -0.0014)","(0.0, 0.0, 0.0, 0.0, 0.0, 0.0, 0.0)","(9e-06, -0.003758, 0.000276, 0.004673, 0.000583, 0.001881, -0.000138)"
2020/05/26/01:50:22.590282,26,1590425422,543950080,,"['joint_S', 'joint_L', 'joint_E', 'joint_U', 'joint_R', 'joint_B', 'joint_T']","(5, 1, 5, 5, 2, -3, 1)","(0.0043, -0.0008, 0.0043, 0.0043, -0.0017, -0.0029, -0.0014)","(0.0, 0.0, 0.0, 0.0, 0.0, 0.0, 0.0)","(9e-06, -0.003758, 0.000276, 0.004673, 0.000583, 0.001881, -0.000138)"
2020/05/26/01:50:22.637544,27,1590425422,590060949,,"['joint_S', 'joint_L', 'joint_E', 'joint_U', 'joint_R', 'joint_B', 'joint_T']","(5, 1, 5, 5, 2, -3, 1)","(0.0043, -0.0008, 0.0043, 0.0043, -0.0017, -0.0029, -0.0014)","(0.0, 0.0, 0.0, 0.0, 0.0, 0.0, 0.0)","(9e-06, -0.003758, 0.000276, 0.004673, 0.000583, 0.001881, -0.000138)"
2020/05/26/01:50:22.680527,28,1590425422,637315034,,"['joint_S', 'joint_L', 'joint_E', 'joint_U', 'joint_R', 'joint_B', 'joint_T']","(5, 1, 5, 5, 2, -3, 1)","(0.0043, -0.0008, 0.0043, 0.0043, -0.0017, -0.0029, -0.0014)","(0.0, 0.0, 0.0, 0.0, 0.0, 0.0, 0.0)","(9e-06, -0.003758, 0.000276, 0.004673, 0.000583, 0.001881, -0.000138)"
2020/05/26/01:50:22.727267,29,1590425422,680455923,,"['joint_S', 'joint_L', 'joint_E', 'joint_U', 'joint_R', 'joint_B', 'joint_T']","(5, 1, 5, 5, 2, -3, 1)","(0.0043, -0.0008, 0.0043, 0.0043, -0.0017, -0.0029, -0.0014)","(0.0, 0.0, 0.0, 0.0, 0.0, 0.0, 0.0)","(9e-06, -0.003758, 0.000276, 0.004673, 0.000583, 0.001881, -0.000138)"
2020/05/26/01:50:22.773338,30,1590425422,727229118,,"['joint_S', 'joint_L', 'joint_E', 'joint_U', 'joint_R', 'joint_B', 'joint_T']","(5, 1, 5, 5, 2, -3, 1)","(0.0043, -0.0008, 0.0043, 0.0043, -0.0017, -0.0029, -0.0014)","(0.0, 0.0, 0.0, 0.0, 0.0, 0.0, 0.0)","(9e-06, -0.003758, 0.000276, 0.004673, 0.000583, 0.001881, -0.000138)"
2020/05/26/01:50:22.817706,31,1590425422,773144006,,"['joint_S', 'joint_L', 'joint_E', 'joint_U', 'joint_R', 'joint_B', 'joint_T']","(5, 1, 5, 5, 2, -3, 1)","(0.0043, -0.0008, 0.0043, 0.0043, -0.0017, -0.0029, -0.0014)","(0.0, 0.0, 0.0, 0.0, 0.0, 0.0, 0.0)","(9e-06, -0.003758, 0.000276, 0.004673, 0.000583, 0.001881, -0.000138)"
2020/05/26/01:50:22.862804,32,1590425422,817517042,,"['joint_S', 'joint_L', 'joint_E', 'joint_U', 'joint_R', 'joint_B', 'joint_T']","(5, 1, 5, 5, 2, -3, 1)","(0.0043, -0.0008, 0.0043, 0.0043, -0.0017, -0.0029, -0.0014)","(0.0, 0.0, 0.0, 0.0, 0.0, 0.0, 0.0)","(9e-06, -0.003758, 0.000276, 0.004673, 0.000583, 0.001881, -0.000138)"
2020/05/26/01:50:22.911066,33,1590425422,862636089,,"['joint_S', 'joint_L', 'joint_E', 'joint_U', 'joint_R', 'joint_B', 'joint_T']","(5, 1, 5, 5, 2, -3, 1)","(0.0043, -0.0008, 0.0043, 0.0043, -0.0017, -0.0029, -0.0014)","(0.0, 0.0, 0.0, 0.0, 0.0, 0.0, 0.0)","(9e-06, -0.003758, 0.000276, 0.004673, 0.000583, 0.001881, -0.000138)"
2020/05/26/01:50:22.954943,34,1590425422,910706043,,"['joint_S', 'joint_L', 'joint_E', 'joint_U', 'joint_R', 'joint_B', 'joint_T']","(5, 1, 5, 5, 2, -3, 1)","(0.0043, -0.0008, 0.0043, 0.0043, -0.0017, -0.0029, -0.0014)","(0.0, 0.0, 0.0, 0.0, 0.0, 0.0, 0.0)","(9e-06, -0.003758, 0.000276, 0.004673, 0.000583, 0.001881, -0.000138)"
2020/05/26/01:50:22.998330,35,1590425422,954715967,,"['joint_S', 'joint_L', 'joint_E', 'joint_U', 'joint_R', 'joint_B', 'joint_T']","(5, 1, 5, 5, 2, -3, 1)","(0.0043, -0.0008, 0.0043, 0.0043, -0.0017, -0.0029, -0.0014)","(0.0, 0.0, 0.0, 0.0, 0.0, 0.0, 0.0)","(9e-06, -0.003758, 0.000276, 0.004673, 0.000583, 0.001881, -0.000138)"
2020/05/26/01:50:23.043294,36,1590425422,998346090,,"['joint_S', 'joint_L', 'joint_E', 'joint_U', 'joint_R', 'joint_B', 'joint_T']","(5, 1, 5, 5, 2, -3, 1)","(0.0043, -0.0008, 0.0043, 0.0043, -0.0017, -0.0029, -0.0014)","(0.0, 0.0, 0.0, 0.0, 0.0, 0.0, 0.0)","(9e-06, -0.003758, 0.000276, 0.004673, 0.000583, 0.001883, -0.000138)"
2020/05/26/01:50:23.088708,37,1590425423,43206930,,"['joint_S', 'joint_L', 'joint_E', 'joint_U', 'joint_R', 'joint_B', 'joint_T']","(5, 1, 5, 5, 2, -3, 1)","(0.0043, -0.0008, 0.0043, 0.0043, -0.0017, -0.0029, -0.0014)","(0.0, 0.0, 0.0, 0.0, 0.0, 0.0, 0.0)","(9e-06, -0.003758, 0.000276, 0.004673, 0.000583, 0.001883, -0.000138)"
2020/05/26/01:50:23.133972,38,1590425423,88660955,,"['joint_S', 'joint_L', 'joint_E', 'joint_U', 'joint_R', 'joint_B', 'joint_T']","(5, 1, 5, 5, 2, -3, 1)","(0.0043, -0.0008, 0.0043, 0.0043, -0.0017, -0.0029, -0.0014)","(0.0, 0.0, 0.0, 0.0, 0.0, 0.0, 0.0)","(9e-06, -0.003758, 0.000276, 0.004673, 0.000583, 0.001883, -0.000138)"
2020/05/26/01:50:23.181092,39,1590425423,133816003,,"['joint_S', 'joint_L', 'joint_E', 'joint_U', 'joint_R', 'joint_B', 'joint_T']","(5, 1, 5, 5, 2, -3, 1)","(0.0043, -0.0008, 0.0043, 0.0043, -0.0017, -0.0029, -0.0014)","(0.0, 0.0, 0.0, 0.0, 0.0, 0.0, 0.0)","(9e-06, -0.003758, 0.000276, 0.004673, 0.000583, 0.001883, -0.000138)"
2020/05/26/01:50:23.223849,40,1590425423,181055068,,"['joint_S', 'joint_L', 'joint_E', 'joint_U', 'joint_R', 'joint_B', 'joint_T']","(5, 1, 5, 5, 2, -3, 1)","(0.0043, -0.0008, 0.0043, 0.0043, -0.0017, -0.0029, -0.0014)","(0.0, 0.0, 0.0, 0.0, 0.0, 0.0, 0.0)","(9e-06, -0.003758, 0.000276, 0.004673, 0.000583, 0.001881, -0.000138)"
2020/05/26/01:50:23.269833,41,1590425423,223671913,,"['joint_S', 'joint_L', 'joint_E', 'joint_U', 'joint_R', 'joint_B', 'joint_T']","(5, 1, 5, 5, 2, -3, 1)","(0.0043, -0.0008, 0.0043, 0.0043, -0.0017, -0.0029, -0.0014)","(0.0, 0.0, 0.0, 0.0, 0.0, 0.0, 0.0)","(9e-06, -0.003758, 0.000276, 0.004673, 0.000583, 0.001881, -0.000138)"
2020/05/26/01:50:23.316977,42,1590425423,269781112,,"['joint_S', 'joint_L', 'joint_E', 'joint_U', 'joint_R', 'joint_B', 'joint_T']","(5, 1, 5, 5, 2, -3, 1)","(0.0043, -0.0008, 0.0043, 0.0043, -0.0017, -0.0029, -0.0014)","(0.0, 0.0, 0.0, 0.0, 0.0, 0.0, 0.0)","(9e-06, -0.003758, 0.000276, 0.004673, 0.000583, 0.001881, -0.000138)"
2020/05/26/01:50:23.358647,43,1590425423,316745996,,"['joint_S', 'joint_L', 'joint_E', 'joint_U', 'joint_R', 'joint_B', 'joint_T']","(5, 1, 5, 5, 2, -3, 1)","(0.0043, -0.0008, 0.0043, 0.0043, -0.0017, -0.0029, -0.0014)","(0.0, 0.0, 0.0, 0.0, 0.0, 0.0, 0.0)","(9e-06, -0.003758, 0.000276, 0.004673, 0.000583, 0.001881, -0.000138)"
2020/05/26/01:50:23.403835,44,1590425423,358609914,,"['joint_S', 'joint_L', 'joint_E', 'joint_U', 'joint_R', 'joint_B', 'joint_T']","(5, 1, 5, 5, 2, -3, 1)","(0.0043, -0.0008, 0.0043, 0.0043, -0.0017, -0.0029, -0.0014)","(0.0, 0.0, 0.0, 0.0, 0.0, 0.0, 0.0)","(9e-06, -0.003758, 0.000276, 0.004673, 0.000583, 0.001881, -0.000138)"
2020/05/26/01:50:23.449622,45,1590425423,403829097,,"['joint_S', 'joint_L', 'joint_E', 'joint_U', 'joint_R', 'joint_B', 'joint_T']","(5, 1, 5, 5, 2, -3, 1)","(0.0043, -0.0008, 0.0043, 0.0043, -0.0017, -0.0029, -0.0014)","(0.0, 0.0, 0.0, 0.0, 0.0, 0.0, 0.0)","(9e-06, -0.003758, 0.000276, 0.004673, 0.000583, 0.001881, -0.000138)"
2020/05/26/01:50:23.494552,46,1590425423,449378013,,"['joint_S', 'joint_L', 'joint_E', 'joint_U', 'joint_R', 'joint_B', 'joint_T']","(5, 1, 5, 5, 2, -3, 1)","(0.0043, -0.0008, 0.0043, 0.0043, -0.0017, -0.0029, -0.0014)","(0.0, 0.0, 0.0, 0.0, 0.0, 0.0, 0.0)","(9e-06, -0.003758, 0.000276, 0.004673, 0.000583, 0.001881, -0.000138)"
2020/05/26/01:50:23.541750,47,1590425423,494359970,,"['joint_S', 'joint_L', 'joint_E', 'joint_U', 'joint_R', 'joint_B', 'joint_T']","(5, 1, 5, 5, 2, -3, 1)","(0.0043, -0.0008, 0.0043, 0.0043, -0.0017, -0.0029, -0.0014)","(0.0, 0.0, 0.0, 0.0, 0.0, 0.0, 0.0)","(9e-06, -0.003758, 0.000276, 0.004673, 0.000583, 0.001883, -0.000138)"
2020/05/26/01:50:23.584947,48,1590425423,541548013,,"['joint_S', 'joint_L', 'joint_E', 'joint_U', 'joint_R', 'joint_B', 'joint_T']","(5, 1, 5, 5, 2, -3, 1)","(0.0043, -0.0008, 0.0043, 0.0043, -0.0017, -0.0029, -0.0014)","(0.0, 0.0, 0.0, 0.0, 0.0, 0.0, 0.0)","(9e-06, -0.003758, 0.000276, 0.004673, 0.000583, 0.001883, -0.000138)"
2020/05/26/01:50:23.630536,49,1590425423,584763050,,"['joint_S', 'joint_L', 'joint_E', 'joint_U', 'joint_R', 'joint_B', 'joint_T']","(5, 1, 5, 5, 2, -3, 1)","(0.0043, -0.0008, 0.0043, 0.0043, -0.0017, -0.0029, -0.0014)","(0.0, 0.0, 0.0, 0.0, 0.0, 0.0, 0.0)","(9e-06, -0.003758, 0.000276, 0.004673, 0.000583, 0.001883, -0.000138)"
2020/05/26/01:50:23.675825,50,1590425423,630312919,,"['joint_S', 'joint_L', 'joint_E', 'joint_U', 'joint_R', 'joint_B', 'joint_T']","(5, 1, 5, 5, 2, -3, 1)","(0.0043, -0.0008, 0.0043, 0.0043, -0.0017, -0.0029, -0.0014)","(0.0, 0.0, 0.0, 0.0, 0.0, 0.0, 0.0)","(9e-06, -0.003758, 0.000276, 0.004673, 0.000583, 0.001883, -0.000138)"
2020/05/26/01:50:23.721636,51,1590425423,675683021,,"['joint_S', 'joint_L', 'joint_E', 'joint_U', 'joint_R', 'joint_B', 'joint_T']","(5, 1, 5, 5, 2, -3, 1)","(0.0043, -0.0008, 0.0043, 0.0043, -0.0017, -0.0029, -0.0014)","(0.0, 0.0, 0.0, 0.0, 0.0, 0.0, 0.0)","(9e-06, -0.003758, 0.000276, 0.004673, 0.000583, 0.001883, -0.000138)"
2020/05/26/01:50:23.789943,52,1590425423,721529006,,"['joint_S', 'joint_L', 'joint_E', 'joint_U', 'joint_R', 'joint_B', 'joint_T']","(5, 1, 5, 5, 2, -3, 1)","(0.0043, -0.0008, 0.0043, 0.0043, -0.0017, -0.0029, -0.0014)","(0.0, 0.0, 0.0, 0.0, 0.0, 0.0, 0.0)","(9e-06, -0.003758, 0.000276, 0.004673, 0.000583, 0.001883, -0.000138)"
2020/05/26/01:50:23.811396,53,1590425423,789716958,,"['joint_S', 'joint_L', 'joint_E', 'joint_U', 'joint_R', 'joint_B', 'joint_T']","(5, 1, 5, 5, 2, -3, 1)","(0.0043, -0.0008, 0.0043, 0.0043, -0.0017, -0.0029, -0.0014)","(0.0, 0.0, 0.0, 0.0, 0.0, 0.0, 0.0)","(9e-06, -0.003758, 0.000276, 0.004673, 0.000583, 0.001881, -0.000138)"
2020/05/26/01:50:23.856740,54,1590425423,811340093,,"['joint_S', 'joint_L', 'joint_E', 'joint_U', 'joint_R', 'joint_B', 'joint_T']","(5, 1, 5, 5, 2, -3, 1)","(0.0043, -0.0008, 0.0043, 0.0043, -0.0017, -0.0029, -0.0014)","(0.0, 0.0, 0.0, 0.0, 0.0, 0.0, 0.0)","(9e-06, -0.003758, 0.000276, 0.004673, 0.000583, 0.001881, -0.000138)"
2020/05/26/01:50:23.903244,55,1590425423,856586933,,"['joint_S', 'joint_L', 'joint_E', 'joint_U', 'joint_R', 'joint_B', 'joint_T']","(5, 1, 5, 5, 2, -3, 1)","(0.0043, -0.0008, 0.0043, 0.0043, -0.0017, -0.0029, -0.0014)","(0.0, 0.0, 0.0, 0.0, 0.0, 0.0, 0.0)","(9e-06, -0.003758, 0.000276, 0.004673, 0.000583, 0.001883, -0.000138)"
2020/05/26/01:50:23.949775,56,1590425423,903156995,,"['joint_S', 'joint_L', 'joint_E', 'joint_U', 'joint_R', 'joint_B', 'joint_T']","(5, 1, 5, 5, 2, -3, 1)","(0.0043, -0.0008, 0.0043, 0.0043, -0.0017, -0.0029, -0.0014)","(0.0, 0.0, 0.0, 0.0, 0.0, 0.0, 0.0)","(9e-06, -0.003758, 0.000276, 0.004673, 0.000583, 0.001883, -0.000138)"
2020/05/26/01:50:23.993407,57,1590425423,949558973,,"['joint_S', 'joint_L', 'joint_E', 'joint_U', 'joint_R', 'joint_B', 'joint_T']","(5, 1, 5, 5, 2, -3, 1)","(0.0043, -0.0008, 0.0043, 0.0043, -0.0017, -0.0029, -0.0014)","(0.0, 0.0, 0.0, 0.0, 0.0, 0.0, 0.0)","(9e-06, -0.003758, 0.000276, 0.004673, 0.000583, 0.001881, -0.000138)"
2020/05/26/01:50:24.041280,58,1590425423,993313074,,"['joint_S', 'joint_L', 'joint_E', 'joint_U', 'joint_R', 'joint_B', 'joint_T']","(5, 1, 5, 5, 2, -3, 1)","(0.0043, -0.0008, 0.0043, 0.0043, -0.0017, -0.0029, -0.0014)","(0.0, 0.0, 0.0, 0.0, 0.0, 0.0, 0.0)","(9e-06, -0.003758, 0.000276, 0.004673, 0.000583, 0.001881, -0.000138)"
2020/05/26/01:50:24.085682,59,1590425424,41189908,,"['joint_S', 'joint_L', 'joint_E', 'joint_U', 'joint_R', 'joint_B', 'joint_T']","(5, 1, 5, 5, 2, -3, 1)","(0.0043, -0.0008, 0.0043, 0.0043, -0.0017, -0.0029, -0.0014)","(0.0, 0.0, 0.0, 0.0, 0.0, 0.0, 0.0)","(9e-06, -0.003758, 0.000276, 0.004673, 0.000583, 0.001881, -0.000138)"
2020/05/26/01:50:24.130593,60,1590425424,85480928,,"['joint_S', 'joint_L', 'joint_E', 'joint_U', 'joint_R', 'joint_B', 'joint_T']","(5, 1, 5, 5, 2, -3, 1)","(0.0043, -0.0008, 0.0043, 0.0043, -0.0017, -0.0029, -0.0014)","(0.0, 0.0, 0.0, 0.0, 0.0, 0.0, 0.0)","(9e-06, -0.003758, 0.000276, 0.004673, 0.000583, 0.001881, -0.000138)"
2020/05/26/01:50:24.178144,61,1590425424,130552053,,"['joint_S', 'joint_L', 'joint_E', 'joint_U', 'joint_R', 'joint_B', 'joint_T']","(5, 1, 5, 5, 2, -3, 1)","(0.0043, -0.0008, 0.0043, 0.0043, -0.0017, -0.0029, -0.0014)","(0.0, 0.0, 0.0, 0.0, 0.0, 0.0, 0.0)","(9e-06, -0.003758, 0.000276, 0.004673, 0.000583, 0.001881, -0.000138)"
2020/05/26/01:50:24.225049,62,1590425424,177895069,,"['joint_S', 'joint_L', 'joint_E', 'joint_U', 'joint_R', 'joint_B', 'joint_T']","(5, 1, 5, 5, 2, -3, 1)","(0.0043, -0.0008, 0.0043, 0.0043, -0.0017, -0.0029, -0.0014)","(0.0, 0.0, 0.0, 0.0, 0.0, 0.0, 0.0)","(9e-06, -0.003758, 0.000276, 0.004673, 0.000583, 0.001881, -0.000138)"
2020/05/26/01:50:24.267023,63,1590425424,224767923,,"['joint_S', 'joint_L', 'joint_E', 'joint_U', 'joint_R', 'joint_B', 'joint_T']","(5, 1, 5, 5, 2, -3, 1)","(0.0043, -0.0008, 0.0043, 0.0043, -0.0017, -0.0029, -0.0014)","(0.0, 0.0, 0.0, 0.0, 0.0, 0.0, 0.0)","(9e-06, -0.003758, 0.000276, 0.004673, 0.000583, 0.001881, -0.000138)"
2020/05/26/01:50:24.312375,64,1590425424,266820907,,"['joint_S', 'joint_L', 'joint_E', 'joint_U', 'joint_R', 'joint_B', 'joint_T']","(5, 1, 5, 5, 2, -3, 1)","(0.0043, -0.0008, 0.0043, 0.0043, -0.0017, -0.0029, -0.0014)","(0.0, 0.0, 0.0, 0.0, 0.0, 0.0, 0.0)","(9e-06, -0.003758, 0.000276, 0.004673, 0.000583, 0.001881, -0.000138)"
2020/05/26/01:50:24.359448,65,1590425424,312282085,,"['joint_S', 'joint_L', 'joint_E', 'joint_U', 'joint_R', 'joint_B', 'joint_T']","(5, 1, 5, 5, 2, -3, 1)","(0.0043, -0.0008, 0.0043, 0.0043, -0.0017, -0.0029, -0.0014)","(0.0, 0.0, 0.0, 0.0, 0.0, 0.0, 0.0)","(9e-06, -0.003758, 0.000276, 0.004673, 0.000583, 0.001881, -0.000138)"
2020/05/26/01:50:24.401157,66,1590425424,359239101,,"['joint_S', 'joint_L', 'joint_E', 'joint_U', 'joint_R', 'joint_B', 'joint_T']","(5, 1, 5, 5, 2, -3, 1)","(0.0043, -0.0008, 0.0043, 0.0043, -0.0017, -0.0029, -0.0014)","(0.0, 0.0, 0.0, 0.0, 0.0, 0.0, 0.0)","(9e-06, -0.003758, 0.000276, 0.004673, 0.000583, 0.001881, -0.000138)"
2020/05/26/01:50:24.449763,67,1590425424,401087045,,"['joint_S', 'joint_L', 'joint_E', 'joint_U', 'joint_R', 'joint_B', 'joint_T']","(5, 1, 5, 5, 2, -3, 1)","(0.0043, -0.0008, 0.0043, 0.0043, -0.0017, -0.0029, -0.0014)","(0.0, 0.0, 0.0, 0.0, 0.0, 0.0, 0.0)","(9e-06, -0.003758, 0.000276, 0.004673, 0.000583, 0.001881, -0.000138)"
2020/05/26/01:50:24.493339,68,1590425424,449754953,,"['joint_S', 'joint_L', 'joint_E', 'joint_U', 'joint_R', 'joint_B', 'joint_T']","(5, 1, 5, 5, 2, -3, 1)","(0.0043, -0.0008, 0.0043, 0.0043, -0.0017, -0.0029, -0.0014)","(0.0, 0.0, 0.0, 0.0, 0.0, 0.0, 0.0)","(9e-06, -0.003758, 0.000276, 0.004673, 0.000583, 0.001881, -0.000138)"
2020/05/26/01:50:24.538686,69,1590425424,493139028,,"['joint_S', 'joint_L', 'joint_E', 'joint_U', 'joint_R', 'joint_B', 'joint_T']","(5, 1, 5, 5, 2, -3, 1)","(0.0043, -0.0008, 0.0043, 0.0043, -0.0017, -0.0029, -0.0014)","(0.0, 0.0, 0.0, 0.0, 0.0, 0.0, 0.0)","(9e-06, -0.003758, 0.000276, 0.004673, 0.000583, 0.001881, -0.000138)"
2020/05/26/01:50:24.585281,70,1590425424,538583993,,"['joint_S', 'joint_L', 'joint_E', 'joint_U', 'joint_R', 'joint_B', 'joint_T']","(5, 1, 5, 5, 2, -3, 1)","(0.0043, -0.0008, 0.0043, 0.0043, -0.0017, -0.0029, -0.0014)","(0.0, 0.0, 0.0, 0.0, 0.0, 0.0, 0.0)","(9e-06, -0.003758, 0.000276, 0.004673, 0.000583, 0.001881, -0.000138)"
2020/05/26/01:50:24.629142,71,1590425424,585242986,,"['joint_S', 'joint_L', 'joint_E', 'joint_U', 'joint_R', 'joint_B', 'joint_T']","(5, 1, 5, 5, 2, -3, 1)","(0.0043, -0.0008, 0.0043, 0.0043, -0.0017, -0.0029, -0.0014)","(0.0, 0.0, 0.0, 0.0, 0.0, 0.0, 0.0)","(9e-06, -0.003758, 0.000276, 0.004673, 0.000583, 0.001881, -0.000138)"
2020/05/26/01:50:24.673389,72,1590425424,628993988,,"['joint_S', 'joint_L', 'joint_E', 'joint_U', 'joint_R', 'joint_B', 'joint_T']","(5, 1, 5, 5, 2, -3, 1)","(0.0043, -0.0008, 0.0043, 0.0043, -0.0017, -0.0029, -0.0014)","(0.0, 0.0, 0.0, 0.0, 0.0, 0.0, 0.0)","(9e-06, -0.003758, 0.000276, 0.004673, 0.000583, 0.001883, -0.000138)"
2020/05/26/01:50:24.718467,73,1590425424,673273086,,"['joint_S', 'joint_L', 'joint_E', 'joint_U', 'joint_R', 'joint_B', 'joint_T']","(5, 1, 5, 5, 2, -3, 1)","(0.0043, -0.0008, 0.0043, 0.0043, -0.0017, -0.0029, -0.0014)","(0.0, 0.0, 0.0, 0.0, 0.0, 0.0, 0.0)","(9e-06, -0.003758, 0.000276, 0.004673, 0.000583, 0.001881, -0.000138)"
2020/05/26/01:50:24.762489,74,1590425424,718290090,,"['joint_S', 'joint_L', 'joint_E', 'joint_U', 'joint_R', 'joint_B', 'joint_T']","(5, 1, 5, 5, 2, -3, 1)","(0.0043, -0.0008, 0.0043, 0.0043, -0.0017, -0.0029, -0.0014)","(0.0, 0.0, 0.0, 0.0, 0.0, 0.0, 0.0)","(6e-06, -0.003758, 0.000274, 0.004673, 0.000583, 0.001881, -0.000138)"
2020/05/26/01:50:24.805625,75,1590425424,762332916,,"['joint_S', 'joint_L', 'joint_E', 'joint_U', 'joint_R', 'joint_B', 'joint_T']","(5, 1, 5, 5, 2, -3, 1)","(0.0043, -0.0008, 0.0043, 0.0043, -0.0017, -0.0029, -0.0014)","(0.0, 0.0, 0.0, 0.0, 0.0, 0.0, 0.0)","(-2e-06, -0.003579, 0.000235, 0.004438, 0.000556, 0.001574, -0.000141)"
2020/05/26/01:50:24.854480,76,1590425424,805553913,,"['joint_S', 'joint_L', 'joint_E', 'joint_U', 'joint_R', 'joint_B', 'joint_T']","(5, 1, 5, 4, 2, -4, 1)","(0.0043, -0.0008, 0.0043, 0.0034, -0.0017, -0.0039, -0.0014)","(0.0, 0.0, 0.0, 0.0, 0.0, 0.0, 0.0)","(-3.6e-05, -0.003148, 0.000217, 0.0039, 0.000511, -0.000188, -0.000141)"
2020/05/26/01:50:24.896487,77,1590425424,854437112,,"['joint_S', 'joint_L', 'joint_E', 'joint_U', 'joint_R', 'joint_B', 'joint_T']","(5, 2, 5, 4, 2, -44, 1)","(0.0043, -0.0017, 0.0043, 0.0034, -0.0017, -0.0434, -0.0014)","(0.0, 0.0, 0.0, 0.0, 0.0, -2620.8, 0.0)","(-8.3e-05, -0.002574, 0.000147, 0.003266, 0.000453, -0.00097, -0.000145)"
2020/05/26/01:50:24.940668,78,1590425424,896444082,,"['joint_S', 'joint_L', 'joint_E', 'joint_U', 'joint_R', 'joint_B', 'joint_T']","(5, 3, 5, 3, 2, -226, 1)","(0.0043, -0.0026, 0.0043, 0.0026, -0.0017, -0.2231, -0.0014)","(0.0, 0.0, 0.0, 0.0, 0.0, -5116.8, 0.0)","(-0.00014, -0.001976, 7.7e-05, 0.002594, 0.000385, -0.00035, -0.000153)"
2020/05/26/01:50:24.984999,79,1590425424,940491914,,"['joint_S', 'joint_L', 'joint_E', 'joint_U', 'joint_R', 'joint_B', 'joint_T']","(5, 4, 5, 2, 2, -511, 1)","(0.0043, -0.0034, 0.0043, 0.0017, -0.0017, -0.5046, -0.0014)","(0.0, 0.0, 0.0, 0.0, 0.0, -7363.2, 0.0)","(-0.00019, -0.001403, 6e-06, 0.002081, 0.000302, -0.000661, -0.000163)"
2020/05/26/01:50:25.031659,80,1590425424,984828948,,"['joint_S', 'joint_L', 'joint_E', 'joint_U', 'joint_R', 'joint_B', 'joint_T']","(5, 4, 5, 1, 2, -902, 1)","(0.0043, -0.0034, 0.0043, 0.0008, -0.0017, -0.8907, -0.0014)","(0.0, 0.0, 0.0, 0.0, 0.0, -10857.6, 0.0)","(-0.000242, -0.001146, -5.6e-05, 0.001914, 0.000261, -0.00062, -0.000172)"
2020/05/26/01:50:25.076913,81,1590425425,31605958,,"['joint_S', 'joint_L', 'joint_E', 'joint_U', 'joint_R', 'joint_B', 'joint_T']","(5, 5, 5, 0, 2, -1461, 1)","(0.0043, -0.0043, 0.0043, 0.0, -0.0017, -1.4427, -0.0014)","(0.0, 0.0, 0.0, 0.0, 0.0, -13228.8, 0.0)","(-0.000294, -0.001119, -0.000115, 0.001838, 0.000164, -0.001043, -0.00019)"
2020/05/26/01:50:25.120333,82,1590425425,76844930,,"['joint_S', 'joint_L', 'joint_E', 'joint_U', 'joint_R', 'joint_B', 'joint_T']","(5, 6, 5, -1, 2, -2118, 1)","(0.0043, -0.0052, 0.0043, -0.0008, -0.0017, -2.0915, -0.0014)","(0.0, 0.0, 0.0, 0.0, 0.0, -15724.8, 0.0)","(-0.000337, -0.001394, -0.000174, 0.001904, 0.000107, -0.0012, -0.000209)"
2020/05/26/01:50:25.168096,83,1590425425,120258092,,"['joint_S', 'joint_L', 'joint_E', 'joint_U', 'joint_R', 'joint_B', 'joint_T']","(5, 7, 5, -2, 2, -2864, 1)","(0.0043, -0.006, 0.0043, -0.0017, -0.0017, -2.8283, -0.0014)","(0.0, 0.0, 0.0, 0.0, 0.0, -17721.6, 0.0)","(-0.000378, -0.001718, -0.000201, 0.002021, 5.3e-05, -0.001115, -0.000226)"
2020/05/26/01:50:25.215217,84,1590425425,167854070,,"['joint_S', 'joint_L', 'joint_E', 'joint_U', 'joint_R', 'joint_B', 'joint_T']","(5, 7, 5, -3, 2, -3747, 1)","(0.0043, -0.006, 0.0043, -0.0026, -0.0017, -3.7002, -0.0014)","(0.0, 0.0, 0.0, 0.0, 0.0, -19593.6, 0.0)","(-0.000417, -0.002132, -0.000238, 0.002305, 1.8e-05, -0.001267, -0.000246)"
2020/05/26/01:50:25.259875,85,1590425425,214982986,,"['joint_S', 'joint_L', 'joint_E', 'joint_U', 'joint_R', 'joint_B', 'joint_T']","(5, 6, 4, -3, 1, -4658, 1)","(0.0043, -0.0052, 0.0034, -0.0026, -0.0008, -4.5999, -0.0014)","(0.0, 0.0, 0.0, 0.0, 0.0, -20966.4, 0.0)","(-0.000432, -0.002672, -0.000253, 0.002573, -1.8e-05, -0.001509, -0.000267)"
2020/05/26/01:50:25.304891,86,1590425425,259743928,,"['joint_S', 'joint_L', 'joint_E', 'joint_U', 'joint_R', 'joint_B', 'joint_T']","(5, 6, 4, -3, 1, -5669, 1)","(0.0043, -0.0052, 0.0034, -0.0026, -0.0008, -5.5983, -0.0014)","(0.0, 0.0, 0.0, 0.0, 0.0, -21715.2, 0.0)","(-0.000487, -0.003279, -0.000308, 0.002954, -4.9e-05, -0.001474, -0.000286)"
2020/05/26/01:50:25.351417,87,1590425425,304765939,,"['joint_S', 'joint_L', 'joint_E', 'joint_U', 'joint_R', 'joint_B', 'joint_T']","(5, 5, 4, -3, 1, -6670, 1)","(0.0043, -0.0043, 0.0034, -0.0026, -0.0008, -6.5868, -0.0014)","(-124.8, 0.0, 0.0, 0.0, 0.0, -22588.8, 0.0)","(-0.00048, -0.003764, -0.00033, 0.003282, -7.4e-05, -0.001449, -0.000304)"
2020/05/26/01:50:25.398403,88,1590425425,351243972,,"['joint_S', 'joint_L', 'joint_E', 'joint_U', 'joint_R', 'joint_B', 'joint_T']","(5, 5, 4, -3, 1, -7743, 1)","(0.0043, -0.0043, 0.0034, -0.0026, -0.0008, -7.6464, -0.0014)","(0.0, 0.0, 0.0, 0.0, 0.0, -22838.4, 0.0)","(-0.000555, -0.004123, -0.000355, 0.003323, -8.2e-05, -0.001375, -0.000321)"
2020/05/26/01:50:25.445545,89,1590425425,398140907,,"['joint_S', 'joint_L', 'joint_E', 'joint_U', 'joint_R', 'joint_B', 'joint_T']","(4, 4, 4, -3, 1, -8846, 1)","(0.0034, -0.0034, 0.0034, -0.0026, -0.0008, -8.7357, -0.0014)","(0.0, 0.0, 0.0, 0.0, 0.0, -24086.4, 0.0)","(-0.000571, -0.004148, -0.000371, 0.003128, -0.000103, -0.001719, -0.000333)"
2020/05/26/01:50:25.491465,90,1590425425,445342063,,"['joint_S', 'joint_L', 'joint_E', 'joint_U', 'joint_R', 'joint_B', 'joint_T']","(4, 4, 4, -3, 1, -9987, 1)","(0.0034, -0.0034, 0.0034, -0.0026, -0.0008, -9.8625, -0.0014)","(0.0, 0.0, 0.0, 0.0, 0.0, -25459.2, 0.0)","(-0.000598, -0.004177, -0.000389, 0.003072, -0.000111, -0.001586, -0.000344)"
2020/05/26/01:50:25.535820,91,1590425425,491302013,,"['joint_S', 'joint_L', 'joint_E', 'joint_U', 'joint_R', 'joint_B', 'joint_T']","(4, 4, 4, -3, 1, -11229, 1)","(0.0034, -0.0034, 0.0034, -0.0026, -0.0008, -11.089, -0.0014)","(0.0, 0.0, 0.0, 0.0, 0.0, -27206.4, 0.0)","(-0.000621, -0.004111, -0.000403, 0.002926, -0.000125, -0.001856, -0.000356)"
2020/05/26/01:50:25.583791,92,1590425425,535743951,,"['joint_S', 'joint_L', 'joint_E', 'joint_U', 'joint_R', 'joint_B', 'joint_T']","(4, 4, 4, -4, 1, -12502, 1)","(0.0034, -0.0034, 0.0034, -0.0034, -0.0008, -12.3461, -0.0014)","(0.0, 0.0, 0.0, 0.0, 0.0, -29328.0, 0.0)","(-0.00063, -0.004401, -0.000437, 0.003261, -0.000133, -0.001686, -0.000375)"
2020/05/26/01:50:25.629603,93,1590425425,583559989,,"['joint_S', 'joint_L', 'joint_E', 'joint_U', 'joint_R', 'joint_B', 'joint_T']","(4, 3, 4, -3, 1, -13861, 1)","(0.0034, -0.0026, 0.0034, -0.0026, -0.0008, -13.6882, -0.0014)","(0.0, 0.0, 0.0, 0.0, 0.0, -30326.4, 0.0)","(-0.000661, -0.004805, -0.000428, 0.003696, -0.000146, -0.001787, -0.000398)"
2020/05/26/01:50:25.677039,94,1590425425,629547119,,"['joint_S', 'joint_L', 'joint_E', 'joint_U', 'joint_R', 'joint_B', 'joint_T']","(4, 3, 4, -2, 1, -15260, 1)","(0.0034, -0.0026, 0.0034, -0.0017, -0.0008, -15.0697, -0.0014)","(0.0, -124.8, 0.0, 0.0, 0.0, -30451.2, 0.0)","(-0.000682, -0.005147, -0.000442, 0.004148, -0.000154, -0.001866, -0.000421)"
2020/05/26/01:50:25.725245,95,1590425425,676896095,,"['joint_S', 'joint_L', 'joint_E', 'joint_U', 'joint_R', 'joint_B', 'joint_T']","(4, 2, 4, -2, 1, -16748, 1)","(0.0034, -0.0017, 0.0034, -0.0017, -0.0008, -16.5392, -0.0014)","(0.0, 0.0, 0.0, 0.0, 0.0, -30201.6, 0.0)","(-0.000718, -0.005662, -0.000453, 0.004613, -0.00016, -0.001825, -0.000441)"
2020/05/26/01:50:25.776141,96,1590425425,725086927,,"['joint_S', 'joint_L', 'joint_E', 'joint_U', 'joint_R', 'joint_B', 'joint_T']","(4, 1, 4, -2, 1, -18156, 1)","(0.0034, -0.0008, 0.0034, -0.0017, -0.0008, -17.9296, -0.0014)","(0.0, 0.0, 0.0, 0.0, 0.0, -29702.4, 0.0)","(-0.000711, -0.005714, -0.000432, 0.004902, -0.000171, -0.001829, -0.000462)"
2020/05/26/01:50:25.816611,97,1590425425,775896072,,"['joint_S', 'joint_L', 'joint_E', 'joint_U', 'joint_R', 'joint_B', 'joint_T']","(4, 0, 4, -1, 1, -19514, 1)","(0.0034, 0.0, 0.0034, -0.0008, -0.0008, -19.2707, -0.0014)","(0.0, 0.0, 0.0, 0.0, 0.0, -29203.2, 0.0)","(-0.000725, -0.00565, -0.000462, 0.004949, -0.000166, -0.001912, -0.000477)"
2020/05/26/01:50:25.864157,98,1590425425,816590070,,"['joint_S', 'joint_L', 'joint_E', 'joint_U', 'joint_R', 'joint_B', 'joint_T']","(4, -1, 4, -1, 1, -20888, 1)","(0.0034, 0.0008, 0.0034, -0.0008, -0.0008, -20.6276, -0.0014)","(0.0, 0.0, 0.0, 124.8, 0.0, -28579.2, 0.0)","(-0.000738, -0.005521, -0.000464, 0.005001, -0.000171, -0.001997, -0.000491)"
2020/05/26/01:50:25.912230,99,1590425425,864103078,,"['joint_S', 'joint_L', 'joint_E', 'joint_U', 'joint_R', 'joint_B', 'joint_T']","(4, -1, 4, -1, 1, -22222, 1)","(0.0034, 0.0008, 0.0034, -0.0008, -0.0008, -21.945, -0.0014)","(0.0, 0.0, 0.0, -124.8, 0.0, -29078.4, 0.0)","(-0.000748, -0.005374, -0.000457, 0.005217, -0.000166, -0.00181, -0.000508)"
2020/05/26/01:50:25.958942,100,1590425425,912121057,,"['joint_S', 'joint_L', 'joint_E', 'joint_U', 'joint_R', 'joint_B', 'joint_T']","(4, -2, 4, 0, 1, -23614, 1)","(0.0034, 0.0017, 0.0034, 0.0, -0.0008, -23.3196, -0.0014)","(0.0, 0.0, 0.0, 0.0, 0.0, -28828.8, 0.0)","(-0.000775, -0.005038, -0.00046, 0.005143, -0.000166, -0.002098, -0.000524)"
2020/05/26/01:50:26.002470,101,1590425425,958851099,,"['joint_S', 'joint_L', 'joint_E', 'joint_U', 'joint_R', 'joint_B', 'joint_T']","(4, -1, 4, 0, 1, -24982, 1)","(0.0034, 0.0008, 0.0034, 0.0, -0.0008, -24.6706, -0.0014)","(0.0, 0.0, 0.0, 0.0, 124.8, -28953.6, 0.0)","(-0.000748, -0.004825, -0.000485, 0.005258, -0.000183, -0.002011, -0.000541)"
2020/05/26/01:50:26.050415,102,1590425426,2429008,,"['joint_S', 'joint_L', 'joint_E', 'joint_U', 'joint_R', 'joint_B', 'joint_T']","(4, -2, 4, 0, 1, -26285, 1)","(0.0034, 0.0017, 0.0034, 0.0, -0.0008, -25.9573, -0.0014)","(0.0, 0.0, 0.0, 0.0, 0.0, -29203.2, 0.0)","(-0.00077, -0.004762, -0.000516, 0.005419, -0.000181, -0.00181, -0.000557)"
2020/05/26/01:50:26.095549,103,1590425426,50260066,,"['joint_S', 'joint_L', 'joint_E', 'joint_U', 'joint_R', 'joint_B', 'joint_T']","(4, -2, 4, 1, 1, -27592, 1)","(0.0034, 0.0017, 0.0034, 0.0008, -0.0008, -27.248, -0.0014)","(0.0, 0.0, -124.8, 0.0, 0.0, -28454.4, 0.0)","(-0.000736, -0.004497, -0.000528, 0.005339, -0.000156, -0.002293, -0.00057)"
2020/05/26/01:50:26.139771,104,1590425426,95417976,,"['joint_S', 'joint_L', 'joint_E', 'joint_U', 'joint_R', 'joint_B', 'joint_T']","(4, -1, 4, 0, 1, -28958, 1)","(0.0034, 0.0008, 0.0034, 0.0, -0.0008, -28.597, -0.0014)","(0.0, 0.0, 0.0, 0.0, 0.0, -28828.8, 0.0)","(-0.000782, -0.004388, -0.000657, 0.005462, -0.000154, -0.001964, -0.000586)"
2020/05/26/01:50:26.186873,105,1590425426,139612913,,"['joint_S', 'joint_L', 'joint_E', 'joint_U', 'joint_R', 'joint_B', 'joint_T']","(4, -1, 4, 1, 1, -30259, 1)","(0.0034, 0.0008, 0.0034, 0.0008, -0.0008, -29.8818, -0.0014)","(0.0, 0.0, 0.0, 0.0, 0.0, -29078.4, 0.0)","(-0.000806, -0.004388, -0.000691, 0.005536, -0.000183, -0.001947, -0.000601)"
2020/05/26/01:50:26.231320,106,1590425426,186583995,,"['joint_S', 'joint_L', 'joint_E', 'joint_U', 'joint_R', 'joint_B', 'joint_T']","(4, -1, 4, 1, 1, -31568, 1)","(0.0034, 0.0008, 0.0034, 0.0008, -0.0008, -31.1745, -0.0014)","(0.0, 0.0, 0.0, 0.0, 0.0, -28454.4, 0.0)","(-0.000784, -0.004238, -0.000709, 0.005392, -0.000162, -0.002217, -0.000616)"
2020/05/26/01:50:26.276775,107,1590425426,231312990,,"['joint_S', 'joint_L', 'joint_E', 'joint_U', 'joint_R', 'joint_B', 'joint_T']","(4, -1, 4, 1, 1, -32905, 1)","(0.0034, 0.0008, 0.0034, 0.0008, -0.0008, -32.4948, -0.0014)","(0.0, 0.0, 124.0, 0.0, 0.0, -28953.6, 0.0)","(-0.000806, -0.00422, -0.000802, 0.005512, -0.000136, -0.001922, -0.000628)"
2020/05/26/01:50:26.323024,108,1590425426,276705026,,"['joint_S', 'joint_L', 'joint_E', 'joint_U', 'joint_R', 'joint_B', 'joint_T']","(4, -1, 4, 1, 1, -34207, 1)","(0.0034, 0.0008, 0.0034, 0.0008, -0.0008, -33.7806, -0.0014)","(0.0, 0.0, 0.0, 0.0, 0.0, -29203.2, 0.0)","(-0.000788, -0.004197, -0.000806, 0.00551, -0.000154, -0.002055, -0.00064)"
2020/05/26/01:50:26.369272,109,1590425426,322786092,,"['joint_S', 'joint_L', 'joint_E', 'joint_U', 'joint_R', 'joint_B', 'joint_T']","(4, -1, 3, 1, 1, -35544, 1)","(0.0034, 0.0008, 0.0026, 0.0008, -0.0008, -35.1009, -0.0014)","(0.0, 0.0, 0.0, 0.0, 0.0, -29078.4, 0.0)","(-0.000782, -0.004104, -0.000831, 0.005388, -0.00015, -0.002376, -0.000655)"
2020/05/26/01:50:26.412600,110,1590425426,369196891,,"['joint_S', 'joint_L', 'joint_E', 'joint_U', 'joint_R', 'joint_B', 'joint_T']","(4, -1, 3, 1, 1, -36881, 1)","(0.0034, 0.0008, 0.0026, 0.0008, -0.0008, -36.4212, -0.0014)","(0.0, 0.0, 0.0, 0.0, 0.0, -28704.0, 0.0)","(-0.000827, -0.004104, -0.000874, 0.005435, -0.000125, -0.002072, -0.000667)"
2020/05/26/01:50:26.458689,111,1590425426,412411928,,"['joint_S', 'joint_L', 'joint_E', 'joint_U', 'joint_R', 'joint_B', 'joint_T']","(4, -1, 3, 2, 1, -38183, 1)","(0.0034, 0.0008, 0.0026, 0.0017, -0.0008, -37.707, -0.0014)","(0.0, 0.0, 124.0, 0.0, 0.0, -28953.6, 0.0)","(-0.000818, -0.00408, -0.000886, 0.00544, -0.000144, -0.002072, -0.00068)"
2020/05/26/01:50:26.505774,112,1590425426,458508968,,"['joint_S', 'joint_L', 'joint_E', 'joint_U', 'joint_R', 'joint_B', 'joint_T']","(4, -1, 3, 2, 1, -39492, 1)","(0.0034, 0.0008, 0.0026, 0.0017, -0.0008, -38.9997, -0.0014)","(0.0, 0.0, 0.0, 0.0, 0.0, -28828.8, 0.0)","(-0.000779, -0.004025, -0.000893, 0.005314, -0.000138, -0.002269, -0.00069)"
2020/05/26/01:50:26.550683,113,1590425426,505752086,,"['joint_S', 'joint_L', 'joint_E', 'joint_U', 'joint_R', 'joint_B', 'joint_T']","(4, -1, 3, 1, 1, -40828, 1)","(0.0034, 0.0008, 0.0026, 0.0008, -0.0008, -40.319, -0.0014)","(-124.8, 0.0, -124.0, 0.0, 0.0, -29078.4, 0.0)","(-0.000777, -0.00408, -0.000879, 0.005374, -0.000131, -0.001827, -0.000703)"
2020/05/26/01:50:26.594147,114,1590425426,550486087,,"['joint_S', 'joint_L', 'joint_E', 'joint_U', 'joint_R', 'joint_B', 'joint_T']","(4, -1, 3, 2, 1, -42158, 1)","(0.0034, 0.0008, 0.0026, 0.0017, -0.0008, -41.6325, -0.0014)","(0.0, 0.0, 0.0, 0.0, 0.0, -28953.6, 0.0)","(-0.00077, -0.0041, -0.000886, 0.00526, -0.000177, -0.002302, -0.000715)"
2020/05/26/01:50:26.641268,115,1590425426,594100952,,"['joint_S', 'joint_L', 'joint_E', 'joint_U', 'joint_R', 'joint_B', 'joint_T']","(4, -1, 3, 1, 1, -43440, 1)","(0.0034, 0.0008, 0.0026, 0.0008, -0.0008, -42.8985, -0.0014)","(0.0, 0.0, 0.0, 0.0, 0.0, -28828.8, 0.0)","(-0.000786, -0.004114, -0.000859, 0.005178, -0.000228, -0.002337, -0.000725)"
2020/05/26/01:50:26.687227,116,1590425426,641176939,,"['joint_S', 'joint_L', 'joint_E', 'joint_U', 'joint_R', 'joint_B', 'joint_T']","(4, -1, 3, 1, 1, -44774, 1)","(0.0034, 0.0008, 0.0026, 0.0008, -0.0008, -44.2158, -0.0014)","(0.0, 0.0, 0.0, 0.0, 0.0, -28953.6, 0.0)","(-0.000806, -0.004243, -0.000874, 0.005221, -0.000292, -0.002096, -0.000736)"
2020/05/26/01:50:26.732306,117,1590425426,687026977,,"['joint_S', 'joint_L', 'joint_E', 'joint_U', 'joint_R', 'joint_B', 'joint_T']","(4, -1, 3, 2, 1, -46104, 1)","(0.0034, 0.0008, 0.0026, 0.0017, -0.0008, -45.5293, -0.0014)","(0.0, 0.0, 0.0, -124.8, 0.0, -28704.0, 0.0)","(-0.000777, -0.004236, -0.000872, 0.005087, -0.000377, -0.002607, -0.000748)"
2020/05/26/01:50:26.782111,118,1590425426,732140064,,"['joint_S', 'joint_L', 'joint_E', 'joint_U', 'joint_R', 'joint_B', 'joint_T']","(4, -1, 3, 1, 1, -47475, 1)","(0.0034, 0.0008, 0.0026, 0.0008, -0.0008, -46.8832, -0.0014)","(0.0, 0.0, 0.0, 124.8, -124.8, -28579.2, 0.0)","(-0.000772, -0.004281, -0.000838, 0.004926, -0.000408, -0.002378, -0.000759)"
2020/05/26/01:50:26.822240,119,1590425426,781994104,,"['joint_S', 'joint_L', 'joint_E', 'joint_U', 'joint_R', 'joint_B', 'joint_T']","(4, -1, 3, 1, 1, -48750, 1)","(0.0034, 0.0008, 0.0026, 0.0008, -0.0008, -48.1423, -0.0014)","(0.0, 0.0, 0.0, -124.0, 0.0, -29203.2, 0.0)","(-0.000779, -0.004352, -0.000856, 0.005027, -0.000459, -0.00204, -0.000767)"
2020/05/26/01:50:26.868400,120,1590425426,822153091,,"['joint_S', 'joint_L', 'joint_E', 'joint_U', 'joint_R', 'joint_B', 'joint_T']","(4, -2, 3, 2, 1, -50053, 1)","(0.0034, 0.0017, 0.0026, 0.0017, -0.0008, -49.429, -0.0014)","(0.0, 0.0, 0.0, 0.0, 0.0, -29078.4, 0.0)","(-0.000766, -0.004354, -0.000802, 0.004846, -0.000521, -0.002644, -0.000777)"
2020/05/26/01:50:26.916086,121,1590425426,868347883,,"['joint_S', 'joint_L', 'joint_E', 'joint_U', 'joint_R', 'joint_B', 'joint_T']","(4, -2, 3, 1, 0, -51424, 1)","(0.0034, 0.0017, 0.0026, 0.0008, 0.0, -50.783, -0.0014)","(0.0, 0.0, 0.0, 0.0, 0.0, -28704.0, 0.0)","(-0.000766, -0.004397, -0.000791, 0.004817, -0.000554, -0.002356, -0.000796)"
2020/05/26/01:50:26.959698,122,1590425426,916071891,,"['joint_S', 'joint_L', 'joint_E', 'joint_U', 'joint_R', 'joint_B', 'joint_T']","(4, -2, 3, 1, 0, -52754, 1)","(0.0034, 0.0017, 0.0026, 0.0008, 0.0, -52.0964, -0.0014)","(0.0, 0.0, 0.0, 0.0, 0.0, -29452.8, 0.0)","(-0.0008, -0.004444, -0.000793, 0.004817, -0.000581, -0.002167, -0.000798)"
2020/05/26/01:50:27.004820,123,1590425426,959621906,,"['joint_S', 'joint_L', 'joint_E', 'joint_U', 'joint_R', 'joint_B', 'joint_T']","(4, -2, 3, 2, 0, -54028, 1)","(0.0034, 0.0017, 0.0026, 0.0017, 0.0, -53.3545, -0.0014)","(0.0, 0.0, 0.0, 0.0, 0.0, -28454.4, 0.0)","(-0.000804, -0.004431, -0.000795, 0.004652, -0.000632, -0.002926, -0.000808)"
2020/05/26/01:50:27.052503,124,1590425427,4668951,,"['joint_S', 'joint_L', 'joint_E', 'joint_U', 'joint_R', 'joint_B', 'joint_T']","(4, -2, 3, 1, 0, -55369, 1)","(0.0034, 0.0017, 0.0026, 0.0008, 0.0, -54.6788, -0.0014)","(0.0, 0.0, 0.0, 0.0, 0.0, -28953.6, 0.0)","(-0.000845, -0.004501, -0.000829, 0.004675, -0.000649, -0.002198, -0.000817)"
2020/05/26/01:50:27.096040,125,1590425427,52428960,,"['joint_S', 'joint_L', 'joint_E', 'joint_U', 'joint_R', 'joint_B', 'joint_T']","(4, -2, 3, 1, 0, -56695, 0)","(0.0034, 0.0017, 0.0026, 0.0008, 0.0, -55.9883, 0.0)","(0.0, 0.0, 0.0, 0.0, 0.0, -29203.2, 0.0)","(-0.000893, -0.004594, -0.00087, 0.004685, -0.000657, -0.002401, -0.000827)"
2020/05/26/01:50:27.140367,126,1590425427,95819950,,"['joint_S', 'joint_L', 'joint_E', 'joint_U', 'joint_R', 'joint_B', 'joint_T']","(4, -2, 3, 1, 0, -57968, 0)","(0.0034, 0.0017, 0.0026, 0.0008, 0.0, -57.2454, 0.0)","(0.0, 0.0, 0.0, 0.0, 0.0, -28704.0, 0.0)","(-0.00094, -0.004621, -0.000904, 0.004477, -0.000655, -0.002951, -0.000835)"
2020/05/26/01:50:27.187644,127,1590425427,140207052,,"['joint_S', 'joint_L', 'joint_E', 'joint_U', 'joint_R', 'joint_B', 'joint_T']","(4, -2, 2, 1, 0, -59303, 0)","(0.0034, 0.0017, 0.0017, 0.0008, 0.0, -58.5637, 0.0)","(0.0, 0.0, 0.0, 0.0, 0.0, -29328.0, 0.0)","(-0.000983, -0.004685, -0.000936, 0.00457, -0.000649, -0.002065, -0.000844)"
2020/05/26/01:50:27.233170,128,1590425427,187387943,,"['joint_S', 'joint_L', 'joint_E', 'joint_U', 'joint_R', 'joint_B', 'joint_T']","(4, -3, 2, 1, 0, -60597, 0)","(0.0034, 0.0026, 0.0017, 0.0008, 0.0, -59.8416, 0.0)","(0.0, 0.0, 0.0, 0.0, 0.0, -28828.8, 0.0)","(-0.001017, -0.004703, -0.000956, 0.004428, -0.000653, -0.002729, -0.000852)"
2020/05/26/01:50:27.278740,129,1590425427,233066082,,"['joint_S', 'joint_L', 'joint_E', 'joint_U', 'joint_R', 'joint_B', 'joint_T']","(4, -3, 2, 1, 0, -61931, 0)","(0.0034, 0.0026, 0.0017, 0.0008, 0.0, -61.159, 0.0)","(0.0, 0.0, 0.0, 124.0, 0.0, -29078.4, 0.0)","(-0.001051, -0.004705, -0.000972, 0.004281, -0.000642, -0.002916, -0.00086)"
2020/05/26/01:50:27.324344,130,1590425427,278584003,,"['joint_S', 'joint_L', 'joint_E', 'joint_U', 'joint_R', 'joint_B', 'joint_T']","(4, -3, 2, 1, 0, -63265, 0)","(0.0034, 0.0026, 0.0017, 0.0008, 0.0, -62.4764, 0.0)","(-124.0, 0.0, 0.0, -124.8, 0.0, -29328.0, 0.0)","(-0.001051, -0.00471, -0.000979, 0.004399, -0.000661, -0.002206, -0.000869)"
2020/05/26/01:50:27.370565,131,1590425427,324206113,,"['joint_S', 'joint_L', 'joint_E', 'joint_U', 'joint_R', 'joint_B', 'joint_T']","(4, -3, 2, 1, 0, -64565, 0)","(0.0034, 0.0026, 0.0017, 0.0008, 0.0, -63.7602, 0.0)","(0.0, 0.0, 0.0, 0.0, 0.0, -28579.2, 0.0)","(-0.00111, -0.004685, -0.000976, 0.004226, -0.00068, -0.003067, -0.000875)"
2020/05/26/01:50:27.415203,132,1590425427,370490074,,"['joint_S', 'joint_L', 'joint_E', 'joint_U', 'joint_R', 'joint_B', 'joint_T']","(3, -3, 2, 1, 0, -65932, 0)","(0.0026, 0.0026, 0.0017, 0.0008, 0.0, -65.1101, 0.0)","(0.0, 0.0, 0.0, 0.0, 0.0, -28579.2, 0.0)","(-0.001135, -0.004639, -0.000974, 0.00416, -0.000673, -0.002978, -0.000883)"
2020/05/26/01:50:27.459053,133,1590425427,415103912,,"['joint_S', 'joint_L', 'joint_E', 'joint_U', 'joint_R', 'joint_B', 'joint_T']","(3, -3, 2, 1, 0, -67207, 0)","(0.0026, 0.0026, 0.0017, 0.0008, 0.0, -66.3692, 0.0)","(0.0, 0.0, 0.0, 0.0, -124.0, -29328.0, 0.0)","(-0.001156, -0.004608, -0.000965, 0.004129, -0.00064, -0.002486, -0.000889)"
2020/05/26/01:50:27.505104,134,1590425427,458875894,,"['joint_S', 'joint_L', 'joint_E', 'joint_U', 'joint_R', 'joint_B', 'joint_T']","(3, -3, 2, 1, 0, -68513, 0)","(0.0026, 0.0026, 0.0017, 0.0008, 0.0, -67.6589, 0.0)","(0.0, 0.0, 0.0, 0.0, 0.0, -28828.8, 0.0)","(-0.001144, -0.004537, -0.000942, 0.003983, -0.000651, -0.003109, -0.000898)"
2020/05/26/01:50:27.550030,135,1590425427,505040884,,"['joint_S', 'joint_L', 'joint_E', 'joint_U', 'joint_R', 'joint_B', 'joint_T']","(3, -3, 2, 1, 0, -69823, 0)","(0.0026, 0.0026, 0.0017, 0.0008, 0.0, -68.9526, 0.0)","(0.0, 0.0, 0.0, 0.0, 0.0, -28953.6, 0.0)","(-0.001183, -0.004542, -0.00092, 0.003923, -0.00063, -0.002719, -0.000904)"
2020/05/26/01:50:27.592932,136,1590425427,549822092,,"['joint_S', 'joint_L', 'joint_E', 'joint_U', 'joint_R', 'joint_B', 'joint_T']","(3, -4, 2, 1, 0, -71098, 0)","(0.0026, 0.0034, 0.0017, 0.0008, 0.0, -70.2117, 0.0)","(0.0, 0.0, 0.0, 0.0, 0.0, -29577.6, 0.0)","(-0.001199, -0.004512, -0.000908, 0.003766, -0.000659, -0.002833, -0.000908)"
2020/05/26/01:50:27.641784,137,1590425427,592783927,,"['joint_S', 'joint_L', 'joint_E', 'joint_U', 'joint_R', 'joint_B', 'joint_T']","(3, -4, 2, 0, 0, -72421, 0)","(0.0026, 0.0034, 0.0017, 0.0, 0.0, -71.5182, 0.0)","(0.0, 0.0, 0.0, 124.8, 0.0, -28828.8, 0.0)","(-0.001203, -0.004444, -0.000888, 0.00355, -0.000655, -0.003486, -0.000912)"
2020/05/26/01:50:27.687564,138,1590425427,641762018,,"['joint_S', 'joint_L', 'joint_E', 'joint_U', 'joint_R', 'joint_B', 'joint_T']","(3, -4, 2, 0, 0, -73881, 0)","(0.0026, 0.0034, 0.0017, 0.0, 0.0, -72.96, 0.0)","(0.0, 0.0, 0.0, 0.0, 0.0, -29702.4, 0.0)","(-0.001212, -0.004392, -0.000863, 0.003484, -0.000628, -0.003038, -0.000916)"
2020/05/26/01:50:27.732621,139,1590425427,687508106,,"['joint_S', 'joint_L', 'joint_E', 'joint_U', 'joint_R', 'joint_B', 'joint_T']","(3, -4, 2, 0, 0, -75235, 0)","(0.0026, 0.0034, 0.0017, 0.0, 0.0, -74.2972, 0.0)","(0.0, 0.0, 0.0, 0.0, 0.0, -30700.8, 0.0)","(-0.001217, -0.00444, -0.000836, 0.003484, -0.000647, -0.003125, -0.000925)"
2020/05/26/01:50:27.779445,140,1590425427,732503890,,"['joint_S', 'joint_L', 'joint_E', 'joint_U', 'joint_R', 'joint_B', 'joint_T']","(3, -4, 2, 0, 0, -76637, 0)","(0.0026, 0.0034, 0.0017, 0.0, 0.0, -75.6817, 0.0)","(0.0, 0.0, 0.0, 0.0, 124.0, -29952.0, 0.0)","(-0.001219, -0.004424, -0.000816, 0.003544, -0.000651, -0.003822, -0.000935)"
2020/05/26/01:50:27.825766,141,1590425427,779261112,,"['joint_S', 'joint_L', 'joint_E', 'joint_U', 'joint_R', 'joint_B', 'joint_T']","(3, -4, 2, 0, 0, -77996, 0)","(0.0026, 0.0034, 0.0017, 0.0, 0.0, -77.0237, 0.0)","(0.0, 0.0, 0.0, 0.0, 0.0, -29702.4, 0.0)","(-0.001217, -0.004492, -0.000788, 0.003781, -0.000612, -0.002903, -0.000949)"
2020/05/26/01:50:27.867962,142,1590425427,825742959,,"['joint_S', 'joint_L', 'joint_E', 'joint_U', 'joint_R', 'joint_B', 'joint_T']","(3, -4, 2, 1, 0, -79325, 0)","(0.0026, 0.0034, 0.0017, 0.0008, 0.0, -78.3362, 0.0)","(0.0, 0.0, 0.0, 0.0, 0.0, -28704.0, 0.0)","(-0.001239, -0.004578, -0.000766, 0.004024, -0.000624, -0.002781, -0.000964)"
2020/05/26/01:50:27.913419,143,1590425427,867784023,,"['joint_S', 'joint_L', 'joint_E', 'joint_U', 'joint_R', 'joint_B', 'joint_T']","(3, -5, 2, 1, 0, -80531, 0)","(0.0026, 0.0043, 0.0017, 0.0008, 0.0, -79.5271, 0.0)","(0.0, 0.0, 0.0, 0.0, 0.0, -25958.4, 0.0)","(-0.001242, -0.004556, -0.000743, 0.003962, -0.000585, -0.003418, -0.00097)"
2020/05/26/01:50:27.960742,144,1590425427,913368940,,"['joint_S', 'joint_L', 'joint_E', 'joint_U', 'joint_R', 'joint_B', 'joint_T']","(3, -5, 2, 1, 0, -81684, 0)","(0.0026, 0.0043, 0.0017, 0.0008, 0.0, -80.6658, 0.0)","(0.0, 0.0, 0.0, 0.0, -124.0, -24835.2, 0.0)","(-0.001239, -0.004515, -0.000752, 0.003927, -0.000583, -0.002959, -0.000974)"
2020/05/26/01:50:28.004551,145,1590425427,960674047,,"['joint_S', 'joint_L', 'joint_E', 'joint_U', 'joint_R', 'joint_B', 'joint_T']","(3, -5, 2, 1, 0, -82816, 0)","(0.0026, 0.0043, 0.0017, 0.0008, 0.0, -81.7837, 0.0)","(0.0, 0.0, 0.0, -124.8, 0.0, -23587.2, 0.0)","(-0.001237, -0.004442, -0.000777, 0.003791, -0.000607, -0.003003, -0.000976)"
2020/05/26/01:50:28.052032,146,1590425428,4492044,,"['joint_S', 'joint_L', 'joint_E', 'joint_U', 'joint_R', 'joint_B', 'joint_T']","(3, -5, 2, 1, 0, -83863, 0)","(0.0026, 0.0043, 0.0017, 0.0008, 0.0, -82.8176, 0.0)","(0.0, 0.0, 0.0, 0.0, 0.0, -22588.8, 0.0)","(-0.00123, -0.004363, -0.00082, 0.003616, -0.000597, -0.002692, -0.000978)"
2020/05/26/01:50:28.096270,147,1590425428,51990032,,"['joint_S', 'joint_L', 'joint_E', 'joint_U', 'joint_R', 'joint_B', 'joint_T']","(3, -5, 2, 1, 0, -84872, 0)","(0.0026, 0.0043, 0.0017, 0.0008, 0.0, -83.814, 0.0)","(0.0, 0.0, 0.0, 0.0, 0.0, -21964.8, 0.0)","(-0.001224, -0.004324, -0.000859, 0.003583, -0.000579, -0.00338, -0.000983)"
2020/05/26/01:50:28.141909,148,1590425428,96177101,,"['joint_S', 'joint_L', 'joint_E', 'joint_U', 'joint_R', 'joint_B', 'joint_T']","(3, -5, 1, 1, 0, -85882, 0)","(0.0026, 0.0043, 0.0008, 0.0008, 0.0, -84.8114, 0.0)","(0.0, 0.0, 0.0, 0.0, 0.0, -21465.6, 0.0)","(-0.001214, -0.004302, -0.000895, 0.00362, -0.000574, -0.002853, -0.000991)"
2020/05/26/01:50:28.188295,149,1590425428,141695022,,"['joint_S', 'joint_L', 'joint_E', 'joint_U', 'joint_R', 'joint_B', 'joint_T']","(3, -5, 1, 1, 0, -86845, 0)","(0.0026, 0.0043, 0.0008, 0.0008, 0.0, -85.7624, 0.0)","(0.0, 0.0, 0.0, 0.0, 0.0, -20217.6, 0.0)","(-0.001212, -0.00432, -0.000902, 0.003715, -0.000564, -0.003162, -0.000997)"
2020/05/26/01:50:28.234901,150,1590425428,188277006,,"['joint_S', 'joint_L', 'joint_E', 'joint_U', 'joint_R', 'joint_B', 'joint_T']","(3, -5, 1, 1, 0, -87740, 0)","(0.0026, 0.0043, 0.0008, 0.0008, 0.0, -86.6463, 0.0)","(0.0, 0.0, 0.0, 0.0, 0.0, -18969.6, 0.0)","(-0.001203, -0.004324, -0.000938, 0.003756, -0.000564, -0.002654, -0.001008)"
2020/05/26/01:50:28.277432,151,1590425428,234781980,,"['joint_S', 'joint_L', 'joint_E', 'joint_U', 'joint_R', 'joint_B', 'joint_T']","(3, -5, 1, 1, 0, -88554, 0)","(0.0026, 0.0043, 0.0008, 0.0008, 0.0, -87.4501, 0.0)","(0.0, 0.0, 0.0, 0.0, 0.0, -17222.4, 0.0)","(-0.001187, -0.004327, -0.000949, 0.003878, -0.000554, -0.002551, -0.001016)"
2020/05/26/01:50:28.320945,152,1590425428,277373075,,"['joint_S', 'joint_L', 'joint_E', 'joint_U', 'joint_R', 'joint_B', 'joint_T']","(3, -6, 1, 1, 0, -89276, 0)","(0.0026, 0.0052, 0.0008, 0.0008, 0.0, -88.1631, 0.0)","(0.0, 0.0, 0.0, 0.0, 0.0, -15225.6, 0.0)","(-0.001187, -0.004349, -0.000958, 0.004009, -0.000548, -0.002426, -0.001024)"
2020/05/26/01:50:28.369369,153,1590425428,320765972,,"['joint_S', 'joint_L', 'joint_E', 'joint_U', 'joint_R', 'joint_B', 'joint_T']","(3, -6, 1, 1, 0, -89881, 0)","(0.0026, 0.0052, 0.0008, 0.0008, 0.0, -88.7606, 0.0)","(0.0, 0.0, 0.0, 0.0, 0.0, -12230.4, 0.0)","(-0.001167, -0.004327, -0.000963, 0.004129, -0.000535, -0.0027, -0.001034)"
2020/05/26/01:50:28.412400,154,1590425428,369179964,,"['joint_S', 'joint_L', 'joint_E', 'joint_U', 'joint_R', 'joint_B', 'joint_T']","(3, -6, 1, 1, 0, -90380, 0)","(0.0026, 0.0052, 0.0008, 0.0008, 0.0, -89.2534, 0.0)","(0.0, 0.0, 0.0, 0.0, 0.0, -9734.4, 0.0)","(-0.001167, -0.004342, -0.000949, 0.004308, -0.000535, -0.002242, -0.001043)"
2020/05/26/01:50:28.459998,155,1590425428,412460088,,"['joint_S', 'joint_L', 'joint_E', 'joint_U', 'joint_R', 'joint_B', 'joint_T']","(3, -6, 1, 1, 0, -90747, 0)","(0.0026, 0.0052, 0.0008, 0.0008, 0.0, -89.6158, 0.0)","(0.0, 0.0, 0.0, 0.0, 0.0, -6614.4, 0.0)","(-0.001153, -0.004302, -0.000947, 0.004337, -0.000527, -0.002096, -0.001049)"
2020/05/26/01:50:28.505400,156,1590425428,459856986,,"['joint_S', 'joint_L', 'joint_E', 'joint_U', 'joint_R', 'joint_B', 'joint_T']","(3, -6, 1, 1, 0, -90984, 0)","(0.0026, 0.0052, 0.0008, 0.0008, 0.0, -89.8498, 0.0)","(0.0, 0.0, 0.0, 0.0, 0.0, -3369.6, 0.0)","(-0.001133, -0.004213, -0.000929, 0.00417, -0.000521, -0.002016, -0.001049)"
2020/05/26/01:50:28.553494,157,1590425428,505251884,,"['joint_S', 'joint_L', 'joint_E', 'joint_U', 'joint_R', 'joint_B', 'joint_T']","(3, -6, 1, 1, 0, -91097, 0)","(0.0026, 0.0052, 0.0008, 0.0008, 0.0, -89.9614, 0.0)","(0.0, 0.0, 0.0, 0.0, 0.0, -1372.8, 0.0)","(-0.001119, -0.004093, -0.000918, 0.003933, -0.000511, -0.002003, -0.001049)"
2020/05/26/01:50:28.599893,158,1590425428,553294897,,"['joint_S', 'joint_L', 'joint_E', 'joint_U', 'joint_R', 'joint_B', 'joint_T']","(3, -6, 1, 1, 0, -91136, 0)","(0.0026, 0.0052, 0.0008, 0.0008, 0.0, -90.0, 0.0)","(0.0, -124.0, 0.0, 0.0, 0.0, -249.6, 0.0)","(-0.001101, -0.00393, -0.000897, 0.003606, -0.000511, -0.002009, -0.001041)"
2020/05/26/01:50:28.648243,159,1590425428,599870920,,"['joint_S', 'joint_L', 'joint_E', 'joint_U', 'joint_R', 'joint_B', 'joint_T']","(3, -6, 1, 1, 0, -91138, 0)","(0.0026, 0.0052, 0.0008, 0.0008, 0.0, -90.0019, 0.0)","(0.0, 0.0, 0.0, 0.0, 0.0, 0.0, 0.0)","(-0.001085, -0.003805, -0.000872, 0.003381, -0.000533, -0.002269, -0.001039)"
2020/05/26/01:50:28.694294,160,1590425428,647973060,,"['joint_S', 'joint_L', 'joint_E', 'joint_U', 'joint_R', 'joint_B', 'joint_T']","(3, -6, 1, 1, 0, -91139, 0)","(0.0026, 0.0052, 0.0008, 0.0008, 0.0, -90.0029, 0.0)","(0.0, 0.0, 0.0, 0.0, 0.0, 0.0, 0.0)","(-0.001069, -0.003678, -0.000847, 0.003214, -0.000523, -0.0022, -0.001039)"
2020/05/26/01:50:28.739464,161,1590425428,694214105,,"['joint_S', 'joint_L', 'joint_E', 'joint_U', 'joint_R', 'joint_B', 'joint_T']","(3, -6, 1, 0, 0, -91139, 0)","(0.0026, 0.0052, 0.0008, 0.0, 0.0, -90.0029, 0.0)","(0.0, 0.0, 0.0, 0.0, 0.0, 0.0, 0.0)","(-0.001054, -0.00357, -0.000827, 0.003064, -0.00049, -0.002136, -0.001034)"
2020/05/26/01:50:28.787497,162,1590425428,739320039,,"['joint_S', 'joint_L', 'joint_E', 'joint_U', 'joint_R', 'joint_B', 'joint_T']","(3, -6, 1, 0, 0, -91139, 0)","(0.0026, 0.0052, 0.0008, 0.0, 0.0, -90.0029, 0.0)","(0.0, 0.0, 0.0, 0.0, 0.0, 0.0, 0.0)","(-0.001038, -0.003468, -0.000797, 0.002926, -0.000517, -0.002063, -0.001034)"
2020/05/26/01:50:28.834994,163,1590425428,787434101,,"['joint_S', 'joint_L', 'joint_E', 'joint_U', 'joint_R', 'joint_B', 'joint_T']","(3, -6, 1, 0, 0, -91139, 0)","(0.0026, 0.0052, 0.0008, 0.0, 0.0, -90.0029, 0.0)","(0.0, -124.8, 0.0, 0.0, 0.0, 0.0, 0.0)","(-0.001022, -0.00337, -0.000772, 0.002792, -0.000511, -0.002007, -0.001034)"
2020/05/26/01:50:28.880580,164,1590425428,834984064,,"['joint_S', 'joint_L', 'joint_E', 'joint_U', 'joint_R', 'joint_B', 'joint_T']","(3, -5, 1, 0, 0, -91139, 0)","(0.0026, 0.0043, 0.0008, 0.0, 0.0, -90.0029, 0.0)","(0.0, 0.0, 0.0, 0.0, 0.0, 0.0, 0.0)","(-0.001006, -0.003307, -0.00075, 0.002643, -0.000508, -0.001945, -0.00103)"
2020/05/26/01:50:28.926608,165,1590425428,880383968,,"['joint_S', 'joint_L', 'joint_E', 'joint_U', 'joint_R', 'joint_B', 'joint_T']","(3, -5, 1, 0, 0, -91139, 0)","(0.0026, 0.0043, 0.0008, 0.0, 0.0, -90.0029, 0.0)","(0.0, 0.0, 0.0, 0.0, 0.0, 0.0, 0.0)","(-0.00099, -0.003245, -0.000725, 0.002557, -0.000504, -0.001883, -0.00103)"
2020/05/26/01:50:28.978347,166,1590425428,926497936,,"['joint_S', 'joint_L', 'joint_E', 'joint_U', 'joint_R', 'joint_B', 'joint_T']","(3, -5, 1, -1, 0, -91139, 0)","(0.0026, 0.0043, 0.0008, -0.0008, 0.0, -90.0029, 0.0)","(0.0, 0.0, 0.0, 0.0, 124.8, 0.0, 0.0)","(-0.000972, -0.003189, -0.000702, 0.002423, -0.000504, -0.001821, -0.00103)"
2020/05/26/01:50:29.018837,167,1590425428,978240013,,"['joint_S', 'joint_L', 'joint_E', 'joint_U', 'joint_R', 'joint_B', 'joint_T']","(3, -5, 1, -1, 0, -91139, 0)","(0.0026, 0.0043, 0.0008, -0.0008, 0.0, -90.0029, 0.0)","(0.0, 0.0, 0.0, 0.0, 0.0, 0.0, 0.0)","(-0.000958, -0.003134, -0.00068, 0.002326, -0.000498, -0.001758, -0.001026)"
2020/05/26/01:50:29.065252,168,1590425429,18712043,,"['joint_S', 'joint_L', 'joint_E', 'joint_U', 'joint_R', 'joint_B', 'joint_T']","(3, -5, 1, -1, 0, -91139, 0)","(0.0026, 0.0043, 0.0008, -0.0008, 0.0, -90.0029, 0.0)","(0.0, 0.0, 0.0, 0.0, 0.0, 0.0, 0.0)","(-0.000942, -0.003091, -0.000655, 0.002235, -0.000494, -0.001694, -0.001026)"
2020/05/26/01:50:29.111259,169,1590425429,65238952,,"['joint_S', 'joint_L', 'joint_E', 'joint_U', 'joint_R', 'joint_B', 'joint_T']","(3, -5, 1, -1, 0, -91139, 0)","(0.0026, 0.0043, 0.0008, -0.0008, 0.0, -90.0029, 0.0)","(0.0, 0.0, 0.0, 0.0, 0.0, 0.0, 0.0)","(-0.000927, -0.003082, -0.00063, 0.002165, -0.000492, -0.00163, -0.001024)"
2020/05/26/01:50:29.157724,170,1590425429,111167907,,"['joint_S', 'joint_L', 'joint_E', 'joint_U', 'joint_R', 'joint_B', 'joint_T']","(3, -5, 1, -1, 0, -91139, 0)","(0.0026, 0.0043, 0.0008, -0.0008, 0.0, -90.0029, 0.0)","(0.0, 0.0, 0.0, 0.0, 0.0, 0.0, 0.0)","(-0.000911, -0.003028, -0.000607, 0.002072, -0.000488, -0.001572, -0.001024)"
2020/05/26/01:50:29.205534,171,1590425429,157507896,,"['joint_S', 'joint_L', 'joint_E', 'joint_U', 'joint_R', 'joint_B', 'joint_T']","(3, -5, 1, -1, 0, -91139, 0)","(0.0026, 0.0043, 0.0008, -0.0008, 0.0, -90.0029, 0.0)","(0.0, 0.0, 0.0, -124.8, 0.0, 0.0, 0.0)","(-0.000895, -0.003003, -0.000584, 0.002023, -0.000484, -0.001507, -0.001016)"
2020/05/26/01:50:29.251904,172,1590425429,205466985,,"['joint_S', 'joint_L', 'joint_E', 'joint_U', 'joint_R', 'joint_B', 'joint_T']","(3, -5, 1, -2, 0, -91139, 0)","(0.0026, 0.0043, 0.0008, -0.0017, 0.0, -90.0029, 0.0)","(0.0, 0.0, 0.0, 0.0, 0.0, 0.0, 0.0)","(-0.000877, -0.002987, -0.000559, 0.001963, -0.000482, -0.001445, -0.001016)"
2020/05/26/01:50:29.299249,173,1590425429,251655101,,"['joint_S', 'joint_L', 'joint_E', 'joint_U', 'joint_R', 'joint_B', 'joint_T']","(3, -5, 1, -2, 0, -91139, 0)","(0.0026, 0.0043, 0.0008, -0.0017, 0.0, -90.0029, 0.0)","(0.0, 0.0, 0.0, 0.0, 0.0, 0.0, 0.0)","(-0.000861, -0.002973, -0.000534, 0.001893, -0.000478, -0.001385, -0.001014)"
2020/05/26/01:50:29.344922,174,1590425429,299205064,,"['joint_S', 'joint_L', 'joint_E', 'joint_U', 'joint_R', 'joint_B', 'joint_T']","(3, -5, 1, -2, 0, -91139, 0)","(0.0026, 0.0043, 0.0008, -0.0017, 0.0, -90.0029, 0.0)","(0.0, 0.0, 0.0, 0.0, 0.0, 0.0, 0.0)","(-0.000845, -0.002969, -0.000519, 0.001873, -0.000473, -0.001325, -0.001014)"
2020/05/26/01:50:29.393150,175,1590425429,344736099,,"['joint_S', 'joint_L', 'joint_E', 'joint_U', 'joint_R', 'joint_B', 'joint_T']","(3, -5, 1, -2, 0, -91139, 0)","(0.0026, 0.0043, 0.0008, -0.0017, 0.0, -90.0029, 0.0)","(0.0, 0.0, 0.0, 0.0, 0.0, 0.0, 0.0)","(-0.000829, -0.002948, -0.000494, 0.001819, -0.000471, -0.001265, -0.001012)"
2020/05/26/01:50:29.439519,176,1590425429,392941951,,"['joint_S', 'joint_L', 'joint_E', 'joint_U', 'joint_R', 'joint_B', 'joint_T']","(3, -5, 1, -2, 0, -91139, 0)","(0.0026, 0.0043, 0.0008, -0.0017, 0.0, -90.0029, 0.0)","(0.0, 0.0, 0.0, 0.0, 0.0, 0.0, 0.0)","(-0.000816, -0.002944, -0.000473, 0.001794, -0.000467, -0.001207, -0.00101)"
2020/05/26/01:50:29.485572,177,1590425429,439318895,,"['joint_S', 'joint_L', 'joint_E', 'joint_U', 'joint_R', 'joint_B', 'joint_T']","(3, -5, 1, -2, 0, -91139, 0)","(0.0026, 0.0043, 0.0008, -0.0017, 0.0, -90.0029, 0.0)","(0.0, 0.0, 0.0, 0.0, 0.0, 0.0, 0.0)","(-0.000797, -0.002942, -0.000451, 0.001784, -0.000463, -0.001151, -0.000999)"
