time,.header.seq,.header.stamp.secs,.header.stamp.nsecs,.header.frame_id,.name,.pulse,.position,.velocity,.torque
2020/05/26/02:05:04.530205,1226,1590426304,475802898,,"['joint_S', 'joint_L', 'joint_E', 'joint_U', 'joint_R', 'joint_B', 'joint_T']","(-5, 5, -4, 0, 0, 0, 1)","(-0.0043, -0.0043, -0.0034, 0.0, 0.0, 0.0, -0.0014)","(0.0, 0.0, 0.0, 0.0, 0.0, 0.0, 0.0)","(0.0, -0.37, 0.0, 0.243, -0.027, 0.0396, 0.0)"
2020/05/26/02:05:04.584629,1227,1590426304,530128955,,"['joint_S', 'joint_L', 'joint_E', 'joint_U', 'joint_R', 'joint_B', 'joint_T']","(-5, 5, -4, 0, 0, 0, 1)","(-0.0043, -0.0043, -0.0034, 0.0, 0.0, 0.0, -0.0014)","(0.0, 0.0, 0.0, 0.0, 0.0, 0.0, 0.0)","(0.0, -0.37, 0.0, 0.243, -0.027, 0.0396, 0.0)"
2020/05/26/02:05:04.640945,1228,1590426304,584320068,,"['joint_S', 'joint_L', 'joint_E', 'joint_U', 'joint_R', 'joint_B', 'joint_T']","(-5, 5, -4, 0, 0, 0, 1)","(-0.0043, -0.0043, -0.0034, 0.0, 0.0, 0.0, -0.0014)","(0.0, 0.0, 0.0, 0.0, 0.0, 0.0, 0.0)","(0.0, -0.37, 0.0, 0.243, -0.027, 0.0396, 0.0)"
2020/05/26/02:05:04.695796,1229,1590426304,640770912,,"['joint_S', 'joint_L', 'joint_E', 'joint_U', 'joint_R', 'joint_B', 'joint_T']","(-5, 5, -4, 0, 0, 0, 1)","(-0.0043, -0.0043, -0.0034, 0.0, 0.0, 0.0, -0.0014)","(0.0, 0.0, 0.0, 0.0, 0.0, 0.0, 0.0)","(0.0, -0.37, 0.0, 0.243, -0.027, 0.0396, 0.0)"
2020/05/26/02:05:04.749992,1230,1590426304,695703983,,"['joint_S', 'joint_L', 'joint_E', 'joint_U', 'joint_R', 'joint_B', 'joint_T']","(-5, 5, -4, 0, 0, 0, 1)","(-0.0043, -0.0043, -0.0034, 0.0, 0.0, 0.0, -0.0014)","(0.0, 0.0, 0.0, 0.0, 0.0, 0.0, 0.0)","(0.0, -0.37, 0.0, 0.243, -0.027, 0.0396, 0.0)"
2020/05/26/02:05:04.802809,1231,1590426304,749766111,,"['joint_S', 'joint_L', 'joint_E', 'joint_U', 'joint_R', 'joint_B', 'joint_T']","(-5, 5, -4, 0, 0, 0, 1)","(-0.0043, -0.0043, -0.0034, 0.0, 0.0, 0.0, -0.0014)","(0.0, 0.0, 0.0, 0.0, 0.0, 0.0, 0.0)","(0.0, -0.37, 0.0, 0.243, -0.027, 0.0396, 0.0)"
2020/05/26/02:05:04.857306,1232,1590426304,802814960,,"['joint_S', 'joint_L', 'joint_E', 'joint_U', 'joint_R', 'joint_B', 'joint_T']","(-5, 5, -4, 0, 0, 0, 1)","(-0.0043, -0.0043, -0.0034, 0.0, 0.0, 0.0, -0.0014)","(0.0, 0.0, 0.0, 0.0, 0.0, 0.0, 0.0)","(0.0, -0.37, 0.0, 0.243, -0.027, 0.0396, 0.0)"
2020/05/26/02:05:04.912092,1233,1590426304,857237100,,"['joint_S', 'joint_L', 'joint_E', 'joint_U', 'joint_R', 'joint_B', 'joint_T']","(-5, 5, -4, 0, 0, 0, 1)","(-0.0043, -0.0043, -0.0034, 0.0, 0.0, 0.0, -0.0014)","(0.0, 0.0, 0.0, 0.0, 0.0, 0.0, 0.0)","(0.0, -0.37, 0.0, 0.243, -0.027, 0.0396, 0.0)"
2020/05/26/02:05:04.965107,1234,1590426304,912046909,,"['joint_S', 'joint_L', 'joint_E', 'joint_U', 'joint_R', 'joint_B', 'joint_T']","(-5, 5, -4, 0, 0, 0, 1)","(-0.0043, -0.0043, -0.0034, 0.0, 0.0, 0.0, -0.0014)","(0.0, 0.0, 0.0, 0.0, 0.0, 0.0, 0.0)","(0.0, -0.37, 0.0, 0.243, -0.027, 0.0396, 0.0)"
2020/05/26/02:05:05.018982,1235,1590426304,965097904,,"['joint_S', 'joint_L', 'joint_E', 'joint_U', 'joint_R', 'joint_B', 'joint_T']","(-5, 5, -4, 0, 0, 0, 1)","(-0.0043, -0.0043, -0.0034, 0.0, 0.0, 0.0, -0.0014)","(0.0, 0.0, 0.0, 0.0, 0.0, 0.0, 0.0)","(0.0, -0.37, 0.0, 0.243, -0.027, 0.0396, 0.0)"
2020/05/26/02:05:05.073064,1236,1590426305,18882036,,"['joint_S', 'joint_L', 'joint_E', 'joint_U', 'joint_R', 'joint_B', 'joint_T']","(-5, 5, -4, 0, 0, 0, 1)","(-0.0043, -0.0043, -0.0034, 0.0, 0.0, 0.0, -0.0014)","(0.0, 0.0, 0.0, 0.0, 0.0, 0.0, 0.0)","(0.0, -0.37, 0.0, 0.243, -0.027, 0.0396, 0.0)"
2020/05/26/02:05:05.126604,1237,1590426305,72863101,,"['joint_S', 'joint_L', 'joint_E', 'joint_U', 'joint_R', 'joint_B', 'joint_T']","(-5, 5, -4, 0, 0, 0, 1)","(-0.0043, -0.0043, -0.0034, 0.0, 0.0, 0.0, -0.0014)","(0.0, 0.0, 0.0, 0.0, 0.0, 0.0, 0.0)","(0.0, -0.37, 0.0, 0.243, -0.027, 0.0396, 0.0)"
2020/05/26/02:05:05.181734,1238,1590426305,126427888,,"['joint_S', 'joint_L', 'joint_E', 'joint_U', 'joint_R', 'joint_B', 'joint_T']","(-5, 5, -4, 0, 0, 0, 1)","(-0.0043, -0.0043, -0.0034, 0.0, 0.0, 0.0, -0.0014)","(0.0, 0.0, 0.0, 0.0, 0.0, 0.0, 0.0)","(0.0, -0.37, 0.0, 0.243, -0.027, 0.0396, 0.0)"
2020/05/26/02:05:05.237649,1239,1590426305,181869983,,"['joint_S', 'joint_L', 'joint_E', 'joint_U', 'joint_R', 'joint_B', 'joint_T']","(-5, 5, -4, 0, 0, 0, 1)","(-0.0043, -0.0043, -0.0034, 0.0, 0.0, 0.0, -0.0014)","(0.0, 0.0, 0.0, 0.0, 0.0, 0.0, 0.0)","(0.0, -0.37, 0.0, 0.243, -0.027, 0.0396, 0.0)"
2020/05/26/02:05:05.292270,1240,1590426305,237540006,,"['joint_S', 'joint_L', 'joint_E', 'joint_U', 'joint_R', 'joint_B', 'joint_T']","(-5, 5, -4, 0, 0, 0, 1)","(-0.0043, -0.0043, -0.0034, 0.0, 0.0, 0.0, -0.0014)","(0.0, 0.0, 0.0, 0.0, 0.0, 0.0, 0.0)","(0.0, -0.37, 0.0, 0.243, -0.027, 0.0396, 0.0)"
2020/05/26/02:05:05.345850,1241,1590426305,292284965,,"['joint_S', 'joint_L', 'joint_E', 'joint_U', 'joint_R', 'joint_B', 'joint_T']","(-5, 5, -4, 0, 0, 0, 1)","(-0.0043, -0.0043, -0.0034, 0.0, 0.0, 0.0, -0.0014)","(0.0, 0.0, 0.0, 0.0, 0.0, 0.0, 0.0)","(0.0, -0.37, 0.0, 0.243, -0.027, 0.0396, 0.0)"
2020/05/26/02:05:05.401462,1242,1590426305,345817089,,"['joint_S', 'joint_L', 'joint_E', 'joint_U', 'joint_R', 'joint_B', 'joint_T']","(-5, 5, -4, 0, 0, 0, 1)","(-0.0043, -0.0043, -0.0034, 0.0, 0.0, 0.0, -0.0014)","(0.0, 0.0, 0.0, 0.0, 0.0, 0.0, 0.0)","(0.0, -0.37, 0.0, 0.243, -0.027, 0.0396, 0.0)"
2020/05/26/02:05:05.454911,1243,1590426305,401303052,,"['joint_S', 'joint_L', 'joint_E', 'joint_U', 'joint_R', 'joint_B', 'joint_T']","(-5, 5, -4, 0, 0, 0, 1)","(-0.0043, -0.0043, -0.0034, 0.0, 0.0, 0.0, -0.0014)","(0.0, 0.0, 0.0, 0.0, 0.0, 0.0, 0.0)","(0.0, -0.37, 0.0, 0.243, -0.027, 0.0396, 0.0)"
2020/05/26/02:05:05.508656,1244,1590426305,454740047,,"['joint_S', 'joint_L', 'joint_E', 'joint_U', 'joint_R', 'joint_B', 'joint_T']","(-5, 5, -4, 0, 0, 0, 1)","(-0.0043, -0.0043, -0.0034, 0.0, 0.0, 0.0, -0.0014)","(0.0, 0.0, 0.0, 0.0, 0.0, 0.0, 0.0)","(0.0, -0.37, 0.0, 0.243, -0.027, 0.0396, 0.0)"
2020/05/26/02:05:05.560280,1245,1590426305,508357048,,"['joint_S', 'joint_L', 'joint_E', 'joint_U', 'joint_R', 'joint_B', 'joint_T']","(-5, 5, -4, 0, 0, 0, 1)","(-0.0043, -0.0043, -0.0034, 0.0, 0.0, 0.0, -0.0014)","(0.0, 0.0, 0.0, 0.0, 0.0, 0.0, 0.0)","(0.0, -0.37, 0.0, 0.243, -0.027, 0.0396, 0.0)"
2020/05/26/02:05:05.614348,1246,1590426305,560370922,,"['joint_S', 'joint_L', 'joint_E', 'joint_U', 'joint_R', 'joint_B', 'joint_T']","(-5, 5, -4, 0, 0, 0, 1)","(-0.0043, -0.0043, -0.0034, 0.0, 0.0, 0.0, -0.0014)","(0.0, 0.0, 0.0, 0.0, 0.0, 0.0, 0.0)","(0.0, -0.37, 0.0, 0.243, -0.027, 0.0396, 0.0)"
2020/05/26/02:05:05.668375,1247,1590426305,614254951,,"['joint_S', 'joint_L', 'joint_E', 'joint_U', 'joint_R', 'joint_B', 'joint_T']","(-5, 5, -4, 0, 0, 0, 1)","(-0.0043, -0.0043, -0.0034, 0.0, 0.0, 0.0, -0.0014)","(0.0, 0.0, 0.0, 0.0, 0.0, 0.0, 0.0)","(0.0, -0.37, 0.0, 0.243, -0.027, 0.0396, 0.0)"
2020/05/26/02:05:05.724399,1248,1590426305,668302059,,"['joint_S', 'joint_L', 'joint_E', 'joint_U', 'joint_R', 'joint_B', 'joint_T']","(-5, 5, -4, 0, 0, 0, 1)","(-0.0043, -0.0043, -0.0034, 0.0, 0.0, 0.0, -0.0014)","(0.0, 0.0, 0.0, 0.0, 0.0, 0.0, 0.0)","(0.0, -0.37, 0.0, 0.243, -0.027, 0.0396, 0.0)"
2020/05/26/02:05:05.780321,1249,1590426305,724481105,,"['joint_S', 'joint_L', 'joint_E', 'joint_U', 'joint_R', 'joint_B', 'joint_T']","(-5, 5, -4, 0, 0, 0, 1)","(-0.0043, -0.0043, -0.0034, 0.0, 0.0, 0.0, -0.0014)","(0.0, 0.0, 0.0, 0.0, 0.0, 0.0, 0.0)","(0.0, -0.37, 0.0, 0.243, -0.027, 0.0396, 0.0)"
2020/05/26/02:05:05.833596,1250,1590426305,780535936,,"['joint_S', 'joint_L', 'joint_E', 'joint_U', 'joint_R', 'joint_B', 'joint_T']","(-5, 5, -4, 0, 0, 0, 1)","(-0.0043, -0.0043, -0.0034, 0.0, 0.0, 0.0, -0.0014)","(0.0, 0.0, 0.0, 0.0, 0.0, 0.0, 0.0)","(0.0, -0.37, 0.0, 0.243, -0.027, 0.0396, 0.0)"
2020/05/26/02:05:05.888567,1251,1590426305,833353996,,"['joint_S', 'joint_L', 'joint_E', 'joint_U', 'joint_R', 'joint_B', 'joint_T']","(-5, 5, -4, 0, 0, 0, 1)","(-0.0043, -0.0043, -0.0034, 0.0, 0.0, 0.0, -0.0014)","(0.0, 0.0, 0.0, 0.0, 0.0, 0.0, 0.0)","(0.0, -0.37, 0.0, 0.243, -0.027, 0.0396, 0.0)"
2020/05/26/02:05:05.940454,1252,1590426305,888617038,,"['joint_S', 'joint_L', 'joint_E', 'joint_U', 'joint_R', 'joint_B', 'joint_T']","(-5, 5, -4, 0, 0, 0, 1)","(-0.0043, -0.0043, -0.0034, 0.0, 0.0, 0.0, -0.0014)","(0.0, 0.0, 0.0, 0.0, 0.0, 0.0, 0.0)","(0.0, -0.37, 0.0, 0.243, -0.027, 0.0396, 0.0)"
2020/05/26/02:05:05.994228,1253,1590426305,940570116,,"['joint_S', 'joint_L', 'joint_E', 'joint_U', 'joint_R', 'joint_B', 'joint_T']","(-5, 5, -4, 0, 0, 0, 1)","(-0.0043, -0.0043, -0.0034, 0.0, 0.0, 0.0, -0.0014)","(0.0, 0.0, 0.0, 0.0, 0.0, 0.0, 0.0)","(0.0, -0.37, 0.0, 0.243, -0.027, 0.0396, 0.0)"
2020/05/26/02:05:06.049969,1254,1590426305,994277000,,"['joint_S', 'joint_L', 'joint_E', 'joint_U', 'joint_R', 'joint_B', 'joint_T']","(-5, 5, -4, 0, 0, 0, 1)","(-0.0043, -0.0043, -0.0034, 0.0, 0.0, 0.0, -0.0014)","(0.0, 0.0, 0.0, 0.0, 0.0, 0.0, 0.0)","(0.0, -0.37, 0.0, 0.243, -0.027, 0.0396, 0.0)"
2020/05/26/02:05:06.105661,1255,1590426306,50082921,,"['joint_S', 'joint_L', 'joint_E', 'joint_U', 'joint_R', 'joint_B', 'joint_T']","(-5, 5, -4, 0, 0, 0, 1)","(-0.0043, -0.0043, -0.0034, 0.0, 0.0, 0.0, -0.0014)","(0.0, 0.0, 0.0, 0.0, 0.0, 0.0, 0.0)","(0.0, -0.37, 0.0, 0.243, -0.027, 0.0396, 0.0)"
2020/05/26/02:05:06.160651,1256,1590426306,105536937,,"['joint_S', 'joint_L', 'joint_E', 'joint_U', 'joint_R', 'joint_B', 'joint_T']","(-5, 5, -4, 0, 0, 0, 1)","(-0.0043, -0.0043, -0.0034, 0.0, 0.0, 0.0, -0.0014)","(0.0, 0.0, 0.0, 0.0, 0.0, 0.0, 0.0)","(0.0, -0.37, 0.0, 0.243, -0.027, 0.0396, 0.0)"
2020/05/26/02:05:06.215505,1257,1590426306,160736083,,"['joint_S', 'joint_L', 'joint_E', 'joint_U', 'joint_R', 'joint_B', 'joint_T']","(-5, 5, -4, 0, 0, 0, 1)","(-0.0043, -0.0043, -0.0034, 0.0, 0.0, 0.0, -0.0014)","(0.0, 0.0, 0.0, 0.0, 0.0, 0.0, 0.0)","(0.0, -0.37, 0.0, 0.243, -0.027, 0.0396, 0.0)"
2020/05/26/02:05:06.269186,1258,1590426306,215265989,,"['joint_S', 'joint_L', 'joint_E', 'joint_U', 'joint_R', 'joint_B', 'joint_T']","(-5, 5, -4, 0, 0, 0, 1)","(-0.0043, -0.0043, -0.0034, 0.0, 0.0, 0.0, -0.0014)","(0.0, 0.0, 0.0, 0.0, 0.0, 0.0, 0.0)","(0.0, -0.37, 0.0, 0.243, -0.027, 0.0396, 0.0)"
2020/05/26/02:05:06.324031,1259,1590426306,269283056,,"['joint_S', 'joint_L', 'joint_E', 'joint_U', 'joint_R', 'joint_B', 'joint_T']","(-5, 5, -4, 0, 0, 0, 1)","(-0.0043, -0.0043, -0.0034, 0.0, 0.0, 0.0, -0.0014)","(0.0, 0.0, 0.0, 0.0, 0.0, 0.0, 0.0)","(0.0, -0.37, 0.0, 0.243, -0.027, 0.0396, 0.0)"
2020/05/26/02:05:06.378126,1260,1590426306,323975086,,"['joint_S', 'joint_L', 'joint_E', 'joint_U', 'joint_R', 'joint_B', 'joint_T']","(-5, 5, -4, 0, 0, 0, 1)","(-0.0043, -0.0043, -0.0034, 0.0, 0.0, 0.0, -0.0014)","(0.0, 0.0, 0.0, 0.0, 0.0, 0.0, 0.0)","(0.0, -0.37, 0.0, 0.243, -0.027, 0.0396, 0.0)"
2020/05/26/02:05:06.431468,1261,1590426306,378298997,,"['joint_S', 'joint_L', 'joint_E', 'joint_U', 'joint_R', 'joint_B', 'joint_T']","(-5, 5, -4, 0, 0, 0, 1)","(-0.0043, -0.0043, -0.0034, 0.0, 0.0, 0.0, -0.0014)","(0.0, 0.0, 0.0, 0.0, 0.0, 0.0, 0.0)","(0.0, -0.37, 0.0, 0.243, -0.027, 0.0396, 0.0)"
2020/05/26/02:05:06.487796,1262,1590426306,431380033,,"['joint_S', 'joint_L', 'joint_E', 'joint_U', 'joint_R', 'joint_B', 'joint_T']","(-5, 5, -4, 0, 0, 0, 1)","(-0.0043, -0.0043, -0.0034, 0.0, 0.0, 0.0, -0.0014)","(0.0, 0.0, 0.0, 0.0, 0.0, 0.0, 0.0)","(0.0, -0.37, 0.0, 0.243, -0.027, 0.0396, 0.0)"
2020/05/26/02:05:06.541724,1263,1590426306,487596988,,"['joint_S', 'joint_L', 'joint_E', 'joint_U', 'joint_R', 'joint_B', 'joint_T']","(-5, 5, -4, 0, 0, 0, 1)","(-0.0043, -0.0043, -0.0034, 0.0, 0.0, 0.0, -0.0014)","(0.0, 0.0, 0.0, 0.0, 0.0, 0.0, 0.0)","(0.0, -0.37, 0.0, 0.243, -0.027, 0.0396, 0.0)"
2020/05/26/02:05:06.594965,1264,1590426306,541815042,,"['joint_S', 'joint_L', 'joint_E', 'joint_U', 'joint_R', 'joint_B', 'joint_T']","(-5, 5, -4, 0, 0, 0, 1)","(-0.0043, -0.0043, -0.0034, 0.0, 0.0, 0.0, -0.0014)","(0.0, 0.0, 0.0, 0.0, 0.0, 0.0, 0.0)","(0.0, -0.37, 0.0, 0.243, -0.027, 0.0396, 0.0)"
2020/05/26/02:05:06.651532,1265,1590426306,595032930,,"['joint_S', 'joint_L', 'joint_E', 'joint_U', 'joint_R', 'joint_B', 'joint_T']","(-5, 5, -4, 0, 0, 0, 1)","(-0.0043, -0.0043, -0.0034, 0.0, 0.0, 0.0, -0.0014)","(0.0, 0.0, 0.0, 0.0, 0.0, 0.0, 0.0)","(0.0, -0.37, 0.0, 0.243, -0.027, 0.0396, 0.0)"
2020/05/26/02:05:06.705640,1266,1590426306,651328086,,"['joint_S', 'joint_L', 'joint_E', 'joint_U', 'joint_R', 'joint_B', 'joint_T']","(-5, 5, -4, 0, 0, 0, 1)","(-0.0043, -0.0043, -0.0034, 0.0, 0.0, 0.0, -0.0014)","(0.0, 0.0, 0.0, 0.0, 0.0, 0.0, 0.0)","(0.0, -0.37, 0.0, 0.243, -0.027, 0.0396, 0.0)"
2020/05/26/02:05:06.759288,1267,1590426306,705406904,,"['joint_S', 'joint_L', 'joint_E', 'joint_U', 'joint_R', 'joint_B', 'joint_T']","(-5, 5, -4, 0, 0, 0, 1)","(-0.0043, -0.0043, -0.0034, 0.0, 0.0, 0.0, -0.0014)","(0.0, 0.0, 0.0, 0.0, 0.0, 0.0, 0.0)","(0.0, -0.37, 0.0, 0.243, -0.027, 0.0396, 0.0)"
2020/05/26/02:05:06.814599,1268,1590426306,759351015,,"['joint_S', 'joint_L', 'joint_E', 'joint_U', 'joint_R', 'joint_B', 'joint_T']","(-5, 5, -4, 0, 0, 0, 1)","(-0.0043, -0.0043, -0.0034, 0.0, 0.0, 0.0, -0.0014)","(0.0, 0.0, 0.0, 0.0, 0.0, 0.0, 0.0)","(0.0, -0.37, 0.0, 0.243, -0.027, 0.0396, 0.0)"
2020/05/26/02:05:06.868007,1269,1590426306,814534902,,"['joint_S', 'joint_L', 'joint_E', 'joint_U', 'joint_R', 'joint_B', 'joint_T']","(-5, 5, -4, 0, 0, 0, 1)","(-0.0043, -0.0043, -0.0034, 0.0, 0.0, 0.0, -0.0014)","(0.0, 0.0, 0.0, 0.0, 0.0, 0.0, 0.0)","(0.0, -0.37, 0.0, 0.243, -0.027, 0.0396, 0.0)"
2020/05/26/02:05:06.923348,1270,1590426306,867933988,,"['joint_S', 'joint_L', 'joint_E', 'joint_U', 'joint_R', 'joint_B', 'joint_T']","(-5, 5, -4, 0, 0, 0, 1)","(-0.0043, -0.0043, -0.0034, 0.0, 0.0, 0.0, -0.0014)","(0.0, 0.0, 0.0, 0.0, 0.0, 0.0, 0.0)","(0.0, -0.37, 0.0, 0.243, -0.027, 0.0396, 0.0)"
2020/05/26/02:05:06.977151,1271,1590426306,923465967,,"['joint_S', 'joint_L', 'joint_E', 'joint_U', 'joint_R', 'joint_B', 'joint_T']","(-5, 5, -4, 0, 0, 0, 1)","(-0.0043, -0.0043, -0.0034, 0.0, 0.0, 0.0, -0.0014)","(0.0, 0.0, 0.0, 0.0, 0.0, 0.0, 0.0)","(0.0, -0.37, 0.0, 0.243, -0.027, 0.0396, 0.0)"
2020/05/26/02:05:07.030298,1272,1590426306,977067947,,"['joint_S', 'joint_L', 'joint_E', 'joint_U', 'joint_R', 'joint_B', 'joint_T']","(-5, 5, -4, 0, 0, 0, 1)","(-0.0043, -0.0043, -0.0034, 0.0, 0.0, 0.0, -0.0014)","(0.0, 0.0, 0.0, 0.0, 0.0, 0.0, 0.0)","(0.0, -0.37, 0.0, 0.243, -0.027, 0.0396, 0.0)"
2020/05/26/02:05:07.086318,1273,1590426307,30334949,,"['joint_S', 'joint_L', 'joint_E', 'joint_U', 'joint_R', 'joint_B', 'joint_T']","(-5, 5, -4, 0, 0, 0, 1)","(-0.0043, -0.0043, -0.0034, 0.0, 0.0, 0.0, -0.0014)","(0.0, 0.0, 0.0, 0.0, 0.0, 0.0, 0.0)","(0.0, -0.37, 0.0, 0.243, -0.027, 0.0396, 0.0)"
2020/05/26/02:05:07.141004,1274,1590426307,86427927,,"['joint_S', 'joint_L', 'joint_E', 'joint_U', 'joint_R', 'joint_B', 'joint_T']","(-5, 5, -4, 0, 0, 0, 1)","(-0.0043, -0.0043, -0.0034, 0.0, 0.0, 0.0, -0.0014)","(0.0, 0.0, 0.0, 0.0, 0.0, 0.0, 0.0)","(0.0, -0.37, 0.0, 0.243, -0.027, 0.0396, 0.0)"
2020/05/26/02:05:07.194833,1275,1590426307,141000032,,"['joint_S', 'joint_L', 'joint_E', 'joint_U', 'joint_R', 'joint_B', 'joint_T']","(-5, 5, -4, 0, 0, 0, 1)","(-0.0043, -0.0043, -0.0034, 0.0, 0.0, 0.0, -0.0014)","(0.0, 0.0, 0.0, 0.0, 0.0, 0.0, 0.0)","(0.0, -0.37, 0.0, 0.243, -0.027, 0.0396, 0.0)"
2020/05/26/02:05:07.249255,1276,1590426307,194892883,,"['joint_S', 'joint_L', 'joint_E', 'joint_U', 'joint_R', 'joint_B', 'joint_T']","(-5, 5, -4, 0, 0, 0, 1)","(-0.0043, -0.0043, -0.0034, 0.0, 0.0, 0.0, -0.0014)","(0.0, 0.0, 0.0, 0.0, 0.0, 0.0, 0.0)","(0.0, -0.37, 0.0, 0.243, -0.027, 0.0396, 0.0)"
2020/05/26/02:05:07.302990,1277,1590426307,249314069,,"['joint_S', 'joint_L', 'joint_E', 'joint_U', 'joint_R', 'joint_B', 'joint_T']","(-5, 5, -4, 0, 0, 0, 1)","(-0.0043, -0.0043, -0.0034, 0.0, 0.0, 0.0, -0.0014)","(0.0, 0.0, 0.0, 0.0, 0.0, 0.0, 0.0)","(0.0, -0.37, 0.0, 0.243, -0.027, 0.0396, 0.0)"
2020/05/26/02:05:07.356208,1278,1590426307,302892923,,"['joint_S', 'joint_L', 'joint_E', 'joint_U', 'joint_R', 'joint_B', 'joint_T']","(-5, 5, -4, 0, 0, 0, 1)","(-0.0043, -0.0043, -0.0034, 0.0, 0.0, 0.0, -0.0014)","(0.0, 0.0, 0.0, 0.0, 0.0, 0.0, 0.0)","(0.0, -0.37, 0.0, 0.243, -0.027, 0.0396, 0.0)"
2020/05/26/02:05:07.411082,1279,1590426307,356292009,,"['joint_S', 'joint_L', 'joint_E', 'joint_U', 'joint_R', 'joint_B', 'joint_T']","(-5, 5, -4, 0, 0, 0, 1)","(-0.0043, -0.0043, -0.0034, 0.0, 0.0, 0.0, -0.0014)","(0.0, 0.0, 0.0, 0.0, 0.0, 0.0, 0.0)","(0.0, -0.37, 0.0, 0.243, -0.027, 0.0396, 0.0)"
2020/05/26/02:05:07.463939,1280,1590426307,411070108,,"['joint_S', 'joint_L', 'joint_E', 'joint_U', 'joint_R', 'joint_B', 'joint_T']","(-5, 5, -4, 0, 0, 0, 1)","(-0.0043, -0.0043, -0.0034, 0.0, 0.0, 0.0, -0.0014)","(0.0, 0.0, 0.0, 0.0, 0.0, 0.0, 0.0)","(0.0, -0.37, 0.0, 0.243, -0.027, 0.0396, 0.0)"
2020/05/26/02:05:07.520144,1281,1590426307,463795900,,"['joint_S', 'joint_L', 'joint_E', 'joint_U', 'joint_R', 'joint_B', 'joint_T']","(-5, 5, -4, 0, 0, 0, 1)","(-0.0043, -0.0043, -0.0034, 0.0, 0.0, 0.0, -0.0014)","(0.0, 0.0, 0.0, 0.0, 0.0, 0.0, 0.0)","(0.0, -0.37, 0.0, 0.243, -0.027, 0.0396, 0.0)"
2020/05/26/02:05:07.574023,1282,1590426307,520262956,,"['joint_S', 'joint_L', 'joint_E', 'joint_U', 'joint_R', 'joint_B', 'joint_T']","(-5, 5, -4, 0, 0, 0, 1)","(-0.0043, -0.0043, -0.0034, 0.0, 0.0, 0.0, -0.0014)","(0.0, 0.0, 0.0, 0.0, 0.0, 0.0, 0.0)","(0.0, -0.37, 0.0, 0.243, -0.027, 0.0396, 0.0)"
2020/05/26/02:05:07.628013,1283,1590426307,573770999,,"['joint_S', 'joint_L', 'joint_E', 'joint_U', 'joint_R', 'joint_B', 'joint_T']","(-4, 4, -3, 0, 0, -11, 0)","(-0.0034, -0.0034, -0.0026, 0.0, 0.0, -0.0108, 0.0)","(0.0, 0.0, 0.0, 0.0, 0.0, 0.0, 0.0)","(0.0, -0.37, 0.0, 0.243, -0.027, 0.0396, 0.0)"
2020/05/26/02:05:07.680983,1284,1590426307,628074884,,"['joint_S', 'joint_L', 'joint_E', 'joint_U', 'joint_R', 'joint_B', 'joint_T']","(-4, 4, -3, 0, 0, -214, 0)","(-0.0034, -0.0034, -0.0026, 0.0, 0.0, -0.2113, 0.0)","(0.0, 0.0, 0.0, 0.0, 0.0, 0.0, 0.0)","(0.0, -0.37, 0.0, 0.243, -0.027, 0.0396, 0.0)"
2020/05/26/02:05:07.734935,1285,1590426307,680905103,,"['joint_S', 'joint_L', 'joint_E', 'joint_U', 'joint_R', 'joint_B', 'joint_T']","(-4, 4, -3, 0, 0, -647, 0)","(-0.0034, -0.0034, -0.0026, 0.0, 0.0, -0.6389, 0.0)","(0.0, 0.0, 0.0, 0.0, 0.0, 0.0, 0.0)","(0.0, -0.37, 0.0, 0.243, -0.027, 0.0396, 0.0)"
2020/05/26/02:05:07.789307,1286,1590426307,734900951,,"['joint_S', 'joint_L', 'joint_E', 'joint_U', 'joint_R', 'joint_B', 'joint_T']","(-4, 4, -3, 0, 0, -1281, 0)","(-0.0034, -0.0034, -0.0026, 0.0, 0.0, -1.265, 0.0)","(10.0, 84.0, 0.0, -166.0, 1.0, -3250.0, -9.0)","(0.0, -0.37, 0.0, 0.243, -0.027, 0.0396, 0.0)"
2020/05/26/02:05:07.844866,1287,1590426307,789237976,,"['joint_S', 'joint_L', 'joint_E', 'joint_U', 'joint_R', 'joint_B', 'joint_T']","(-4, 4, -3, 0, 0, -2088, 0)","(-0.0034, -0.0034, -0.0026, 0.0, 0.0, -2.0619, 0.0)","(10.0, 84.0, 13.0, -166.0, 1.0, -3250.0, -9.0)","(0.0, -0.37, 0.0, 0.243, -0.027, 0.0396, 0.0)"
2020/05/26/02:05:07.901449,1288,1590426307,845009088,,"['joint_S', 'joint_L', 'joint_E', 'joint_U', 'joint_R', 'joint_B', 'joint_T']","(-4, 4, -3, 0, 0, -3039, 0)","(-0.0034, -0.0034, -0.0026, 0.0, 0.0, -3.0011, 0.0)","(10.0, 84.0, 13.0, -166.0, 1.0, -3250.0, -9.0)","(0.0, -0.37, 0.0, 0.243, -0.027, 0.0396, 0.0)"
2020/05/26/02:05:07.958484,1289,1590426307,901424884,,"['joint_S', 'joint_L', 'joint_E', 'joint_U', 'joint_R', 'joint_B', 'joint_T']","(-4, 4, -3, 0, 0, -4186, 0)","(-0.0034, -0.0034, -0.0026, 0.0, 0.0, -4.1338, 0.0)","(10.0, 84.0, 13.0, -166.0, 1.0, -3250.0, -9.0)","(0.03, -0.13, 0.0, 0.108, -0.0324, -0.0432, 0.0)"
2020/05/26/02:05:08.013057,1290,1590426307,958522081,,"['joint_S', 'joint_L', 'joint_E', 'joint_U', 'joint_R', 'joint_B', 'joint_T']","(-4, 4, -3, 0, 0, -5386, 0)","(-0.0034, -0.0034, -0.0026, 0.0, 0.0, -5.3188, 0.0)","(10.0, 84.0, 13.0, -166.0, 1.0, -3250.0, -9.0)","(0.03, -0.13, 0.04, 0.108, -0.0324, -0.0432, 0.0)"
2020/05/26/02:05:08.068392,1291,1590426308,13273954,,"['joint_S', 'joint_L', 'joint_E', 'joint_U', 'joint_R', 'joint_B', 'joint_T']","(-4, 4, -3, 0, 0, -6644, 0)","(-0.0034, -0.0034, -0.0026, 0.0, 0.0, -6.5611, 0.0)","(10.0, 84.0, 13.0, -166.0, 1.0, -3250.0, -9.0)","(0.03, -0.13, 0.04, 0.108, -0.0324, -0.0432, 0.0)"
2020/05/26/02:05:08.122851,1292,1590426308,68412065,,"['joint_S', 'joint_L', 'joint_E', 'joint_U', 'joint_R', 'joint_B', 'joint_T']","(-4, 4, -3, 0, 0, -7881, 0)","(-0.0034, -0.0034, -0.0026, 0.0, 0.0, -7.7827, 0.0)","(10.0, 84.0, 13.0, -166.0, 1.0, -3250.0, -9.0)","(0.03, -0.13, 0.04, 0.108, -0.0324, -0.0432, 0.0)"
2020/05/26/02:05:08.178904,1293,1590426308,122773885,,"['joint_S', 'joint_L', 'joint_E', 'joint_U', 'joint_R', 'joint_B', 'joint_T']","(-4, 4, -3, 0, 0, -9158, 0)","(-0.0034, -0.0034, -0.0026, 0.0, 0.0, -9.0438, 0.0)","(10.0, 84.0, 13.0, -166.0, 1.0, -3250.0, -9.0)","(0.03, -0.13, 0.04, 0.108, -0.0324, -0.0432, 0.0)"
2020/05/26/02:05:08.234802,1294,1590426308,178817987,,"['joint_S', 'joint_L', 'joint_E', 'joint_U', 'joint_R', 'joint_B', 'joint_T']","(-4, 4, -3, 0, 0, -10495, 0)","(-0.0034, -0.0034, -0.0026, 0.0, 0.0, -10.3641, 0.0)","(10.0, 84.0, 13.0, -166.0, 1.0, -3250.0, -9.0)","(0.03, -0.13, 0.04, 0.108, -0.0324, -0.0432, 0.0)"
2020/05/26/02:05:08.289810,1295,1590426308,234967947,,"['joint_S', 'joint_L', 'joint_E', 'joint_U', 'joint_R', 'joint_B', 'joint_T']","(-4, 4, -3, 0, 0, -12065, 0)","(-0.0034, -0.0034, -0.0026, 0.0, 0.0, -11.9146, 0.0)","(10.0, 84.0, 13.0, -166.0, 1.0, -3250.0, -9.0)","(0.03, -0.13, 0.04, 0.108, -0.0324, -0.0432, 0.0)"
2020/05/26/02:05:08.344083,1296,1590426308,289947986,,"['joint_S', 'joint_L', 'joint_E', 'joint_U', 'joint_R', 'joint_B', 'joint_T']","(-4, 4, -2, 0, 0, -13755, 0)","(-0.0034, -0.0034, -0.0017, 0.0, 0.0, -13.5835, 0.0)","(10.0, 84.0, 13.0, -166.0, 1.0, -3250.0, -9.0)","(0.03, -0.13, 0.04, 0.108, -0.0324, -0.0432, 0.0)"
2020/05/26/02:05:08.400439,1297,1590426308,344134092,,"['joint_S', 'joint_L', 'joint_E', 'joint_U', 'joint_R', 'joint_B', 'joint_T']","(-4, 4, -2, 0, 0, -15434, 0)","(-0.0034, -0.0034, -0.0017, 0.0, 0.0, -15.2416, 0.0)","(10.0, 84.0, 13.0, -166.0, 1.0, -3250.0, -9.0)","(0.03, -0.13, 0.04, 0.108, -0.0324, -0.0432, 0.0)"
2020/05/26/02:05:08.457328,1298,1590426308,400475978,,"['joint_S', 'joint_L', 'joint_E', 'joint_U', 'joint_R', 'joint_B', 'joint_T']","(-4, 4, -2, 0, 0, -17158, 0)","(-0.0034, -0.0034, -0.0017, 0.0, 0.0, -16.9441, 0.0)","(10.0, 84.0, 13.0, -166.0, 1.0, -3250.0, -9.0)","(0.03, -0.13, 0.04, 0.108, -0.0324, -0.0432, 0.0)"
2020/05/26/02:05:08.512731,1299,1590426308,457257032,,"['joint_S', 'joint_L', 'joint_E', 'joint_U', 'joint_R', 'joint_B', 'joint_T']","(-4, 4, -2, 0, 0, -18806, 0)","(-0.0034, -0.0034, -0.0017, 0.0, 0.0, -18.5715, 0.0)","(10.0, 84.0, 13.0, -166.0, 1.0, -3250.0, -9.0)","(0.03, -0.13, 0.04, 0.108, -0.0324, -0.0432, 0.0)"
2020/05/26/02:05:08.569281,1300,1590426308,512487888,,"['joint_S', 'joint_L', 'joint_E', 'joint_U', 'joint_R', 'joint_B', 'joint_T']","(-4, 4, -2, -1, 0, -20431, 0)","(-0.0034, -0.0034, -0.0017, -0.0008, 0.0, -20.1763, 0.0)","(10.0, 84.0, 13.0, -166.0, 1.0, -3250.0, -9.0)","(0.03, -0.13, 0.04, 0.108, -0.0324, -0.0432, 0.0)"
2020/05/26/02:05:08.624677,1301,1590426308,569428920,,"['joint_S', 'joint_L', 'joint_E', 'joint_U', 'joint_R', 'joint_B', 'joint_T']","(-3, 4, -2, -1, 0, -22057, 0)","(-0.0026, -0.0034, -0.0017, -0.0008, 0.0, -21.782, 0.0)","(4.0, -12.0, 13.0, -166.0, 1.0, -3250.0, -9.0)","(0.03, -0.13, 0.04, 0.108, -0.0324, -0.0432, 0.0)"
2020/05/26/02:05:08.680130,1302,1590426308,624772071,,"['joint_S', 'joint_L', 'joint_E', 'joint_U', 'joint_R', 'joint_B', 'joint_T']","(-3, 4, -2, -1, 0, -23682, 0)","(-0.0026, -0.0034, -0.0017, -0.0008, 0.0, -23.3868, 0.0)","(4.0, -12.0, 10.0, 93.0, 0.0, -29563.0, -12.0)","(0.03, -0.13, 0.04, 0.108, -0.0324, -0.0432, 0.0)"
2020/05/26/02:05:08.738458,1303,1590426308,680046081,,"['joint_S', 'joint_L', 'joint_E', 'joint_U', 'joint_R', 'joint_B', 'joint_T']","(-3, 4, -1, -1, 0, -25308, 0)","(-0.0026, -0.0034, -0.0008, -0.0008, 0.0, -24.9925, 0.0)","(4.0, -12.0, 10.0, 93.0, 0.0, -29563.0, -12.0)","(0.03, -0.13, 0.04, 0.108, -0.0324, -0.0432, 0.0)"
2020/05/26/02:05:08.793086,1304,1590426308,738349914,,"['joint_S', 'joint_L', 'joint_E', 'joint_U', 'joint_R', 'joint_B', 'joint_T']","(-3, 4, -1, -1, 0, -26991, 0)","(-0.0026, -0.0034, -0.0008, -0.0008, 0.0, -26.6545, 0.0)","(4.0, -12.0, 10.0, 93.0, 0.0, -29563.0, -12.0)","(0.09, -0.48, 0.04, 0.108, -0.0324, -0.0432, 0.0)"
2020/05/26/02:05:08.849353,1305,1590426308,793112993,,"['joint_S', 'joint_L', 'joint_E', 'joint_U', 'joint_R', 'joint_B', 'joint_T']","(-3, 3, -1, -1, 0, -28616, 0)","(-0.0026, -0.0026, -0.0008, -0.0008, 0.0, -28.2593, 0.0)","(4.0, -12.0, 10.0, 93.0, 0.0, -29563.0, -12.0)","(0.09, -0.48, 0.13, 0.3186, -0.027, -0.0756, -0.0144)"
2020/05/26/02:05:08.906362,1306,1590426308,849507093,,"['joint_S', 'joint_L', 'joint_E', 'joint_U', 'joint_R', 'joint_B', 'joint_T']","(-3, 3, -1, -1, 0, -30241, 0)","(-0.0026, -0.0026, -0.0008, -0.0008, 0.0, -29.864, 0.0)","(4.0, -12.0, 10.0, 93.0, 0.0, -29563.0, -12.0)","(0.09, -0.48, 0.13, 0.3186, -0.027, -0.0756, -0.0144)"
2020/05/26/02:05:08.961543,1307,1590426308,906493902,,"['joint_S', 'joint_L', 'joint_E', 'joint_U', 'joint_R', 'joint_B', 'joint_T']","(-3, 3, -1, -1, 0, -31867, 0)","(-0.0026, -0.0026, -0.0008, -0.0008, 0.0, -31.4697, 0.0)","(4.0, -12.0, 10.0, 93.0, 0.0, -29563.0, -12.0)","(0.09, -0.48, 0.13, 0.3186, -0.027, -0.0756, -0.0144)"
2020/05/26/02:05:09.016427,1308,1590426308,961621999,,"['joint_S', 'joint_L', 'joint_E', 'joint_U', 'joint_R', 'joint_B', 'joint_T']","(-3, 3, -1, -1, 0, -33434, 0)","(-0.0026, -0.0026, -0.0008, -0.0008, 0.0, -33.0172, 0.0)","(4.0, -12.0, 10.0, 93.0, 0.0, -29563.0, -12.0)","(0.09, -0.48, 0.13, 0.3186, -0.027, -0.0756, -0.0144)"
2020/05/26/02:05:09.071902,1309,1590426309,16478061,,"['joint_S', 'joint_L', 'joint_E', 'joint_U', 'joint_R', 'joint_B', 'joint_T']","(-3, 3, -1, -1, 0, -35060, 0)","(-0.0026, -0.0026, -0.0008, -0.0008, 0.0, -34.6229, 0.0)","(4.0, -12.0, 10.0, 93.0, 0.0, -29563.0, -12.0)","(0.09, -0.48, 0.13, 0.3186, -0.027, -0.0756, -0.0144)"
2020/05/26/02:05:09.128627,1310,1590426309,71777105,,"['joint_S', 'joint_L', 'joint_E', 'joint_U', 'joint_R', 'joint_B', 'joint_T']","(-3, 3, -1, -1, 0, -36684, 0)","(-0.0026, -0.0026, -0.0008, -0.0008, 0.0, -36.2267, 0.0)","(4.0, -12.0, 10.0, 93.0, 0.0, -29563.0, -12.0)","(0.09, -0.48, 0.13, 0.3186, -0.027, -0.0756, -0.0144)"
2020/05/26/02:05:09.185034,1311,1590426309,128655910,,"['joint_S', 'joint_L', 'joint_E', 'joint_U', 'joint_R', 'joint_B', 'joint_T']","(-3, 3, 0, -1, 0, -38309, 0)","(-0.0026, -0.0026, 0.0, -0.0008, 0.0, -37.8314, 0.0)","(4.0, -12.0, 10.0, 93.0, 0.0, -29563.0, -12.0)","(0.09, -0.48, 0.13, 0.3186, -0.027, -0.0756, -0.0144)"
2020/05/26/02:05:09.239034,1312,1590426309,184961080,,"['joint_S', 'joint_L', 'joint_E', 'joint_U', 'joint_R', 'joint_B', 'joint_T']","(-3, 3, 0, -1, 0, -39935, 0)","(-0.0026, -0.0026, 0.0, -0.0008, 0.0, -39.4372, 0.0)","(4.0, -12.0, 10.0, 93.0, 0.0, -29563.0, -12.0)","(0.09, -0.48, 0.13, 0.3186, -0.027, -0.0756, -0.0144)"
2020/05/26/02:05:09.294339,1313,1590426309,238975048,,"['joint_S', 'joint_L', 'joint_E', 'joint_U', 'joint_R', 'joint_B', 'joint_T']","(-3, 3, 0, -2, 0, -41561, 0)","(-0.0026, -0.0026, 0.0, -0.0017, 0.0, -41.0429, 0.0)","(4.0, -12.0, 10.0, 93.0, 0.0, -29563.0, -12.0)","(0.09, -0.48, 0.13, 0.3186, -0.027, -0.0756, -0.0144)"
2020/05/26/02:05:09.351348,1314,1590426309,294250965,,"['joint_S', 'joint_L', 'joint_E', 'joint_U', 'joint_R', 'joint_B', 'joint_T']","(-3, 3, 0, -2, 0, -43128, 0)","(-0.0026, -0.0026, 0.0, -0.0017, 0.0, -42.5904, 0.0)","(4.0, -12.0, 10.0, 93.0, 0.0, -29563.0, -12.0)","(0.09, -0.48, 0.13, 0.3186, -0.027, -0.0756, -0.0144)"
2020/05/26/02:05:09.406992,1315,1590426309,351530075,,"['joint_S', 'joint_L', 'joint_E', 'joint_U', 'joint_R', 'joint_B', 'joint_T']","(-2, 3, 0, -2, 0, -44811, 0)","(-0.0017, -0.0026, 0.0, -0.0017, 0.0, -44.2524, 0.0)","(4.0, -12.0, 10.0, 93.0, 0.0, -29563.0, -12.0)","(0.09, -0.48, 0.13, 0.3186, -0.027, -0.0756, -0.0144)"
2020/05/26/02:05:09.461449,1316,1590426309,406837940,,"['joint_S', 'joint_L', 'joint_E', 'joint_U', 'joint_R', 'joint_B', 'joint_T']","(-2, 3, 0, -2, 0, -46378, 0)","(-0.0017, -0.0026, 0.0, -0.0017, 0.0, -45.7999, 0.0)","(4.0, -12.0, 10.0, 93.0, 0.0, -29563.0, -12.0)","(0.09, -0.48, 0.13, 0.3186, -0.027, -0.0756, -0.0144)"
2020/05/26/02:05:09.516513,1317,1590426309,461266040,,"['joint_S', 'joint_L', 'joint_E', 'joint_U', 'joint_R', 'joint_B', 'joint_T']","(-2, 3, 0, -2, 0, -48003, 0)","(-0.0017, -0.0026, 0.0, -0.0017, 0.0, -47.4046, 0.0)","(11.0, 0.0, 10.0, -19.0, 0.0, -29563.0, -12.0)","(0.09, -0.48, 0.13, 0.3186, -0.027, -0.0756, -0.0144)"
2020/05/26/02:05:09.572776,1318,1590426309,516561031,,"['joint_S', 'joint_L', 'joint_E', 'joint_U', 'joint_R', 'joint_B', 'joint_T']","(-2, 3, 0, -2, 0, -49571, 0)","(-0.0017, -0.0026, 0.0, -0.0017, 0.0, -48.9531, 0.0)","(11.0, 0.0, 0.0, -19.0, 0.0, -28990.0, -8.0)","(0.09, -0.48, 0.13, 0.3186, -0.027, -0.0756, -0.0144)"
2020/05/26/02:05:09.627675,1319,1590426309,572844028,,"['joint_S', 'joint_L', 'joint_E', 'joint_U', 'joint_R', 'joint_B', 'joint_T']","(-2, 3, 0, -2, 0, -51196, 0)","(-0.0017, -0.0026, 0.0, -0.0017, 0.0, -50.5578, 0.0)","(11.0, 0.0, 0.0, -19.0, 0.0, -28990.0, -8.0)","(0.09, -0.48, 0.13, 0.3186, -0.027, -0.0756, -0.0144)"
2020/05/26/02:05:09.683266,1320,1590426309,627631902,,"['joint_S', 'joint_L', 'joint_E', 'joint_U', 'joint_R', 'joint_B', 'joint_T']","(-2, 3, 0, -2, 0, -52822, 0)","(-0.0017, -0.0026, 0.0, -0.0017, 0.0, -52.1635, 0.0)","(11.0, 0.0, 0.0, -19.0, 0.0, -28990.0, -8.0)","(0.16, -0.36, 0.13, 0.297, -0.0324, -0.0756, -0.0144)"
2020/05/26/02:05:09.736640,1321,1590426309,683276891,,"['joint_S', 'joint_L', 'joint_E', 'joint_U', 'joint_R', 'joint_B', 'joint_T']","(-2, 3, 0, -2, 0, -54389, 0)","(-0.0017, -0.0026, 0.0, -0.0017, 0.0, -53.711, 0.0)","(11.0, 0.0, 0.0, -19.0, 0.0, -28990.0, -8.0)","(0.16, -0.36, 0.1, 0.297, -0.0324, -0.0756, -0.0216)"
2020/05/26/02:05:09.795549,1322,1590426309,736532926,,"['joint_S', 'joint_L', 'joint_E', 'joint_U', 'joint_R', 'joint_B', 'joint_T']","(-2, 2, 0, -2, 0, -56012, 0)","(-0.0017, -0.0017, 0.0, -0.0017, 0.0, -55.3138, 0.0)","(11.0, 0.0, 0.0, -19.0, 0.0, -28990.0, -8.0)","(0.16, -0.36, 0.1, 0.297, -0.0324, -0.0756, -0.0216)"
2020/05/26/02:05:09.849343,1323,1590426309,795571088,,"['joint_S', 'joint_L', 'joint_E', 'joint_U', 'joint_R', 'joint_B', 'joint_T']","(-2, 2, 0, -2, 0, -57574, 0)","(-0.0017, -0.0017, 0.0, -0.0017, 0.0, -56.8563, 0.0)","(11.0, 0.0, 0.0, -19.0, 0.0, -28990.0, -8.0)","(0.16, -0.36, 0.1, 0.297, -0.0324, -0.0756, -0.0216)"
2020/05/26/02:05:09.902970,1324,1590426309,849450111,,"['joint_S', 'joint_L', 'joint_E', 'joint_U', 'joint_R', 'joint_B', 'joint_T']","(-2, 2, 0, -2, 0, -59192, 0)","(-0.0017, -0.0017, 0.0, -0.0017, 0.0, -58.4541, 0.0)","(11.0, 0.0, 0.0, -19.0, 0.0, -28990.0, -8.0)","(0.16, -0.36, 0.1, 0.297, -0.0324, -0.0756, -0.0216)"
2020/05/26/02:05:09.958785,1325,1590426309,902971982,,"['joint_S', 'joint_L', 'joint_E', 'joint_U', 'joint_R', 'joint_B', 'joint_T']","(-2, 2, 0, -3, 0, -60810, 0)","(-0.0017, -0.0017, 0.0, -0.0026, 0.0, -60.052, 0.0)","(11.0, 0.0, 0.0, -19.0, 0.0, -28990.0, -8.0)","(0.16, -0.36, 0.1, 0.297, -0.0324, -0.0756, -0.0216)"
2020/05/26/02:05:10.013893,1326,1590426309,958767890,,"['joint_S', 'joint_L', 'joint_E', 'joint_U', 'joint_R', 'joint_B', 'joint_T']","(-2, 2, 0, -3, 0, -62372, 0)","(-0.0017, -0.0017, 0.0, -0.0026, 0.0, -61.5945, 0.0)","(11.0, 0.0, 0.0, -19.0, 0.0, -28990.0, -8.0)","(0.16, -0.36, 0.1, 0.297, -0.0324, -0.0756, -0.0216)"
2020/05/26/02:05:10.069090,1327,1590426310,13959884,,"['joint_S', 'joint_L', 'joint_E', 'joint_U', 'joint_R', 'joint_B', 'joint_T']","(-2, 2, 1, -3, 0, -63995, 0)","(-0.0017, -0.0017, 0.0008, -0.0026, 0.0, -63.1973, 0.0)","(11.0, 0.0, 0.0, -19.0, 0.0, -28990.0, -8.0)","(0.16, -0.36, 0.1, 0.297, -0.0324, -0.0756, -0.0216)"
2020/05/26/02:05:10.125196,1328,1590426310,68888902,,"['joint_S', 'joint_L', 'joint_E', 'joint_U', 'joint_R', 'joint_B', 'joint_T']","(-1, 2, 1, -3, -1, -65620, 0)","(-0.0008, -0.0017, 0.0008, -0.0026, 0.0008, -64.802, 0.0)","(11.0, 0.0, 0.0, -19.0, 0.0, -28990.0, -8.0)","(0.16, -0.36, 0.1, 0.297, -0.0324, -0.0756, -0.0216)"
2020/05/26/02:05:10.180351,1329,1590426310,125214099,,"['joint_S', 'joint_L', 'joint_E', 'joint_U', 'joint_R', 'joint_B', 'joint_T']","(-1, 2, 1, -3, -1, -67187, 0)","(-0.0008, -0.0017, 0.0008, -0.0026, 0.0008, -66.3495, 0.0)","(11.0, 0.0, 0.0, -19.0, 0.0, -28990.0, -8.0)","(0.16, -0.36, 0.1, 0.297, -0.0324, -0.0756, -0.0216)"
2020/05/26/02:05:10.235780,1330,1590426310,180497884,,"['joint_S', 'joint_L', 'joint_E', 'joint_U', 'joint_R', 'joint_B', 'joint_T']","(-1, 2, 1, -3, -1, -68813, 0)","(-0.0008, -0.0017, 0.0008, -0.0026, 0.0008, -67.9552, 0.0)","(11.0, 0.0, 0.0, -19.0, 0.0, -28990.0, -8.0)","(0.16, -0.36, 0.1, 0.297, -0.0324, -0.0756, -0.0216)"
2020/05/26/02:05:10.291816,1331,1590426310,235848903,,"['joint_S', 'joint_L', 'joint_E', 'joint_U', 'joint_R', 'joint_B', 'joint_T']","(-1, 2, 1, -3, -1, -70439, 0)","(-0.0008, -0.0017, 0.0008, -0.0026, 0.0008, -69.5609, 0.0)","(11.0, 0.0, 0.0, -19.0, 0.0, -28990.0, -8.0)","(0.16, -0.36, 0.1, 0.297, -0.0324, -0.0756, -0.0216)"
2020/05/26/02:05:10.346069,1332,1590426310,291840076,,"['joint_S', 'joint_L', 'joint_E', 'joint_U', 'joint_R', 'joint_B', 'joint_T']","(-1, 2, 1, -3, -1, -72064, 0)","(-0.0008, -0.0017, 0.0008, -0.0026, 0.0008, -71.1657, 0.0)","(11.0, 0.0, 0.0, -19.0, 0.0, -28990.0, -8.0)","(0.16, -0.36, 0.1, 0.297, -0.0324, -0.0756, -0.0216)"
2020/05/26/02:05:10.400837,1333,1590426310,346175909,,"['joint_S', 'joint_L', 'joint_E', 'joint_U', 'joint_R', 'joint_B', 'joint_T']","(-1, 2, 1, -3, -1, -73642, 0)","(-0.0008, -0.0017, 0.0008, -0.0026, 0.0008, -72.724, 0.0)","(3.0, 0.0, 0.0, -27.0, -11.0, -29059.0, -6.0)","(0.16, -0.36, 0.1, 0.297, -0.0324, -0.0756, -0.0216)"
2020/05/26/02:05:10.457989,1334,1590426310,400788068,,"['joint_S', 'joint_L', 'joint_E', 'joint_U', 'joint_R', 'joint_B', 'joint_T']","(-1, 2, 1, -3, -1, -75355, 0)","(-0.0008, -0.0017, 0.0008, -0.0026, 0.0008, -74.4157, 0.0)","(3.0, 0.0, 6.0, -27.0, -11.0, -29059.0, -6.0)","(0.16, -0.36, 0.1, 0.297, -0.0324, -0.0756, -0.0216)"
2020/05/26/02:05:10.512488,1335,1590426310,458112955,,"['joint_S', 'joint_L', 'joint_E', 'joint_U', 'joint_R', 'joint_B', 'joint_T']","(-1, 2, 2, -3, -1, -77036, 0)","(-0.0008, -0.0017, 0.0017, -0.0026, 0.0008, -76.0757, 0.0)","(3.0, 0.0, 6.0, -27.0, -11.0, -29059.0, -6.0)","(0.16, -0.36, 0.1, 0.297, -0.0324, -0.0756, -0.0216)"
2020/05/26/02:05:10.569521,1336,1590426310,512645959,,"['joint_S', 'joint_L', 'joint_E', 'joint_U', 'joint_R', 'joint_B', 'joint_T']","(-1, 2, 2, -3, -1, -78741, -1)","(-0.0008, -0.0017, 0.0017, -0.0026, 0.0008, -77.7595, 0.0014)","(3.0, 0.0, 6.0, -27.0, -11.0, -29059.0, -6.0)","(0.12, -0.4, 0.1, 0.216, 0.0, -0.1116, -0.0288)"
2020/05/26/02:05:10.624728,1337,1590426310,569468975,,"['joint_S', 'joint_L', 'joint_E', 'joint_U', 'joint_R', 'joint_B', 'joint_T']","(-1, 2, 2, -3, -1, -80341, -1)","(-0.0008, -0.0017, 0.0017, -0.0026, 0.0008, -79.3395, 0.0014)","(3.0, 0.0, 6.0, -27.0, -11.0, -29059.0, -6.0)","(0.12, -0.4, 0.12, 0.216, 0.0, -0.1116, -0.0288)"
2020/05/26/02:05:10.680758,1338,1590426310,624676942,,"['joint_S', 'joint_L', 'joint_E', 'joint_U', 'joint_R', 'joint_B', 'joint_T']","(-1, 1, 2, -4, -1, -81765, -1)","(-0.0008, -0.0008, 0.0017, -0.0034, 0.0008, -80.7458, 0.0014)","(3.0, 0.0, 6.0, -27.0, -11.0, -29059.0, -6.0)","(0.12, -0.4, 0.12, 0.216, 0.0, -0.1116, -0.0288)"
2020/05/26/02:05:10.737151,1339,1590426310,680660963,,"['joint_S', 'joint_L', 'joint_E', 'joint_U', 'joint_R', 'joint_B', 'joint_T']","(-1, 1, 2, -4, -1, -83044, -1)","(-0.0008, -0.0008, 0.0017, -0.0034, 0.0008, -82.0088, 0.0014)","(3.0, 0.0, 6.0, -27.0, -11.0, -29059.0, -6.0)","(0.12, -0.4, 0.12, 0.216, 0.0, -0.1116, -0.0288)"
2020/05/26/02:05:10.793558,1340,1590426310,737206935,,"['joint_S', 'joint_L', 'joint_E', 'joint_U', 'joint_R', 'joint_B', 'joint_T']","(-1, 1, 2, -4, -1, -84373, -1)","(-0.0008, -0.0008, 0.0017, -0.0034, 0.0008, -83.3213, 0.0014)","(3.0, 0.0, 6.0, -27.0, -11.0, -29059.0, -6.0)","(0.12, -0.4, 0.12, 0.216, 0.0, -0.1116, -0.0288)"
2020/05/26/02:05:10.850340,1341,1590426310,793795108,,"['joint_S', 'joint_L', 'joint_E', 'joint_U', 'joint_R', 'joint_B', 'joint_T']","(-1, 1, 2, -4, -1, -85634, -1)","(-0.0008, -0.0008, 0.0017, -0.0034, 0.0008, -84.5665, 0.0014)","(3.0, 0.0, 6.0, -27.0, -11.0, -29059.0, -6.0)","(0.12, -0.4, 0.12, 0.216, 0.0, -0.1116, -0.0288)"
2020/05/26/02:05:10.905363,1342,1590426310,850145101,,"['joint_S', 'joint_L', 'joint_E', 'joint_U', 'joint_R', 'joint_B', 'joint_T']","(0, 1, 2, -4, -1, -86841, -1)","(0.0, -0.0008, 0.0017, -0.0034, 0.0008, -85.7585, 0.0014)","(3.0, 0.0, 6.0, -27.0, -11.0, -29059.0, -6.0)","(0.12, -0.4, 0.12, 0.216, 0.0, -0.1116, -0.0288)"
2020/05/26/02:05:10.960151,1343,1590426310,905350923,,"['joint_S', 'joint_L', 'joint_E', 'joint_U', 'joint_R', 'joint_B', 'joint_T']","(0, 1, 2, -4, -1, -87922, -1)","(0.0, -0.0008, 0.0017, -0.0034, 0.0008, -86.826, 0.0014)","(3.0, 0.0, 6.0, -27.0, -11.0, -29059.0, -6.0)","(0.12, -0.4, 0.12, 0.216, 0.0, -0.1116, -0.0288)"
2020/05/26/02:05:11.014537,1344,1590426310,959892034,,"['joint_S', 'joint_L', 'joint_E', 'joint_U', 'joint_R', 'joint_B', 'joint_T']","(0, 1, 3, -4, -1, -88927, -1)","(0.0, -0.0008, 0.0026, -0.0034, 0.0008, -87.8185, 0.0014)","(3.0, 0.0, 6.0, -27.0, -11.0, -29059.0, -6.0)","(0.12, -0.4, 0.12, 0.216, 0.0, -0.1116, -0.0288)"
2020/05/26/02:05:11.069283,1345,1590426311,14456033,,"['joint_S', 'joint_L', 'joint_E', 'joint_U', 'joint_R', 'joint_B', 'joint_T']","(0, 1, 3, -4, -1, -89754, -1)","(0.0, -0.0008, 0.0026, -0.0034, 0.0008, -88.6352, 0.0014)","(3.0, 0.0, 6.0, -27.0, -11.0, -29059.0, -6.0)","(0.12, -0.4, 0.12, 0.216, 0.0, -0.1116, -0.0288)"
2020/05/26/02:05:11.123507,1346,1590426311,69097995,,"['joint_S', 'joint_L', 'joint_E', 'joint_U', 'joint_R', 'joint_B', 'joint_T']","(0, 1, 3, -4, -1, -90433, -1)","(0.0, -0.0008, 0.0026, -0.0034, 0.0008, -89.3057, 0.0014)","(3.0, 0.0, 6.0, -27.0, -11.0, -29059.0, -6.0)","(0.12, -0.4, 0.12, 0.216, 0.0, -0.1116, -0.0288)"
2020/05/26/02:05:11.181366,1347,1590426311,123565912,,"['joint_S', 'joint_L', 'joint_E', 'joint_U', 'joint_R', 'joint_B', 'joint_T']","(0, 1, 3, -4, -1, -90886, -1)","(0.0, -0.0008, 0.0026, -0.0034, 0.0008, -89.7531, 0.0014)","(3.0, 0.0, 6.0, -27.0, -11.0, -29059.0, -6.0)","(0.12, -0.4, 0.12, 0.216, 0.0, -0.1116, -0.0288)"
2020/05/26/02:05:11.236940,1348,1590426311,181385993,,"['joint_S', 'joint_L', 'joint_E', 'joint_U', 'joint_R', 'joint_B', 'joint_T']","(0, 1, 3, -4, -1, -91115, -1)","(0.0, -0.0008, 0.0026, -0.0034, 0.0008, -89.9792, 0.0014)","(7.0, 0.0, 6.0, -27.0, -11.0, -29059.0, -6.0)","(0.12, -0.4, 0.12, 0.216, 0.0, -0.1116, -0.0288)"
2020/05/26/02:05:11.292553,1349,1590426311,236680030,,"['joint_S', 'joint_L', 'joint_E', 'joint_U', 'joint_R', 'joint_B', 'joint_T']","(0, 1, 3, -4, -1, -91132, -1)","(0.0, -0.0008, 0.0026, -0.0034, 0.0008, -89.996, 0.0014)","(7.0, 1.0, 1.0, 55.0, 0.0, -10447.0, -19.0)","(0.12, -0.4, 0.12, 0.216, 0.0, -0.1116, -0.0288)"
2020/05/26/02:05:11.350160,1350,1590426311,292463064,,"['joint_S', 'joint_L', 'joint_E', 'joint_U', 'joint_R', 'joint_B', 'joint_T']","(0, 1, 3, -4, -1, -91132, -1)","(0.0, -0.0008, 0.0026, -0.0034, 0.0008, -89.996, 0.0014)","(7.0, 1.0, 1.0, 55.0, 0.0, -10447.0, -19.0)","(0.12, -0.4, 0.12, 0.216, 0.0, -0.1116, -0.0288)"
2020/05/26/02:05:11.406417,1351,1590426311,349948883,,"['joint_S', 'joint_L', 'joint_E', 'joint_U', 'joint_R', 'joint_B', 'joint_T']","(0, 1, 3, -4, -1, -91132, -1)","(0.0, -0.0008, 0.0026, -0.0034, 0.0008, -89.996, 0.0014)","(7.0, 1.0, 1.0, 55.0, 0.0, -10447.0, -19.0)","(0.14, -0.4, 0.12, 0.216, 0.0, -0.1116, -0.0288)"
2020/05/26/02:05:11.463595,1352,1590426311,406538963,,"['joint_S', 'joint_L', 'joint_E', 'joint_U', 'joint_R', 'joint_B', 'joint_T']","(0, 1, 3, -4, -1, -91132, -1)","(0.0, -0.0008, 0.0026, -0.0034, 0.0008, -89.996, 0.0014)","(7.0, 1.0, 1.0, 55.0, 0.0, -10447.0, -19.0)","(0.14, -0.4, 0.12, 0.2538, 0.0, -0.072, -0.0432)"
2020/05/26/02:05:11.522588,1353,1590426311,463689088,,"['joint_S', 'joint_L', 'joint_E', 'joint_U', 'joint_R', 'joint_B', 'joint_T']","(0, 1, 3, -4, -1, -91132, -1)","(0.0, -0.0008, 0.0026, -0.0034, 0.0008, -89.996, 0.0014)","(7.0, 1.0, 1.0, 55.0, 0.0, -10447.0, -19.0)","(0.14, -0.4, 0.12, 0.2538, 0.0, -0.072, -0.0432)"
2020/05/26/02:05:11.579269,1354,1590426311,522588014,,"['joint_S', 'joint_L', 'joint_E', 'joint_U', 'joint_R', 'joint_B', 'joint_T']","(0, 1, 3, -4, -1, -91132, -1)","(0.0, -0.0008, 0.0026, -0.0034, 0.0008, -89.996, 0.0014)","(7.0, 1.0, 1.0, 55.0, 0.0, -10447.0, -19.0)","(0.14, -0.4, 0.12, 0.2538, 0.0, -0.072, -0.0432)"
2020/05/26/02:05:11.635209,1355,1590426311,579335927,,"['joint_S', 'joint_L', 'joint_E', 'joint_U', 'joint_R', 'joint_B', 'joint_T']","(0, 1, 3, -4, -1, -91132, -1)","(0.0, -0.0008, 0.0026, -0.0034, 0.0008, -89.996, 0.0014)","(7.0, 1.0, 1.0, 55.0, 0.0, -10447.0, -19.0)","(0.14, -0.4, 0.12, 0.2538, 0.0, -0.072, -0.0432)"
2020/05/26/02:05:11.691089,1356,1590426311,635301113,,"['joint_S', 'joint_L', 'joint_E', 'joint_U', 'joint_R', 'joint_B', 'joint_T']","(0, 1, 3, -4, -1, -91132, -1)","(0.0, -0.0008, 0.0026, -0.0034, 0.0008, -89.996, 0.0014)","(7.0, 1.0, 1.0, 55.0, 0.0, -10447.0, -19.0)","(0.14, -0.4, 0.12, 0.2538, 0.0, -0.072, -0.0432)"
2020/05/26/02:05:11.746550,1357,1590426311,691255092,,"['joint_S', 'joint_L', 'joint_E', 'joint_U', 'joint_R', 'joint_B', 'joint_T']","(0, 1, 3, -4, -1, -91132, -1)","(0.0, -0.0008, 0.0026, -0.0034, 0.0008, -89.996, 0.0014)","(7.0, 1.0, 1.0, 55.0, 0.0, -10447.0, -19.0)","(0.14, -0.4, 0.12, 0.2538, 0.0, -0.072, -0.0432)"
2020/05/26/02:05:11.802168,1358,1590426311,746665000,,"['joint_S', 'joint_L', 'joint_E', 'joint_U', 'joint_R', 'joint_B', 'joint_T']","(0, 1, 3, -4, -1, -91132, -1)","(0.0, -0.0008, 0.0026, -0.0034, 0.0008, -89.996, 0.0014)","(7.0, 1.0, 1.0, 55.0, 0.0, -10447.0, -19.0)","(0.14, -0.4, 0.12, 0.2538, 0.0, -0.072, -0.0432)"
2020/05/26/02:05:11.861251,1359,1590426311,802256107,,"['joint_S', 'joint_L', 'joint_E', 'joint_U', 'joint_R', 'joint_B', 'joint_T']","(0, 1, 3, -4, -1, -91132, -1)","(0.0, -0.0008, 0.0026, -0.0034, 0.0008, -89.996, 0.0014)","(7.0, 1.0, 1.0, 55.0, 0.0, -10447.0, -19.0)","(0.14, -0.4, 0.12, 0.2538, 0.0, -0.072, -0.0432)"
2020/05/26/02:05:11.918329,1360,1590426311,861164093,,"['joint_S', 'joint_L', 'joint_E', 'joint_U', 'joint_R', 'joint_B', 'joint_T']","(0, 1, 3, -4, -1, -91132, -1)","(0.0, -0.0008, 0.0026, -0.0034, 0.0008, -89.996, 0.0014)","(7.0, 1.0, 1.0, 55.0, 0.0, -10447.0, -19.0)","(0.14, -0.4, 0.12, 0.2538, 0.0, -0.072, -0.0432)"
2020/05/26/02:05:11.975256,1361,1590426311,918380022,,"['joint_S', 'joint_L', 'joint_E', 'joint_U', 'joint_R', 'joint_B', 'joint_T']","(0, 1, 3, -4, -1, -91132, -1)","(0.0, -0.0008, 0.0026, -0.0034, 0.0008, -89.996, 0.0014)","(7.0, 1.0, 1.0, 55.0, 0.0, -10447.0, -19.0)","(0.14, -0.4, 0.12, 0.2538, 0.0, -0.072, -0.0432)"
2020/05/26/02:05:12.032877,1362,1590426311,975264072,,"['joint_S', 'joint_L', 'joint_E', 'joint_U', 'joint_R', 'joint_B', 'joint_T']","(0, 1, 3, -4, -1, -91132, -1)","(0.0, -0.0008, 0.0026, -0.0034, 0.0008, -89.996, 0.0014)","(7.0, 1.0, 1.0, 55.0, 0.0, -10447.0, -19.0)","(0.14, -0.4, 0.12, 0.2538, 0.0, -0.072, -0.0432)"
2020/05/26/02:05:12.088624,1363,1590426312,32685041,,"['joint_S', 'joint_L', 'joint_E', 'joint_U', 'joint_R', 'joint_B', 'joint_T']","(0, 1, 3, -4, -1, -91132, -1)","(0.0, -0.0008, 0.0026, -0.0034, 0.0008, -89.996, 0.0014)","(7.0, 1.0, 1.0, 55.0, 0.0, -10447.0, -19.0)","(0.14, -0.4, 0.12, 0.2538, 0.0, -0.072, -0.0432)"
2020/05/26/02:05:12.145973,1364,1590426312,88777065,,"['joint_S', 'joint_L', 'joint_E', 'joint_U', 'joint_R', 'joint_B', 'joint_T']","(0, 1, 3, -4, -1, -91132, -1)","(0.0, -0.0008, 0.0026, -0.0034, 0.0008, -89.996, 0.0014)","(-5.0, 3.0, 1.0, -24.0, 0.0, 32.0, -3.0)","(0.14, -0.4, 0.12, 0.2538, 0.0, -0.072, -0.0432)"
2020/05/26/02:05:12.203085,1365,1590426312,146089076,,"['joint_S', 'joint_L', 'joint_E', 'joint_U', 'joint_R', 'joint_B', 'joint_T']","(0, 1, 3, -4, -1, -91132, -1)","(0.0, -0.0008, 0.0026, -0.0034, 0.0008, -89.996, 0.0014)","(-5.0, 3.0, -4.0, -24.0, 0.0, 32.0, -3.0)","(0.14, -0.4, 0.12, 0.2538, 0.0, -0.072, -0.0432)"
2020/05/26/02:05:12.261324,1366,1590426312,203044891,,"['joint_S', 'joint_L', 'joint_E', 'joint_U', 'joint_R', 'joint_B', 'joint_T']","(0, 1, 3, -4, -1, -91132, -1)","(0.0, -0.0008, 0.0026, -0.0034, 0.0008, -89.996, 0.0014)","(-5.0, 3.0, -4.0, -24.0, 0.0, 32.0, -3.0)","(0.14, -0.4, 0.12, 0.2538, 0.0, -0.072, -0.0432)"
2020/05/26/02:05:12.317819,1367,1590426312,261398077,,"['joint_S', 'joint_L', 'joint_E', 'joint_U', 'joint_R', 'joint_B', 'joint_T']","(0, 1, 3, -4, -1, -91132, -1)","(0.0, -0.0008, 0.0026, -0.0034, 0.0008, -89.996, 0.0014)","(-5.0, 3.0, -4.0, -24.0, 0.0, 32.0, -3.0)","(0.11, -0.27, 0.12, 0.1404, 0.0, -0.0648, -0.0504)"
2020/05/26/02:05:12.373659,1368,1590426312,317553043,,"['joint_S', 'joint_L', 'joint_E', 'joint_U', 'joint_R', 'joint_B', 'joint_T']","(0, 1, 3, -4, -1, -91132, -1)","(0.0, -0.0008, 0.0026, -0.0034, 0.0008, -89.996, 0.0014)","(-5.0, 3.0, -4.0, -24.0, 0.0, 32.0, -3.0)","(0.11, -0.27, 0.07, 0.1404, 0.0, -0.0648, -0.0504)"
2020/05/26/02:05:12.431549,1369,1590426312,373725891,,"['joint_S', 'joint_L', 'joint_E', 'joint_U', 'joint_R', 'joint_B', 'joint_T']","(0, 1, 3, -4, -1, -91132, -1)","(0.0, -0.0008, 0.0026, -0.0034, 0.0008, -89.996, 0.0014)","(-5.0, 3.0, -4.0, -24.0, 0.0, 32.0, -3.0)","(0.11, -0.27, 0.07, 0.1404, 0.0, -0.0648, -0.0504)"
2020/05/26/02:05:12.488180,1370,1590426312,431385993,,"['joint_S', 'joint_L', 'joint_E', 'joint_U', 'joint_R', 'joint_B', 'joint_T']","(0, 1, 3, -4, -1, -91132, -1)","(0.0, -0.0008, 0.0026, -0.0034, 0.0008, -89.996, 0.0014)","(-5.0, 3.0, -4.0, -24.0, 0.0, 32.0, -3.0)","(0.11, -0.27, 0.07, 0.1404, 0.0, -0.0648, -0.0504)"
2020/05/26/02:05:12.545120,1371,1590426312,488141059,,"['joint_S', 'joint_L', 'joint_E', 'joint_U', 'joint_R', 'joint_B', 'joint_T']","(0, 1, 3, -4, -1, -91132, -1)","(0.0, -0.0008, 0.0026, -0.0034, 0.0008, -89.996, 0.0014)","(-5.0, 3.0, -4.0, -24.0, 0.0, 32.0, -3.0)","(0.11, -0.27, 0.07, 0.1404, 0.0, -0.0648, -0.0504)"
2020/05/26/02:05:12.602036,1372,1590426312,545248031,,"['joint_S', 'joint_L', 'joint_E', 'joint_U', 'joint_R', 'joint_B', 'joint_T']","(0, 1, 3, -4, -1, -91132, -1)","(0.0, -0.0008, 0.0026, -0.0034, 0.0008, -89.996, 0.0014)","(-5.0, 3.0, -4.0, -24.0, 0.0, 32.0, -3.0)","(0.11, -0.27, 0.07, 0.1404, 0.0, -0.0648, -0.0504)"
2020/05/26/02:05:12.657390,1373,1590426312,601881980,,"['joint_S', 'joint_L', 'joint_E', 'joint_U', 'joint_R', 'joint_B', 'joint_T']","(-4, 5, -1, 0, -2, -91132, 3)","(-0.0034, -0.0043, -0.0008, 0.0, 0.0017, -89.996, -0.0044)","(-5.0, 3.0, -4.0, -24.0, 0.0, 32.0, -3.0)","(0.11, -0.27, 0.07, 0.1404, 0.0, -0.0648, -0.0504)"
2020/05/26/02:05:12.714377,1374,1590426312,657397031,,"['joint_S', 'joint_L', 'joint_E', 'joint_U', 'joint_R', 'joint_B', 'joint_T']","(-100, 109, -93, 72, -33, -91108, 113)","(-0.087, -0.0948, -0.0809, 0.0626, 0.0287, -89.9723, -0.1683)","(-5.0, 3.0, -4.0, -24.0, 0.0, 32.0, -3.0)","(0.11, -0.27, 0.07, 0.1404, 0.0, -0.0648, -0.0504)"
2020/05/26/02:05:12.772067,1375,1590426312,714535951,,"['joint_S', 'joint_L', 'joint_E', 'joint_U', 'joint_R', 'joint_B', 'joint_T']","(-303, 329, -288, 225, -97, -91057, 342)","(-0.2636, -0.2862, -0.2506, 0.1957, 0.0844, -89.9219, -0.5094)","(-5.0, 3.0, -4.0, -24.0, 0.0, 32.0, -3.0)","(0.11, -0.27, 0.07, 0.1404, 0.0, -0.0648, -0.0504)"
2020/05/26/02:05:12.828686,1376,1590426312,772291898,,"['joint_S', 'joint_L', 'joint_E', 'joint_U', 'joint_R', 'joint_B', 'joint_T']","(-637, 690, -609, 476, -203, -90973, 720)","(-0.5543, -0.6004, -0.5299, 0.4142, 0.1766, -89.839, -1.0725)","(-5.0, 3.0, -4.0, -24.0, 0.0, 32.0, -3.0)","(0.11, -0.27, 0.07, 0.1404, 0.0, -0.0648, -0.0504)"
2020/05/26/02:05:12.885611,1377,1590426312,828442096,,"['joint_S', 'joint_L', 'joint_E', 'joint_U', 'joint_R', 'joint_B', 'joint_T']","(-1035, 1121, -992, 775, -330, -90873, 1171)","(-0.9006, -0.9754, -0.8632, 0.6744, 0.2871, -89.7402, -1.7444)","(-5.0, 3.0, -4.0, -24.0, 0.0, 32.0, -3.0)","(0.11, -0.27, 0.07, 0.1404, 0.0, -0.0648, -0.0504)"
2020/05/26/02:05:12.941066,1378,1590426312,885561943,,"['joint_S', 'joint_L', 'joint_E', 'joint_U', 'joint_R', 'joint_B', 'joint_T']","(-1500, 1625, -1440, 1125, -478, -90755, 1698)","(-1.3053, -1.414, -1.253, 0.9789, 0.4159, -89.6237, -2.5294)","(-5.0, 3.0, -4.0, -24.0, 0.0, 32.0, -3.0)","(0.11, -0.27, 0.07, 0.1404, 0.0, -0.0648, -0.0504)"
2020/05/26/02:05:12.996881,1379,1590426312,940953969,,"['joint_S', 'joint_L', 'joint_E', 'joint_U', 'joint_R', 'joint_B', 'joint_T']","(-2071, 2242, -1989, 1554, -659, -90611, 2344)","(-1.8021, -1.9509, -1.7308, 1.3522, 0.5734, -89.4815, -3.4917)","(-6316.0, 7049.0, -4.0, 5046.0, 0.0, 32.0, -3.0)","(0.11, -0.27, 0.07, 0.1404, 0.0, -0.0648, -0.0504)"
2020/05/26/02:05:13.055845,1380,1590426312,996660947,,"['joint_S', 'joint_L', 'joint_E', 'joint_U', 'joint_R', 'joint_B', 'joint_T']","(-2804, 3035, -2693, 2105, -892, -90427, 3175)","(-2.44, -2.641, -2.3434, 1.8317, 0.7762, -89.2998, -4.7297)","(-6316.0, 7049.0, -7249.0, 5046.0, -2195.0, 2016.0, 8366.0)","(0.11, -0.27, 0.07, 0.1404, 0.0, -0.0648, -0.0504)"
2020/05/26/02:05:13.113240,1381,1590426313,55979013,,"['joint_S', 'joint_L', 'joint_E', 'joint_U', 'joint_R', 'joint_B', 'joint_T']","(-3670, 3972, -3526, 2756, -1168, -90209, 4155)","(-3.1936, -3.4564, -3.0683, 2.3982, 1.0163, -89.0845, -6.1895)","(-6316.0, 7049.0, -7249.0, 5046.0, -2195.0, 2016.0, 8366.0)","(0.11, -0.27, 0.07, 0.1404, 0.0, -0.0648, -0.0504)"
2020/05/26/02:05:13.169873,1382,1590426313,113357067,,"['joint_S', 'joint_L', 'joint_E', 'joint_U', 'joint_R', 'joint_B', 'joint_T']","(-4636, 5017, -4455, 3483, -1475, -89965, 5249)","(-4.0342, -4.3658, -3.8767, 3.0309, 1.2835, -88.8435, -7.8192)","(-6316.0, 7049.0, -7249.0, 5046.0, -2195.0, 2016.0, 8366.0)","(-0.23, -0.08, 0.07, 0.2916, 0.0972, -0.0648, -0.0504)"
2020/05/26/02:05:13.226546,1383,1590426313,170000076,,"['joint_S', 'joint_L', 'joint_E', 'joint_U', 'joint_R', 'joint_B', 'joint_T']","(-5636, 6099, -5416, 4235, -1793, -89713, 6381)","(-4.9044, -5.3073, -4.713, 3.6853, 1.5602, -88.5947, -9.5055)","(-6316.0, 7049.0, -7249.0, 5046.0, -2195.0, 2016.0, 8366.0)","(-0.23, -0.08, -0.18, 0.2916, 0.0972, 0.0792, 0.0972)"
2020/05/26/02:05:13.283012,1384,1590426313,226522922,,"['joint_S', 'joint_L', 'joint_E', 'joint_U', 'joint_R', 'joint_B', 'joint_T']","(-6582, 7123, -6327, 4947, -2094, -89475, 7453)","(-5.7276, -6.1984, -5.5057, 4.3049, 1.8222, -88.3597, -11.1025)","(-6316.0, 7049.0, -7249.0, 5046.0, -2195.0, 2016.0, 8366.0)","(-0.23, -0.08, -0.18, 0.2916, 0.0972, 0.0792, 0.0972)"
2020/05/26/02:05:13.339984,1385,1590426313,283114910,,"['joint_S', 'joint_L', 'joint_E', 'joint_U', 'joint_R', 'joint_B', 'joint_T']","(-7565, 8186, -7271, 5685, -2406, -89227, 8566)","(-6.583, -7.1234, -6.3272, 4.9471, 2.0937, -88.1147, -12.7605)","(-6316.0, 7049.0, -7249.0, 5046.0, -2195.0, 2016.0, 8366.0)","(-0.23, -0.08, -0.18, 0.2916, 0.0972, 0.0792, 0.0972)"
2020/05/26/02:05:13.397311,1386,1590426313,339812994,,"['joint_S', 'joint_L', 'joint_E', 'joint_U', 'joint_R', 'joint_B', 'joint_T']","(-8512, 9211, -8182, 6397, -2707, -88988, 9638)","(-7.4071, -8.0154, -7.12, 5.5666, 2.3556, -87.8787, -14.3574)","(-6316.0, 7049.0, -7249.0, 5046.0, -2195.0, 2016.0, 8366.0)","(-0.23, -0.08, -0.18, 0.2916, 0.0972, 0.0792, 0.0972)"
2020/05/26/02:05:13.456594,1387,1590426313,397392988,,"['joint_S', 'joint_L', 'joint_E', 'joint_U', 'joint_R', 'joint_B', 'joint_T']","(-9502, 10282, -9135, 7142, -3022, -88739, 10760)","(-8.2686, -8.9474, -7.9493, 6.2149, 2.6297, -87.6328, -16.0288)","(-6316.0, 7049.0, -7249.0, 5046.0, -2195.0, 2016.0, 8366.0)","(-0.23, -0.08, -0.18, 0.2916, 0.0972, 0.0792, 0.0972)"
2020/05/26/02:05:13.514796,1388,1590426313,456804037,,"['joint_S', 'joint_L', 'joint_E', 'joint_U', 'joint_R', 'joint_B', 'joint_T']","(-10492, 11354, -10087, 7887, -3337, -88489, 11881)","(-9.1301, -9.8802, -8.7777, 6.8633, 2.9038, -87.3859, -17.6987)","(-6316.0, 7049.0, -7249.0, 5046.0, -2195.0, 2016.0, 8366.0)","(-0.23, -0.08, -0.18, 0.2916, 0.0972, 0.0792, 0.0972)"
2020/05/26/02:05:13.571350,1389,1590426313,514472007,,"['joint_S', 'joint_L', 'joint_E', 'joint_U', 'joint_R', 'joint_B', 'joint_T']","(-11439, 12379, -10998, 8599, -3638, -88250, 12954)","(-9.9542, -10.7722, -9.5705, 7.4828, 3.1658, -87.1499, -19.2972)","(-6316.0, 7049.0, -7249.0, 5046.0, -2195.0, 2016.0, 8366.0)","(-0.23, -0.08, -0.18, 0.2916, 0.0972, 0.0792, 0.0972)"
2020/05/26/02:05:13.627726,1390,1590426313,571366071,,"['joint_S', 'joint_L', 'joint_E', 'joint_U', 'joint_R', 'joint_B', 'joint_T']","(-12456, 13478, -11975, 9363, -3962, -87994, 14105)","(-10.8392, -11.7286, -10.4206, 8.1477, 3.4477, -86.8971, -21.0118)","(-6316.0, 7049.0, -7249.0, 5046.0, -2195.0, 2016.0, 8366.0)","(-0.23, -0.08, -0.18, 0.2916, 0.0972, 0.0792, 0.0972)"
2020/05/26/02:05:13.683058,1391,1590426313,627827882,,"['joint_S', 'joint_L', 'joint_E', 'joint_U', 'joint_R', 'joint_B', 'joint_T']","(-13402, 14502, -12885, 10075, -4263, -87756, 15177)","(-11.6624, -12.6197, -11.2125, 8.7673, 3.7096, -86.6621, -22.6087)","(-6316.0, 7049.0, -7249.0, 5046.0, -2195.0, 2016.0, 8366.0)","(-0.23, -0.08, -0.18, 0.2916, 0.0972, 0.0792, 0.0972)"
2020/05/26/02:05:13.741111,1392,1590426313,682971954,,"['joint_S', 'joint_L', 'joint_E', 'joint_U', 'joint_R', 'joint_B', 'joint_T']","(-14355, 15533, -13801, 10792, -4566, -87516, 16256)","(-12.4917, -13.5168, -12.0096, 9.3912, 3.9733, -86.4251, -24.2161)","(-6316.0, 7049.0, -7249.0, 5046.0, -2195.0, 2016.0, 8366.0)","(-0.23, -0.08, -0.18, 0.2916, 0.0972, 0.0792, 0.0972)"
2020/05/26/02:05:13.797636,1393,1590426313,740946054,,"['joint_S', 'joint_L', 'joint_E', 'joint_U', 'joint_R', 'joint_B', 'joint_T']","(-15348, 16608, -14756, 11538, -4881, -87265, 17380)","(-13.3558, -14.4523, -12.8407, 10.0404, 4.2474, -86.1772, -25.8904)","(-6316.0, 7049.0, -7249.0, 5046.0, -2195.0, 2016.0, 8366.0)","(-0.23, -0.08, -0.18, 0.2916, 0.0972, 0.0792, 0.0972)"
2020/05/26/02:05:13.854600,1394,1590426313,797760963,,"['joint_S', 'joint_L', 'joint_E', 'joint_U', 'joint_R', 'joint_B', 'joint_T']","(-16318, 17658, -15689, 12268, -5190, -87021, 18479)","(-14.1999, -15.366, -13.6526, 10.6756, 4.5163, -85.9362, -27.5276)","(-16949.0, 7049.0, -7249.0, 5046.0, -2195.0, 2016.0, 8366.0)","(-0.23, -0.08, -0.18, 0.2916, 0.0972, 0.0792, 0.0972)"
2020/05/26/02:05:13.911166,1395,1590426313,854702949,,"['joint_S', 'joint_L', 'joint_E', 'joint_U', 'joint_R', 'joint_B', 'joint_T']","(-17246, 18662, -16582, 12966, -5485, -86787, 19530)","(-15.0075, -16.2397, -14.4297, 11.283, 4.773, -85.7052, -29.0932)","(-16949.0, 18358.0, -16392.0, 12759.0, -5400.0, 4294.0, 19368.0)","(-0.23, -0.08, -0.18, 0.2916, 0.0972, 0.0792, 0.0972)"
2020/05/26/02:05:13.967574,1396,1590426313,911417007,,"['joint_S', 'joint_L', 'joint_E', 'joint_U', 'joint_R', 'joint_B', 'joint_T']","(-18069, 19552, -17373, 13584, -5747, -86580, 20461)","(-15.7237, -17.0142, -15.118, 11.8208, 5.001, -85.5007, -30.4801)","(-16949.0, 18358.0, -16392.0, 12759.0, -5400.0, 4294.0, 19368.0)","(-0.23, -0.08, -0.18, 0.2916, 0.0972, 0.0792, 0.0972)"
2020/05/26/02:05:14.023945,1397,1590426313,967533111,,"['joint_S', 'joint_L', 'joint_E', 'joint_U', 'joint_R', 'joint_B', 'joint_T']","(-18797, 20340, -18073, 14132, -5978, -86396, 21286)","(-16.3572, -17.6999, -15.7272, 12.2977, 5.202, -85.319, -31.7091)","(-16949.0, 18358.0, -16392.0, 12759.0, -5400.0, 4294.0, 19368.0)","(-0.19, -0.08, -0.18, 0.2916, 0.0972, 0.0792, 0.0972)"
2020/05/26/02:05:14.082231,1398,1590426314,24113893,,"['joint_S', 'joint_L', 'joint_E', 'joint_U', 'joint_R', 'joint_B', 'joint_T']","(-19336, 20923, -18591, 14537, -6150, -86260, 21896)","(-16.8262, -18.2072, -16.1779, 12.6501, 5.3517, -85.1847, -32.6178)","(-16949.0, 18358.0, -16392.0, 12759.0, -5400.0, 4294.0, 19368.0)","(-0.19, -0.16, -0.13, 0.2916, 0.0972, 0.0756, 0.0972)"
2020/05/26/02:05:14.138999,1399,1590426314,82331895,,"['joint_S', 'joint_L', 'joint_E', 'joint_U', 'joint_R', 'joint_B', 'joint_T']","(-19787, 21410, -19025, 14876, -6293, -86147, 22407)","(-17.2187, -18.631, -16.5556, 12.9451, 5.4761, -85.0731, -33.379)","(-16949.0, 18358.0, -16392.0, 12759.0, -5400.0, 4294.0, 19368.0)","(-0.19, -0.16, -0.13, 0.2916, 0.0972, 0.0756, 0.0972)"
2020/05/26/02:05:14.197111,1400,1590426314,138824939,,"['joint_S', 'joint_L', 'joint_E', 'joint_U', 'joint_R', 'joint_B', 'joint_T']","(-20177, 21833, -19400, 15170, -6417, -86048, 22849)","(-17.5581, -18.9991, -16.8819, 13.2009, 5.5841, -84.9754, -34.0375)","(-16949.0, 18358.0, -16392.0, 12759.0, -5400.0, 4294.0, 19368.0)","(-0.19, -0.16, -0.13, 0.2916, 0.0972, 0.0756, 0.0972)"
2020/05/26/02:05:14.253496,1401,1590426314,196851968,,"['joint_S', 'joint_L', 'joint_E', 'joint_U', 'joint_R', 'joint_B', 'joint_T']","(-20465, 22144, -19677, 15386, -6509, -85976, 23175)","(-17.8087, -19.2698, -17.123, 13.3889, 5.6641, -84.9043, -34.5231)","(-16949.0, 18358.0, -16392.0, 12759.0, -5400.0, 4294.0, 19368.0)","(-0.19, -0.16, -0.13, 0.2916, 0.0972, 0.0756, 0.0972)"
2020/05/26/02:05:14.310649,1402,1590426314,253485918,,"['joint_S', 'joint_L', 'joint_E', 'joint_U', 'joint_R', 'joint_B', 'joint_T']","(-20653, 22348, -19858, 15528, -6569, -85928, 23389)","(-17.9723, -19.4473, -17.2805, 13.5125, 5.7163, -84.8569, -34.8419)","(-16949.0, 18358.0, -16392.0, 12759.0, -5400.0, 4294.0, 19368.0)","(-0.19, -0.16, -0.13, 0.2916, 0.0972, 0.0756, 0.0972)"
2020/05/26/02:05:14.370268,1403,1590426314,310565948,,"['joint_S', 'joint_L', 'joint_E', 'joint_U', 'joint_R', 'joint_B', 'joint_T']","(-20714, 22413, -19916, 15573, -6588, -85913, 23457)","(-18.0254, -19.5038, -17.3309, 13.5516, 5.7329, -84.8421, -34.9432)","(-16949.0, 18358.0, -16392.0, 12759.0, -5400.0, 4294.0, 19368.0)","(-0.19, -0.16, -0.13, 0.2916, 0.0972, 0.0756, 0.0972)"
2020/05/26/02:05:14.430415,1404,1590426314,370341062,,"['joint_S', 'joint_L', 'joint_E', 'joint_U', 'joint_R', 'joint_B', 'joint_T']","(-20714, 22413, -19916, 15573, -6588, -85913, 23457)","(-18.0254, -19.5038, -17.3309, 13.5516, 5.7329, -84.8421, -34.9432)","(-16949.0, 18358.0, -16392.0, 12759.0, -5400.0, 4294.0, 19368.0)","(-0.19, -0.16, -0.13, 0.2916, 0.0972, 0.0756, 0.0972)"
2020/05/26/02:05:14.487874,1405,1590426314,430423021,,"['joint_S', 'joint_L', 'joint_E', 'joint_U', 'joint_R', 'joint_B', 'joint_T']","(-20714, 22413, -19916, 15573, -6588, -85913, 23457)","(-18.0254, -19.5038, -17.3309, 13.5516, 5.7329, -84.8421, -34.9432)","(-16949.0, 18358.0, -16392.0, 12759.0, -5400.0, 4294.0, 19368.0)","(-0.19, -0.16, -0.13, 0.2916, 0.0972, 0.0756, 0.0972)"
2020/05/26/02:05:14.547838,1406,1590426314,487958908,,"['joint_S', 'joint_L', 'joint_E', 'joint_U', 'joint_R', 'joint_B', 'joint_T']","(-20714, 22413, -19916, 15573, -6588, -85913, 23457)","(-18.0254, -19.5038, -17.3309, 13.5516, 5.7329, -84.8421, -34.9432)","(-16949.0, 18358.0, -16392.0, 12759.0, -5400.0, 4294.0, 19368.0)","(-0.19, -0.16, -0.13, 0.2916, 0.0972, 0.0756, 0.0972)"
2020/05/26/02:05:14.606208,1407,1590426314,547851085,,"['joint_S', 'joint_L', 'joint_E', 'joint_U', 'joint_R', 'joint_B', 'joint_T']","(-20714, 22413, -19916, 15573, -6588, -85913, 23457)","(-18.0254, -19.5038, -17.3309, 13.5516, 5.7329, -84.8421, -34.9432)","(-16949.0, 18358.0, -16392.0, 12759.0, -5400.0, 4294.0, 19368.0)","(-0.19, -0.16, -0.13, 0.2916, 0.0972, 0.0756, 0.0972)"
2020/05/26/02:05:14.663398,1408,1590426314,605992078,,"['joint_S', 'joint_L', 'joint_E', 'joint_U', 'joint_R', 'joint_B', 'joint_T']","(-20714, 22413, -19916, 15573, -6588, -85913, 23457)","(-18.0254, -19.5038, -17.3309, 13.5516, 5.7329, -84.8421, -34.9432)","(-16949.0, 18358.0, -16392.0, 12759.0, -5400.0, 4294.0, 19368.0)","(-0.19, -0.16, -0.13, 0.2916, 0.0972, 0.0756, 0.0972)"
2020/05/26/02:05:14.721518,1409,1590426314,663475036,,"['joint_S', 'joint_L', 'joint_E', 'joint_U', 'joint_R', 'joint_B', 'joint_T']","(-20714, 22413, -19916, 15573, -6588, -85913, 23457)","(-18.0254, -19.5038, -17.3309, 13.5516, 5.7329, -84.8421, -34.9432)","(-16949.0, 18358.0, -16392.0, 12759.0, -5400.0, 4294.0, 19368.0)","(-0.19, -0.16, -0.13, 0.2916, 0.0972, 0.0756, 0.0972)"
