time,.header.seq,.header.stamp.secs,.header.stamp.nsecs,.header.frame_id,.name,.pulse,.position,.velocity,.torque
2020/05/26/02:03:43.636801,612,1590426223,582103967,,"['joint_S', 'joint_L', 'joint_E', 'joint_U', 'joint_R', 'joint_B', 'joint_T']","(0, -3, -3, -1, 0, -3, 2)","(0.0, 0.0026, -0.0026, -0.0008, 0.0, -0.0029, -0.0029)","(0.0, 0.0, 0.0, 0.0, 0.0, 0.0, 0.0)","(0.0, -0.37, 0.01, 0.2484, -0.0324, 0.072, 0.0)"
2020/05/26/02:03:43.692307,613,1590426223,636660099,,"['joint_S', 'joint_L', 'joint_E', 'joint_U', 'joint_R', 'joint_B', 'joint_T']","(0, -3, -3, -1, 0, -3, 2)","(0.0, 0.0026, -0.0026, -0.0008, 0.0, -0.0029, -0.0029)","(0.0, 0.0, 0.0, 0.0, 0.0, 0.0, 0.0)","(0.0, -0.37, 0.01, 0.2484, -0.0324, 0.072, 0.0)"
2020/05/26/02:03:43.747838,614,1590426223,692404985,,"['joint_S', 'joint_L', 'joint_E', 'joint_U', 'joint_R', 'joint_B', 'joint_T']","(0, -3, -3, -1, 0, -3, 2)","(0.0, 0.0026, -0.0026, -0.0008, 0.0, -0.0029, -0.0029)","(0.0, 0.0, 0.0, 0.0, 0.0, 0.0, 0.0)","(0.0, -0.37, 0.01, 0.2484, -0.0324, 0.072, 0.0)"
2020/05/26/02:03:43.803605,615,1590426223,747912883,,"['joint_S', 'joint_L', 'joint_E', 'joint_U', 'joint_R', 'joint_B', 'joint_T']","(0, -3, -3, -1, 0, -3, 2)","(0.0, 0.0026, -0.0026, -0.0008, 0.0, -0.0029, -0.0029)","(0.0, 0.0, 0.0, 0.0, 0.0, 0.0, 0.0)","(0.0, -0.37, 0.01, 0.2484, -0.0324, 0.072, 0.0)"
2020/05/26/02:03:43.857282,616,1590426223,803401947,,"['joint_S', 'joint_L', 'joint_E', 'joint_U', 'joint_R', 'joint_B', 'joint_T']","(0, -3, -3, -1, 0, -3, 2)","(0.0, 0.0026, -0.0026, -0.0008, 0.0, -0.0029, -0.0029)","(0.0, 0.0, 0.0, 0.0, 0.0, 0.0, 0.0)","(0.0, -0.37, 0.01, 0.2484, -0.0324, 0.072, 0.0)"
2020/05/26/02:03:43.911900,617,1590426223,857346057,,"['joint_S', 'joint_L', 'joint_E', 'joint_U', 'joint_R', 'joint_B', 'joint_T']","(0, -3, -3, -1, 0, -3, 2)","(0.0, 0.0026, -0.0026, -0.0008, 0.0, -0.0029, -0.0029)","(0.0, 0.0, 0.0, 0.0, 0.0, 0.0, 0.0)","(0.0, -0.37, 0.01, 0.2484, -0.0324, 0.072, 0.0)"
2020/05/26/02:03:43.966715,618,1590426223,911861896,,"['joint_S', 'joint_L', 'joint_E', 'joint_U', 'joint_R', 'joint_B', 'joint_T']","(0, -3, -3, -1, 0, -3, 2)","(0.0, 0.0026, -0.0026, -0.0008, 0.0, -0.0029, -0.0029)","(0.0, 0.0, 0.0, 0.0, 0.0, 0.0, 0.0)","(0.0, -0.37, 0.01, 0.2484, -0.0324, 0.072, 0.0)"
2020/05/26/02:03:44.022654,619,1590426223,966701984,,"['joint_S', 'joint_L', 'joint_E', 'joint_U', 'joint_R', 'joint_B', 'joint_T']","(0, -3, -3, -1, 0, -3, 2)","(0.0, 0.0026, -0.0026, -0.0008, 0.0, -0.0029, -0.0029)","(0.0, 0.0, 0.0, 0.0, 0.0, 0.0, 0.0)","(0.0, -0.37, 0.01, 0.2484, -0.0324, 0.072, 0.0)"
2020/05/26/02:03:44.077868,620,1590426224,22720098,,"['joint_S', 'joint_L', 'joint_E', 'joint_U', 'joint_R', 'joint_B', 'joint_T']","(0, -3, -3, -1, 0, -3, 2)","(0.0, 0.0026, -0.0026, -0.0008, 0.0, -0.0029, -0.0029)","(0.0, 0.0, 0.0, 0.0, 0.0, 0.0, 0.0)","(0.0, -0.37, 0.01, 0.2484, -0.0324, 0.072, 0.0)"
2020/05/26/02:03:44.132394,621,1590426224,77806949,,"['joint_S', 'joint_L', 'joint_E', 'joint_U', 'joint_R', 'joint_B', 'joint_T']","(0, -3, -3, -1, 0, -3, 2)","(0.0, 0.0026, -0.0026, -0.0008, 0.0, -0.0029, -0.0029)","(0.0, 0.0, 0.0, 0.0, 0.0, 0.0, 0.0)","(0.0, -0.37, 0.01, 0.2484, -0.0324, 0.072, 0.0)"
2020/05/26/02:03:44.187729,622,1590426224,132220983,,"['joint_S', 'joint_L', 'joint_E', 'joint_U', 'joint_R', 'joint_B', 'joint_T']","(0, -3, -3, -1, 0, -3, 2)","(0.0, 0.0026, -0.0026, -0.0008, 0.0, -0.0029, -0.0029)","(0.0, 0.0, 0.0, 0.0, 0.0, 0.0, 0.0)","(0.0, -0.37, 0.01, 0.2484, -0.0324, 0.072, 0.0)"
2020/05/26/02:03:44.242862,623,1590426224,187726974,,"['joint_S', 'joint_L', 'joint_E', 'joint_U', 'joint_R', 'joint_B', 'joint_T']","(0, -3, -3, -1, 0, -3, 2)","(0.0, 0.0026, -0.0026, -0.0008, 0.0, -0.0029, -0.0029)","(0.0, 0.0, 0.0, 0.0, 0.0, 0.0, 0.0)","(0.0, -0.37, 0.01, 0.2484, -0.0324, 0.0756, 0.0)"
2020/05/26/02:03:44.297938,624,1590426224,242959976,,"['joint_S', 'joint_L', 'joint_E', 'joint_U', 'joint_R', 'joint_B', 'joint_T']","(0, -3, -3, -1, 0, -3, 2)","(0.0, 0.0026, -0.0026, -0.0008, 0.0, -0.0029, -0.0029)","(0.0, 0.0, 0.0, 0.0, 0.0, 0.0, 0.0)","(0.0, -0.37, 0.01, 0.2484, -0.0324, 0.0756, 0.0)"
2020/05/26/02:03:44.353991,625,1590426224,297890901,,"['joint_S', 'joint_L', 'joint_E', 'joint_U', 'joint_R', 'joint_B', 'joint_T']","(0, -3, -3, -1, 0, -3, 2)","(0.0, 0.0026, -0.0026, -0.0008, 0.0, -0.0029, -0.0029)","(0.0, 0.0, 0.0, 0.0, 0.0, 0.0, 0.0)","(0.0, -0.37, 0.01, 0.2484, -0.0324, 0.0756, 0.0)"
2020/05/26/02:03:44.409224,626,1590426224,354208946,,"['joint_S', 'joint_L', 'joint_E', 'joint_U', 'joint_R', 'joint_B', 'joint_T']","(0, -3, -3, -1, 0, -3, 2)","(0.0, 0.0026, -0.0026, -0.0008, 0.0, -0.0029, -0.0029)","(0.0, 0.0, 0.0, 0.0, 0.0, 0.0, 0.0)","(0.0, -0.37, 0.01, 0.2484, -0.0324, 0.0756, 0.0)"
2020/05/26/02:03:44.465643,627,1590426224,409502983,,"['joint_S', 'joint_L', 'joint_E', 'joint_U', 'joint_R', 'joint_B', 'joint_T']","(0, -3, -3, -1, 0, -3, 2)","(0.0, 0.0026, -0.0026, -0.0008, 0.0, -0.0029, -0.0029)","(0.0, 0.0, 0.0, 0.0, 0.0, 0.0, 0.0)","(0.0, -0.37, 0.01, 0.2484, -0.0324, 0.0756, 0.0)"
2020/05/26/02:03:44.521957,628,1590426224,465563058,,"['joint_S', 'joint_L', 'joint_E', 'joint_U', 'joint_R', 'joint_B', 'joint_T']","(0, -3, -3, -1, 0, -3, 2)","(0.0, 0.0026, -0.0026, -0.0008, 0.0, -0.0029, -0.0029)","(0.0, 0.0, 0.0, 0.0, 0.0, 0.0, 0.0)","(0.0, -0.37, 0.01, 0.2484, -0.0324, 0.0756, 0.0)"
2020/05/26/02:03:44.576578,629,1590426224,521961927,,"['joint_S', 'joint_L', 'joint_E', 'joint_U', 'joint_R', 'joint_B', 'joint_T']","(0, -3, -3, -1, 0, -3, 2)","(0.0, 0.0026, -0.0026, -0.0008, 0.0, -0.0029, -0.0029)","(0.0, 0.0, 0.0, 0.0, 0.0, 0.0, 0.0)","(0.0, -0.37, 0.01, 0.2484, -0.0324, 0.0756, 0.0)"
2020/05/26/02:03:44.632430,630,1590426224,576594114,,"['joint_S', 'joint_L', 'joint_E', 'joint_U', 'joint_R', 'joint_B', 'joint_T']","(0, -3, -3, -1, 0, -3, 2)","(0.0, 0.0026, -0.0026, -0.0008, 0.0, -0.0029, -0.0029)","(0.0, 0.0, 0.0, 0.0, 0.0, 0.0, 0.0)","(0.0, -0.37, 0.01, 0.2484, -0.0324, 0.0756, 0.0)"
2020/05/26/02:03:44.688861,631,1590426224,632370948,,"['joint_S', 'joint_L', 'joint_E', 'joint_U', 'joint_R', 'joint_B', 'joint_T']","(0, -3, -3, -1, 0, -3, 2)","(0.0, 0.0026, -0.0026, -0.0008, 0.0, -0.0029, -0.0029)","(0.0, 0.0, 0.0, 0.0, 0.0, 0.0, 0.0)","(0.0, -0.37, 0.01, 0.2484, -0.0324, 0.0756, 0.0)"
2020/05/26/02:03:44.744211,632,1590426224,688884019,,"['joint_S', 'joint_L', 'joint_E', 'joint_U', 'joint_R', 'joint_B', 'joint_T']","(0, -3, -3, -1, 0, -3, 2)","(0.0, 0.0026, -0.0026, -0.0008, 0.0, -0.0029, -0.0029)","(0.0, 0.0, 0.0, 0.0, 0.0, 0.0, 0.0)","(0.0, -0.37, 0.01, 0.2484, -0.0324, 0.0756, 0.0)"
2020/05/26/02:03:44.799589,633,1590426224,744380950,,"['joint_S', 'joint_L', 'joint_E', 'joint_U', 'joint_R', 'joint_B', 'joint_T']","(0, -3, -3, -1, 0, -3, 2)","(0.0, 0.0026, -0.0026, -0.0008, 0.0, -0.0029, -0.0029)","(0.0, 0.0, 0.0, 0.0, 0.0, 0.0, 0.0)","(0.0, -0.37, 0.01, 0.2484, -0.0324, 0.0756, 0.0)"
2020/05/26/02:03:44.856811,634,1590426224,799611091,,"['joint_S', 'joint_L', 'joint_E', 'joint_U', 'joint_R', 'joint_B', 'joint_T']","(0, -3, -3, -1, 0, -3, 2)","(0.0, 0.0026, -0.0026, -0.0008, 0.0, -0.0029, -0.0029)","(0.0, 0.0, 0.0, 0.0, 0.0, 0.0, 0.0)","(0.0, -0.37, 0.01, 0.2484, -0.0324, 0.0756, 0.0)"
2020/05/26/02:03:44.911177,635,1590426224,856800079,,"['joint_S', 'joint_L', 'joint_E', 'joint_U', 'joint_R', 'joint_B', 'joint_T']","(0, -3, -3, -1, 0, -3, 2)","(0.0, 0.0026, -0.0026, -0.0008, 0.0, -0.0029, -0.0029)","(0.0, 0.0, 0.0, 0.0, 0.0, 0.0, 0.0)","(0.0, -0.37, 0.01, 0.2484, -0.0324, 0.0756, 0.0)"
2020/05/26/02:03:44.966306,636,1590426224,911254882,,"['joint_S', 'joint_L', 'joint_E', 'joint_U', 'joint_R', 'joint_B', 'joint_T']","(0, -3, -3, -1, 0, -3, 2)","(0.0, 0.0026, -0.0026, -0.0008, 0.0, -0.0029, -0.0029)","(0.0, 0.0, 0.0, 0.0, 0.0, 0.0, 0.0)","(0.0, -0.37, 0.01, 0.2484, -0.0324, 0.0756, 0.0)"
2020/05/26/02:03:45.021896,637,1590426224,966306924,,"['joint_S', 'joint_L', 'joint_E', 'joint_U', 'joint_R', 'joint_B', 'joint_T']","(0, -3, -3, -1, 0, -3, 2)","(0.0, 0.0026, -0.0026, -0.0008, 0.0, -0.0029, -0.0029)","(0.0, 0.0, 0.0, 0.0, 0.0, 0.0, 0.0)","(0.0, -0.37, 0.01, 0.2484, -0.0324, 0.0756, 0.0)"
2020/05/26/02:03:45.078041,638,1590426225,22017002,,"['joint_S', 'joint_L', 'joint_E', 'joint_U', 'joint_R', 'joint_B', 'joint_T']","(0, -3, -3, -1, 0, -3, 2)","(0.0, 0.0026, -0.0026, -0.0008, 0.0, -0.0029, -0.0029)","(0.0, 0.0, 0.0, 0.0, 0.0, 0.0, 0.0)","(0.0, -0.37, 0.01, 0.2484, -0.0324, 0.0756, 0.0)"
2020/05/26/02:03:45.134124,639,1590426225,78237056,,"['joint_S', 'joint_L', 'joint_E', 'joint_U', 'joint_R', 'joint_B', 'joint_T']","(0, -3, -3, -1, 0, -3, 2)","(0.0, 0.0026, -0.0026, -0.0008, 0.0, -0.0029, -0.0029)","(0.0, 0.0, 0.0, 0.0, 0.0, 0.0, 0.0)","(0.0, -0.37, 0.01, 0.2484, -0.0324, 0.0756, 0.0)"
2020/05/26/02:03:45.189634,640,1590426225,134110927,,"['joint_S', 'joint_L', 'joint_E', 'joint_U', 'joint_R', 'joint_B', 'joint_T']","(0, -3, -3, -1, 0, -3, 2)","(0.0, 0.0026, -0.0026, -0.0008, 0.0, -0.0029, -0.0029)","(0.0, 0.0, 0.0, 0.0, 0.0, 0.0, 0.0)","(0.0, -0.37, 0.01, 0.2484, -0.0324, 0.0756, 0.0)"
2020/05/26/02:03:45.244197,641,1590426225,189445972,,"['joint_S', 'joint_L', 'joint_E', 'joint_U', 'joint_R', 'joint_B', 'joint_T']","(0, -3, -3, -1, 0, -3, 2)","(0.0, 0.0026, -0.0026, -0.0008, 0.0, -0.0029, -0.0029)","(0.0, 0.0, 0.0, 0.0, 0.0, 0.0, 0.0)","(0.0, -0.37, 0.01, 0.2484, -0.0324, 0.0756, 0.0)"
2020/05/26/02:03:45.299808,642,1590426225,244268894,,"['joint_S', 'joint_L', 'joint_E', 'joint_U', 'joint_R', 'joint_B', 'joint_T']","(0, -3, -3, -1, 0, -3, 2)","(0.0, 0.0026, -0.0026, -0.0008, 0.0, -0.0029, -0.0029)","(0.0, 0.0, 0.0, 0.0, 0.0, 0.0, 0.0)","(0.0, -0.37, 0.01, 0.2484, -0.0324, 0.0756, 0.0)"
2020/05/26/02:03:45.355326,643,1590426225,299719095,,"['joint_S', 'joint_L', 'joint_E', 'joint_U', 'joint_R', 'joint_B', 'joint_T']","(0, -3, -3, -1, 0, -3, 2)","(0.0, 0.0026, -0.0026, -0.0008, 0.0, -0.0029, -0.0029)","(0.0, 0.0, 0.0, 0.0, 0.0, 0.0, 0.0)","(0.0, -0.37, 0.01, 0.2484, -0.0324, 0.0756, 0.0)"
2020/05/26/02:03:45.412648,644,1590426225,355365991,,"['joint_S', 'joint_L', 'joint_E', 'joint_U', 'joint_R', 'joint_B', 'joint_T']","(0, -3, -3, -1, 0, -3, 2)","(0.0, 0.0026, -0.0026, -0.0008, 0.0, -0.0029, -0.0029)","(0.0, 0.0, 0.0, 0.0, 0.0, 0.0, 0.0)","(0.0, -0.37, 0.01, 0.2484, -0.0324, 0.0756, 0.0)"
2020/05/26/02:03:45.467415,645,1590426225,412764072,,"['joint_S', 'joint_L', 'joint_E', 'joint_U', 'joint_R', 'joint_B', 'joint_T']","(0, -3, -3, -1, 0, -3, 2)","(0.0, 0.0026, -0.0026, -0.0008, 0.0, -0.0029, -0.0029)","(0.0, 0.0, 0.0, 0.0, 0.0, 0.0, 0.0)","(0.0, -0.37, 0.01, 0.2484, -0.0324, 0.0756, 0.0)"
2020/05/26/02:03:45.522333,646,1590426225,467403888,,"['joint_S', 'joint_L', 'joint_E', 'joint_U', 'joint_R', 'joint_B', 'joint_T']","(0, -3, -3, -1, 0, -3, 2)","(0.0, 0.0026, -0.0026, -0.0008, 0.0, -0.0029, -0.0029)","(0.0, 0.0, 0.0, 0.0, 0.0, 0.0, 0.0)","(0.0, -0.37, 0.01, 0.2484, -0.0324, 0.0756, 0.0)"
2020/05/26/02:03:45.577364,647,1590426225,522336959,,"['joint_S', 'joint_L', 'joint_E', 'joint_U', 'joint_R', 'joint_B', 'joint_T']","(0, -3, -3, -1, 0, -3, 2)","(0.0, 0.0026, -0.0026, -0.0008, 0.0, -0.0029, -0.0029)","(0.0, 0.0, 0.0, 0.0, 0.0, 0.0, 0.0)","(0.0, -0.37, 0.01, 0.2484, -0.0324, 0.0756, 0.0)"
2020/05/26/02:03:45.632731,648,1590426225,577474117,,"['joint_S', 'joint_L', 'joint_E', 'joint_U', 'joint_R', 'joint_B', 'joint_T']","(0, -3, -3, -1, 0, -3, 2)","(0.0, 0.0026, -0.0026, -0.0008, 0.0, -0.0029, -0.0029)","(0.0, 0.0, 0.0, 0.0, 0.0, 0.0, 0.0)","(0.0, -0.37, 0.01, 0.2484, -0.0324, 0.0756, 0.0)"
2020/05/26/02:03:45.689036,649,1590426225,632760047,,"['joint_S', 'joint_L', 'joint_E', 'joint_U', 'joint_R', 'joint_B', 'joint_T']","(0, -3, -3, -1, 0, -3, 2)","(0.0, 0.0026, -0.0026, -0.0008, 0.0, -0.0029, -0.0029)","(0.0, 0.0, 0.0, 0.0, 0.0, 0.0, 0.0)","(0.0, -0.37, 0.01, 0.2484, -0.0324, 0.0756, 0.0)"
2020/05/26/02:03:45.744226,650,1590426225,688951015,,"['joint_S', 'joint_L', 'joint_E', 'joint_U', 'joint_R', 'joint_B', 'joint_T']","(0, -3, -3, -1, 0, -3, 2)","(0.0, 0.0026, -0.0026, -0.0008, 0.0, -0.0029, -0.0029)","(0.0, 0.0, 0.0, 0.0, 0.0, 0.0, 0.0)","(0.0, -0.37, 0.01, 0.2484, -0.0324, 0.0756, 0.0)"
2020/05/26/02:03:45.799144,651,1590426225,743952989,,"['joint_S', 'joint_L', 'joint_E', 'joint_U', 'joint_R', 'joint_B', 'joint_T']","(0, -3, -3, -1, 0, -3, 2)","(0.0, 0.0026, -0.0026, -0.0008, 0.0, -0.0029, -0.0029)","(0.0, 0.0, 0.0, 0.0, 0.0, 0.0, 0.0)","(0.0, -0.37, 0.01, 0.2484, -0.0324, 0.0756, 0.0)"
2020/05/26/02:03:45.855042,652,1590426225,799103021,,"['joint_S', 'joint_L', 'joint_E', 'joint_U', 'joint_R', 'joint_B', 'joint_T']","(0, -3, -3, -1, 0, -3, 2)","(0.0, 0.0026, -0.0026, -0.0008, 0.0, -0.0029, -0.0029)","(0.0, 0.0, 0.0, 0.0, 0.0, 0.0, 0.0)","(0.0, -0.37, 0.01, 0.2484, -0.0324, 0.0756, 0.0)"
2020/05/26/02:03:45.909653,653,1590426225,855020999,,"['joint_S', 'joint_L', 'joint_E', 'joint_U', 'joint_R', 'joint_B', 'joint_T']","(0, -3, -3, -1, 0, -3, 2)","(0.0, 0.0026, -0.0026, -0.0008, 0.0, -0.0029, -0.0029)","(0.0, 0.0, 0.0, 0.0, 0.0, 0.0, 0.0)","(0.0, -0.37, 0.01, 0.2484, -0.0324, 0.0756, 0.0)"
2020/05/26/02:03:45.967037,654,1590426225,909743070,,"['joint_S', 'joint_L', 'joint_E', 'joint_U', 'joint_R', 'joint_B', 'joint_T']","(0, -3, -3, -1, 0, -3, 2)","(0.0, 0.0026, -0.0026, -0.0008, 0.0, -0.0029, -0.0029)","(0.0, 0.0, 0.0, 0.0, 0.0, 0.0, 0.0)","(0.0, -0.37, 0.01, 0.2484, -0.0324, 0.0756, 0.0)"
2020/05/26/02:03:46.024375,655,1590426225,966872930,,"['joint_S', 'joint_L', 'joint_E', 'joint_U', 'joint_R', 'joint_B', 'joint_T']","(0, -3, -3, -1, 0, -3, 2)","(0.0, 0.0026, -0.0026, -0.0008, 0.0, -0.0029, -0.0029)","(0.0, 0.0, 0.0, 0.0, 0.0, 0.0, 0.0)","(0.0, -0.37, 0.01, 0.2484, -0.0324, 0.0756, 0.0)"
2020/05/26/02:03:46.080291,656,1590426226,24507045,,"['joint_S', 'joint_L', 'joint_E', 'joint_U', 'joint_R', 'joint_B', 'joint_T']","(0, -3, -3, -1, 0, -3, 2)","(0.0, 0.0026, -0.0026, -0.0008, 0.0, -0.0029, -0.0029)","(0.0, 0.0, 0.0, 0.0, 0.0, 0.0, 0.0)","(0.0, -0.37, 0.01, 0.2484, -0.0324, 0.0756, 0.0)"
2020/05/26/02:03:46.134427,657,1590426226,80341100,,"['joint_S', 'joint_L', 'joint_E', 'joint_U', 'joint_R', 'joint_B', 'joint_T']","(0, -3, -3, -1, 0, -3, 2)","(0.0, 0.0026, -0.0026, -0.0008, 0.0, -0.0029, -0.0029)","(0.0, 0.0, 0.0, 0.0, 0.0, 0.0, 0.0)","(0.0, -0.37, 0.01, 0.2484, -0.0324, 0.0756, 0.0)"
2020/05/26/02:03:46.190368,658,1590426226,134438037,,"['joint_S', 'joint_L', 'joint_E', 'joint_U', 'joint_R', 'joint_B', 'joint_T']","(0, -3, -3, -1, 0, -3, 2)","(0.0, 0.0026, -0.0026, -0.0008, 0.0, -0.0029, -0.0029)","(0.0, 0.0, 0.0, 0.0, 0.0, 0.0, 0.0)","(0.0, -0.37, 0.01, 0.2484, -0.0324, 0.0756, 0.0)"
2020/05/26/02:03:46.244605,659,1590426226,190330028,,"['joint_S', 'joint_L', 'joint_E', 'joint_U', 'joint_R', 'joint_B', 'joint_T']","(0, -3, -3, -1, 0, -3, 2)","(0.0, 0.0026, -0.0026, -0.0008, 0.0, -0.0029, -0.0029)","(0.0, 0.0, 0.0, 0.0, 0.0, 0.0, 0.0)","(0.0, -0.37, 0.01, 0.2484, -0.0324, 0.0756, 0.0)"
2020/05/26/02:03:46.299865,660,1590426226,244663000,,"['joint_S', 'joint_L', 'joint_E', 'joint_U', 'joint_R', 'joint_B', 'joint_T']","(0, -3, -3, -1, 0, -3, 2)","(0.0, 0.0026, -0.0026, -0.0008, 0.0, -0.0029, -0.0029)","(0.0, 0.0, 0.0, 0.0, 0.0, 0.0, 0.0)","(0.0, -0.37, 0.01, 0.2484, -0.0324, 0.0756, 0.0)"
2020/05/26/02:03:46.354555,661,1590426226,299702882,,"['joint_S', 'joint_L', 'joint_E', 'joint_U', 'joint_R', 'joint_B', 'joint_T']","(0, -3, -3, -1, 0, -3, 2)","(0.0, 0.0026, -0.0026, -0.0008, 0.0, -0.0029, -0.0029)","(0.0, 0.0, 0.0, 0.0, 0.0, 0.0, 0.0)","(0.0, -0.37, 0.01, 0.2484, -0.0324, 0.0756, 0.0)"
2020/05/26/02:03:46.410308,662,1590426226,354517936,,"['joint_S', 'joint_L', 'joint_E', 'joint_U', 'joint_R', 'joint_B', 'joint_T']","(0, -3, -3, -1, 0, -3, 2)","(0.0, 0.0026, -0.0026, -0.0008, 0.0, -0.0029, -0.0029)","(0.0, 0.0, 0.0, 0.0, 0.0, 0.0, 0.0)","(0.0, -0.37, 0.01, 0.2484, -0.0324, 0.0756, 0.0)"
2020/05/26/02:03:46.465126,663,1590426226,410036087,,"['joint_S', 'joint_L', 'joint_E', 'joint_U', 'joint_R', 'joint_B', 'joint_T']","(0, -3, -3, -1, 0, -3, 2)","(0.0, 0.0026, -0.0026, -0.0008, 0.0, -0.0029, -0.0029)","(0.0, 0.0, 0.0, 0.0, 0.0, 0.0, 0.0)","(0.0, -0.37, 0.01, 0.2484, -0.0324, 0.0756, 0.0)"
2020/05/26/02:03:46.520604,664,1590426226,465014934,,"['joint_S', 'joint_L', 'joint_E', 'joint_U', 'joint_R', 'joint_B', 'joint_T']","(0, -3, -3, -1, 0, -3, 2)","(0.0, 0.0026, -0.0026, -0.0008, 0.0, -0.0029, -0.0029)","(0.0, 0.0, 0.0, 0.0, 0.0, 0.0, 0.0)","(0.0, -0.37, 0.01, 0.2484, -0.0324, 0.0756, 0.0)"
2020/05/26/02:03:46.575199,665,1590426226,520523071,,"['joint_S', 'joint_L', 'joint_E', 'joint_U', 'joint_R', 'joint_B', 'joint_T']","(0, -3, -3, -1, 0, -3, 2)","(0.0, 0.0026, -0.0026, -0.0008, 0.0, -0.0029, -0.0029)","(0.0, 0.0, 0.0, 0.0, 0.0, 0.0, 0.0)","(0.0, -0.37, 0.01, 0.2484, -0.0324, 0.0756, 0.0)"
2020/05/26/02:03:46.631006,666,1590426226,575279951,,"['joint_S', 'joint_L', 'joint_E', 'joint_U', 'joint_R', 'joint_B', 'joint_T']","(0, -3, -3, -1, 0, -3, 2)","(0.0, 0.0026, -0.0026, -0.0008, 0.0, -0.0029, -0.0029)","(0.0, 0.0, 0.0, 0.0, 0.0, 0.0, 0.0)","(0.0, -0.37, 0.01, 0.2484, -0.0324, 0.0756, 0.0)"
2020/05/26/02:03:46.686097,667,1590426226,630916118,,"['joint_S', 'joint_L', 'joint_E', 'joint_U', 'joint_R', 'joint_B', 'joint_T']","(0, -3, -3, -1, 0, -3, 2)","(0.0, 0.0026, -0.0026, -0.0008, 0.0, -0.0029, -0.0029)","(0.0, 0.0, 0.0, 0.0, 0.0, 0.0, 0.0)","(0.0, -0.37, 0.01, 0.2484, -0.0324, 0.0756, 0.0)"
2020/05/26/02:03:46.742200,668,1590426226,686172962,,"['joint_S', 'joint_L', 'joint_E', 'joint_U', 'joint_R', 'joint_B', 'joint_T']","(0, -3, -3, -1, 0, -3, 2)","(0.0, 0.0026, -0.0026, -0.0008, 0.0, -0.0029, -0.0029)","(0.0, 0.0, 0.0, 0.0, 0.0, 0.0, 0.0)","(0.0, -0.37, 0.01, 0.2484, -0.0324, 0.0756, 0.0)"
2020/05/26/02:03:46.795429,669,1590426226,742083072,,"['joint_S', 'joint_L', 'joint_E', 'joint_U', 'joint_R', 'joint_B', 'joint_T']","(0, -3, -3, -1, 0, -3, 2)","(0.0, 0.0026, -0.0026, -0.0008, 0.0, -0.0029, -0.0029)","(0.0, 0.0, 0.0, 0.0, 0.0, 0.0, 0.0)","(0.0, -0.37, 0.01, 0.2484, -0.0324, 0.0756, 0.0)"
2020/05/26/02:03:46.848481,670,1590426226,795557022,,"['joint_S', 'joint_L', 'joint_E', 'joint_U', 'joint_R', 'joint_B', 'joint_T']","(0, -2, -2, -1, 0, -132, 2)","(0.0, 0.0017, -0.0017, -0.0008, 0.0, -0.1303, -0.0029)","(0.0, 0.0, 0.0, 0.0, 0.0, 0.0, 0.0)","(0.0, -0.37, 0.01, 0.2484, -0.0324, 0.072, 0.0)"
2020/05/26/02:03:46.902474,671,1590426226,848603010,,"['joint_S', 'joint_L', 'joint_E', 'joint_U', 'joint_R', 'joint_B', 'joint_T']","(0, -2, -2, -1, 0, -482, 2)","(0.0, 0.0017, -0.0017, -0.0008, 0.0, -0.4759, -0.0029)","(0.0, 0.0, 0.0, 0.0, 0.0, 0.0, 0.0)","(0.0, -0.37, 0.01, 0.2484, -0.0324, 0.072, 0.0)"
2020/05/26/02:03:46.956311,672,1590426226,902317047,,"['joint_S', 'joint_L', 'joint_E', 'joint_U', 'joint_R', 'joint_B', 'joint_T']","(0, -2, -2, -1, 0, -1052, 2)","(0.0, 0.0017, -0.0017, -0.0008, 0.0, -1.0388, -0.0029)","(0.0, 0.0, 0.0, 0.0, 0.0, 0.0, 0.0)","(0.0, -0.37, 0.01, 0.2484, -0.0324, 0.072, 0.0)"
2020/05/26/02:03:47.011319,673,1590426226,956329107,,"['joint_S', 'joint_L', 'joint_E', 'joint_U', 'joint_R', 'joint_B', 'joint_T']","(0, -2, -2, -1, 0, -1805, 2)","(0.0, 0.0017, -0.0017, -0.0008, 0.0, -1.7825, -0.0029)","(0.0, 0.0, 0.0, 0.0, 0.0, 0.0, 0.0)","(0.0, -0.37, 0.01, 0.2484, -0.0324, 0.072, 0.0)"
2020/05/26/02:03:47.065296,674,1590426227,11444091,,"['joint_S', 'joint_L', 'joint_E', 'joint_U', 'joint_R', 'joint_B', 'joint_T']","(0, -2, -2, -1, 0, -2711, 2)","(0.0, 0.0017, -0.0017, -0.0008, 0.0, -2.6772, -0.0029)","(0.0, 0.0, 0.0, 0.0, 0.0, 0.0, 0.0)","(0.0, -0.37, 0.01, 0.2484, -0.0324, 0.072, 0.0)"
2020/05/26/02:03:47.118274,675,1590426227,65309047,,"['joint_S', 'joint_L', 'joint_E', 'joint_U', 'joint_R', 'joint_B', 'joint_T']","(0, -2, -2, -1, 0, -3741, 2)","(0.0, 0.0017, -0.0017, -0.0008, 0.0, -3.6943, -0.0029)","(0.0, 0.0, 0.0, 0.0, 0.0, 0.0, 0.0)","(0.0, -0.37, 0.01, 0.2484, -0.0324, 0.072, 0.0)"
2020/05/26/02:03:47.172381,676,1590426227,118283987,,"['joint_S', 'joint_L', 'joint_E', 'joint_U', 'joint_R', 'joint_B', 'joint_T']","(0, -2, -2, -1, 0, -4866, 2)","(0.0, 0.0017, -0.0017, -0.0008, 0.0, -4.8053, -0.0029)","(0.0, 0.0, 0.0, 0.0, 0.0, 0.0, 0.0)","(0.0, -0.37, 0.01, 0.2484, -0.0324, 0.072, 0.0)"
2020/05/26/02:03:47.227231,677,1590426227,172255992,,"['joint_S', 'joint_L', 'joint_E', 'joint_U', 'joint_R', 'joint_B', 'joint_T']","(0, -2, -2, -1, 0, -6058, 2)","(0.0, 0.0017, -0.0017, -0.0008, 0.0, -5.9824, -0.0029)","(0.0, 0.0, 0.0, 0.0, 0.0, 0.0, 0.0)","(0.0, -0.37, 0.01, 0.2484, -0.0324, 0.072, 0.0)"
2020/05/26/02:03:47.281142,678,1590426227,227082967,,"['joint_S', 'joint_L', 'joint_E', 'joint_U', 'joint_R', 'joint_B', 'joint_T']","(0, -2, -2, -1, 0, -7287, 2)","(0.0, 0.0017, -0.0017, -0.0008, 0.0, -7.1961, -0.0029)","(0.0, 0.0, 0.0, 0.0, 0.0, 0.0, 0.0)","(0.0, -0.37, 0.01, 0.2484, -0.0324, 0.072, 0.0)"
2020/05/26/02:03:47.334970,679,1590426227,281316041,,"['joint_S', 'joint_L', 'joint_E', 'joint_U', 'joint_R', 'joint_B', 'joint_T']","(0, -2, -2, -1, 0, -8525, 2)","(0.0, 0.0017, -0.0017, -0.0008, 0.0, -8.4187, -0.0029)","(0.0, 0.0, 0.0, 0.0, 0.0, 0.0, 0.0)","(0.0, -0.37, 0.01, 0.2484, -0.0324, 0.072, 0.0)"
2020/05/26/02:03:47.388727,680,1590426227,335056066,,"['joint_S', 'joint_L', 'joint_E', 'joint_U', 'joint_R', 'joint_B', 'joint_T']","(0, -2, -2, -1, 0, -9779, 2)","(0.0, 0.0017, -0.0017, -0.0008, 0.0, -9.6571, -0.0029)","(0.0, 0.0, 0.0, 0.0, 0.0, 0.0, 0.0)","(0.0, -0.37, 0.01, 0.2484, -0.0324, 0.072, 0.0)"
2020/05/26/02:03:47.442547,681,1590426227,388727903,,"['joint_S', 'joint_L', 'joint_E', 'joint_U', 'joint_R', 'joint_B', 'joint_T']","(0, -2, -2, -1, 0, -11207, 2)","(0.0, 0.0017, -0.0017, -0.0008, 0.0, -11.0673, -0.0029)","(0.0, 0.0, 0.0, 0.0, 0.0, 0.0, 0.0)","(0.0, -0.37, 0.01, 0.2484, -0.0324, 0.072, 0.0)"
2020/05/26/02:03:47.498350,682,1590426227,442616939,,"['joint_S', 'joint_L', 'joint_E', 'joint_U', 'joint_R', 'joint_B', 'joint_T']","(0, -2, -2, -1, 0, -12782, 2)","(0.0, 0.0017, -0.0017, -0.0008, 0.0, -12.6226, -0.0029)","(0.0, 0.0, 0.0, 0.0, 0.0, 0.0, 0.0)","(0.0, -0.37, 0.01, 0.2484, -0.0324, 0.072, 0.0)"
2020/05/26/02:03:47.553533,683,1590426227,498205900,,"['joint_S', 'joint_L', 'joint_E', 'joint_U', 'joint_R', 'joint_B', 'joint_T']","(0, -2, -2, -1, 0, -14502, 2)","(0.0, 0.0017, -0.0017, -0.0008, 0.0, -14.3212, -0.0029)","(0.0, 16.0, 0.0, -22.0, 0.0, -25849.0, 0.0)","(0.0, -0.37, 0.01, 0.2484, -0.0324, 0.072, 0.0)"
2020/05/26/02:03:47.606916,684,1590426227,553556919,,"['joint_S', 'joint_L', 'joint_E', 'joint_U', 'joint_R', 'joint_B', 'joint_T']","(0, -2, -2, -1, 0, -16243, 2)","(0.0, 0.0017, -0.0017, -0.0008, 0.0, -16.0405, -0.0029)","(0.0, 16.0, 4.0, -22.0, 0.0, -25849.0, 2.0)","(0.0, -0.37, 0.01, 0.2484, -0.0324, 0.072, 0.0)"
2020/05/26/02:03:47.662826,685,1590426227,606945037,,"['joint_S', 'joint_L', 'joint_E', 'joint_U', 'joint_R', 'joint_B', 'joint_T']","(0, -2, -2, -1, 0, -17878, 2)","(0.0, 0.0017, -0.0017, -0.0008, 0.0, -17.6551, -0.0029)","(0.0, 16.0, 4.0, -22.0, 0.0, -25849.0, 2.0)","(0.0, -0.37, 0.01, 0.2484, -0.0324, 0.072, 0.0)"
2020/05/26/02:03:47.716712,686,1590426227,662919998,,"['joint_S', 'joint_L', 'joint_E', 'joint_U', 'joint_R', 'joint_B', 'joint_T']","(0, -2, -2, -1, 0, -19447, 2)","(0.0, 0.0017, -0.0017, -0.0008, 0.0, -19.2045, -0.0029)","(0.0, 16.0, 4.0, -22.0, 0.0, -25849.0, 2.0)","(0.0, -0.55, 0.01, 0.243, -0.0324, -0.072, 0.0)"
2020/05/26/02:03:47.771766,687,1590426227,716892957,,"['joint_S', 'joint_L', 'joint_E', 'joint_U', 'joint_R', 'joint_B', 'joint_T']","(0, -2, -2, -1, 0, -21073, 2)","(0.0, 0.0017, -0.0017, -0.0008, 0.0, -20.8103, -0.0029)","(0.0, 16.0, 4.0, -22.0, 0.0, -25849.0, 2.0)","(0.0, -0.55, 0.09, 0.243, -0.0324, -0.072, 0.0)"
2020/05/26/02:03:47.827964,688,1590426227,771639108,,"['joint_S', 'joint_L', 'joint_E', 'joint_U', 'joint_R', 'joint_B', 'joint_T']","(0, -2, -2, -1, 0, -22640, 2)","(0.0, 0.0017, -0.0017, -0.0008, 0.0, -22.3577, -0.0029)","(0.0, 16.0, 4.0, -22.0, 0.0, -25849.0, 2.0)","(0.0, -0.55, 0.09, 0.243, -0.0324, -0.072, 0.0)"
2020/05/26/02:03:47.882912,689,1590426227,827770948,,"['joint_S', 'joint_L', 'joint_E', 'joint_U', 'joint_R', 'joint_B', 'joint_T']","(0, -2, -2, -1, 0, -24266, 2)","(0.0, 0.0017, -0.0017, -0.0008, 0.0, -23.9635, -0.0029)","(0.0, 16.0, 4.0, -22.0, 0.0, -25849.0, 2.0)","(0.0, -0.55, 0.09, 0.243, -0.0324, -0.072, 0.0)"
2020/05/26/02:03:47.937316,690,1590426227,882808923,,"['joint_S', 'joint_L', 'joint_E', 'joint_U', 'joint_R', 'joint_B', 'joint_T']","(0, -2, -2, -1, 0, -25833, 2)","(0.0, 0.0017, -0.0017, -0.0008, 0.0, -25.5109, -0.0029)","(0.0, 16.0, 4.0, -22.0, 0.0, -25849.0, 2.0)","(0.0, -0.55, 0.09, 0.243, -0.0324, -0.072, 0.0)"
2020/05/26/02:03:47.992968,691,1590426227,937058925,,"['joint_S', 'joint_L', 'joint_E', 'joint_U', 'joint_R', 'joint_B', 'joint_T']","(0, -2, -2, -1, 0, -27458, 2)","(0.0, 0.0017, -0.0017, -0.0008, 0.0, -27.1157, -0.0029)","(0.0, 16.0, 4.0, -22.0, 0.0, -25849.0, 2.0)","(0.0, -0.55, 0.09, 0.243, -0.0324, -0.072, 0.0)"
2020/05/26/02:03:48.046936,692,1590426227,992921113,,"['joint_S', 'joint_L', 'joint_E', 'joint_U', 'joint_R', 'joint_B', 'joint_T']","(0, -2, -2, -1, 0, -29025, 2)","(0.0, 0.0017, -0.0017, -0.0008, 0.0, -28.6632, -0.0029)","(0.0, 16.0, 4.0, -22.0, 0.0, -25849.0, 2.0)","(0.0, -0.55, 0.09, 0.243, -0.0324, -0.072, 0.0)"
2020/05/26/02:03:48.102005,693,1590426228,47071933,,"['joint_S', 'joint_L', 'joint_E', 'joint_U', 'joint_R', 'joint_B', 'joint_T']","(0, -2, -2, -1, 0, -30650, 2)","(0.0, 0.0017, -0.0017, -0.0008, 0.0, -30.2679, -0.0029)","(0.0, 16.0, 4.0, -22.0, 0.0, -25849.0, 2.0)","(0.0, -0.55, 0.09, 0.243, -0.0324, -0.072, 0.0)"
2020/05/26/02:03:48.158300,694,1590426228,101933002,,"['joint_S', 'joint_L', 'joint_E', 'joint_U', 'joint_R', 'joint_B', 'joint_T']","(-1, -2, -2, -1, 0, -32218, 2)","(-0.0008, 0.0017, -0.0017, -0.0008, 0.0, -31.8164, -0.0029)","(0.0, 16.0, 4.0, -22.0, 0.0, -25849.0, 2.0)","(0.0, -0.55, 0.09, 0.243, -0.0324, -0.072, 0.0)"
2020/05/26/02:03:48.214444,695,1590426228,158237934,,"['joint_S', 'joint_L', 'joint_E', 'joint_U', 'joint_R', 'joint_B', 'joint_T']","(-1, -2, -2, -1, 0, -33843, 2)","(-0.0008, 0.0017, -0.0017, -0.0008, 0.0, -33.4211, -0.0029)","(0.0, 16.0, 4.0, -22.0, 0.0, -25849.0, 2.0)","(0.0, -0.55, 0.09, 0.243, -0.0324, -0.072, 0.0)"
2020/05/26/02:03:48.268863,696,1590426228,214381933,,"['joint_S', 'joint_L', 'joint_E', 'joint_U', 'joint_R', 'joint_B', 'joint_T']","(-1, -2, -1, -2, 0, -35469, 2)","(-0.0008, 0.0017, -0.0008, -0.0017, 0.0, -35.0268, -0.0029)","(0.0, 16.0, 4.0, -22.0, 0.0, -25849.0, 2.0)","(0.0, -0.55, 0.09, 0.243, -0.0324, -0.072, 0.0)"
2020/05/26/02:03:48.323821,697,1590426228,268898010,,"['joint_S', 'joint_L', 'joint_E', 'joint_U', 'joint_R', 'joint_B', 'joint_T']","(-1, -2, -1, -2, 0, -37035, 2)","(-0.0008, 0.0017, -0.0008, -0.0017, 0.0, -36.5733, -0.0029)","(0.0, 16.0, 4.0, -22.0, 0.0, -25849.0, 2.0)","(0.0, -0.55, 0.09, 0.243, -0.0324, -0.072, 0.0)"
2020/05/26/02:03:48.379753,698,1590426228,323673963,,"['joint_S', 'joint_L', 'joint_E', 'joint_U', 'joint_R', 'joint_B', 'joint_T']","(-1, -2, -1, -2, 0, -38660, 2)","(-0.0008, 0.0017, -0.0008, -0.0017, 0.0, -38.1781, -0.0029)","(0.0, 16.0, 4.0, -22.0, 0.0, -25849.0, 2.0)","(0.0, -0.55, 0.09, 0.243, -0.0324, -0.072, 0.0)"
2020/05/26/02:03:48.435653,699,1590426228,379822015,,"['joint_S', 'joint_L', 'joint_E', 'joint_U', 'joint_R', 'joint_B', 'joint_T']","(-1, -2, -1, -2, 0, -40286, 2)","(-0.0008, 0.0017, -0.0008, -0.0017, 0.0, -39.7838, -0.0029)","(-13.0, 7.0, 4.0, -2.0, 0.0, -28988.0, 0.0)","(0.0, -0.55, 0.09, 0.243, -0.0324, -0.072, 0.0)"
2020/05/26/02:03:48.492643,700,1590426228,435575962,,"['joint_S', 'joint_L', 'joint_E', 'joint_U', 'joint_R', 'joint_B', 'joint_T']","(-1, -2, -1, -2, 0, -41912, 2)","(-0.0008, 0.0017, -0.0008, -0.0017, 0.0, -41.3895, -0.0029)","(-13.0, 7.0, 10.0, -2.0, 0.0, -28988.0, 0.0)","(0.0, -0.55, 0.09, 0.243, -0.0324, -0.072, 0.0)"
2020/05/26/02:03:48.549534,701,1590426228,492732048,,"['joint_S', 'joint_L', 'joint_E', 'joint_U', 'joint_R', 'joint_B', 'joint_T']","(-1, -2, -1, -2, 0, -43537, 2)","(-0.0008, 0.0017, -0.0008, -0.0017, 0.0, -42.9943, -0.0029)","(-13.0, 7.0, 10.0, -2.0, 0.0, -28988.0, 0.0)","(0.0, -0.55, 0.09, 0.243, -0.0324, -0.072, 0.0)"
2020/05/26/02:03:48.603753,702,1590426228,549537897,,"['joint_S', 'joint_L', 'joint_E', 'joint_U', 'joint_R', 'joint_B', 'joint_T']","(-1, -2, -1, -2, 0, -45162, 2)","(-0.0008, 0.0017, -0.0008, -0.0017, 0.0, -44.599, -0.0029)","(-13.0, 7.0, 10.0, -2.0, 0.0, -28988.0, 0.0)","(-0.04, -0.29, 0.09, 0.3294, -0.0324, -0.0684, 0.0)"
2020/05/26/02:03:48.660814,703,1590426228,603893041,,"['joint_S', 'joint_L', 'joint_E', 'joint_U', 'joint_R', 'joint_B', 'joint_T']","(-1, -2, -1, -2, 0, -46787, 2)","(-0.0008, 0.0017, -0.0008, -0.0017, 0.0, -46.2038, -0.0029)","(-13.0, 7.0, 10.0, -2.0, 0.0, -28988.0, 0.0)","(-0.04, -0.29, 0.11, 0.3294, -0.0324, -0.0684, 0.0)"
2020/05/26/02:03:48.717042,704,1590426228,660924911,,"['joint_S', 'joint_L', 'joint_E', 'joint_U', 'joint_R', 'joint_B', 'joint_T']","(-1, -2, -1, -2, 0, -48412, 2)","(-0.0008, 0.0017, -0.0008, -0.0017, 0.0, -47.8085, -0.0029)","(-13.0, 7.0, 10.0, -2.0, 0.0, -28988.0, 0.0)","(-0.04, -0.29, 0.11, 0.3294, -0.0324, -0.0684, 0.0)"
2020/05/26/02:03:48.772566,705,1590426228,717145919,,"['joint_S', 'joint_L', 'joint_E', 'joint_U', 'joint_R', 'joint_B', 'joint_T']","(-1, -2, -1, -2, 0, -50096, 2)","(-0.0008, 0.0017, -0.0008, -0.0017, 0.0, -49.4715, -0.0029)","(-13.0, 7.0, 10.0, -2.0, 0.0, -28988.0, 0.0)","(-0.04, -0.29, 0.11, 0.3294, -0.0324, -0.0684, 0.0)"
2020/05/26/02:03:48.830270,706,1590426228,772605895,,"['joint_S', 'joint_L', 'joint_E', 'joint_U', 'joint_R', 'joint_B', 'joint_T']","(-1, -2, -1, -2, 0, -51721, 2)","(-0.0008, 0.0017, -0.0008, -0.0017, 0.0, -51.0763, -0.0029)","(-13.0, 7.0, 10.0, -2.0, 0.0, -28988.0, 0.0)","(-0.04, -0.29, 0.11, 0.3294, -0.0324, -0.0684, 0.0)"
2020/05/26/02:03:48.887309,707,1590426228,830276966,,"['joint_S', 'joint_L', 'joint_E', 'joint_U', 'joint_R', 'joint_B', 'joint_T']","(-1, -2, -1, -2, 0, -53347, 2)","(-0.0008, 0.0017, -0.0008, -0.0017, 0.0, -52.682, -0.0029)","(-13.0, 7.0, 10.0, -2.0, 0.0, -28988.0, 0.0)","(-0.04, -0.29, 0.11, 0.3294, -0.0324, -0.0684, 0.0)"
2020/05/26/02:03:48.943459,708,1590426228,887351989,,"['joint_S', 'joint_L', 'joint_E', 'joint_U', 'joint_R', 'joint_B', 'joint_T']","(-1, -2, -1, -2, 0, -54971, 2)","(-0.0008, 0.0017, -0.0008, -0.0017, 0.0, -54.2857, -0.0029)","(-13.0, 7.0, 10.0, -2.0, 0.0, -28988.0, 0.0)","(-0.04, -0.29, 0.11, 0.3294, -0.0324, -0.0684, 0.0)"
2020/05/26/02:03:48.998842,709,1590426228,943444013,,"['joint_S', 'joint_L', 'joint_E', 'joint_U', 'joint_R', 'joint_B', 'joint_T']","(-1, -2, -1, -2, 0, -56593, 2)","(-0.0008, 0.0017, -0.0008, -0.0017, 0.0, -55.8875, -0.0029)","(-13.0, 7.0, 10.0, -2.0, 0.0, -28988.0, 0.0)","(-0.04, -0.29, 0.11, 0.3294, -0.0324, -0.0684, 0.0)"
2020/05/26/02:03:49.055564,710,1590426228,998754978,,"['joint_S', 'joint_L', 'joint_E', 'joint_U', 'joint_R', 'joint_B', 'joint_T']","(-1, -2, -1, -2, 0, -58212, 2)","(-0.0008, 0.0017, -0.0008, -0.0017, 0.0, -57.4863, -0.0029)","(-13.0, 7.0, 10.0, -2.0, 0.0, -28988.0, 0.0)","(-0.04, -0.29, 0.11, 0.3294, -0.0324, -0.0684, 0.0)"
2020/05/26/02:03:49.110663,711,1590426229,55531024,,"['joint_S', 'joint_L', 'joint_E', 'joint_U', 'joint_R', 'joint_B', 'joint_T']","(-1, -2, -1, -2, 0, -59888, 2)","(-0.0008, 0.0017, -0.0008, -0.0017, 0.0, -59.1415, -0.0029)","(-13.0, 7.0, 10.0, -2.0, 0.0, -28988.0, 0.0)","(-0.04, -0.29, 0.11, 0.3294, -0.0324, -0.0684, 0.0)"
2020/05/26/02:03:49.166979,712,1590426229,110531091,,"['joint_S', 'joint_L', 'joint_E', 'joint_U', 'joint_R', 'joint_B', 'joint_T']","(-1, -2, -1, -2, 0, -61507, 2)","(-0.0008, 0.0017, -0.0008, -0.0017, 0.0, -60.7403, -0.0029)","(-13.0, 7.0, 10.0, -2.0, 0.0, -28988.0, 0.0)","(-0.04, -0.29, 0.11, 0.3294, -0.0324, -0.0684, 0.0)"
2020/05/26/02:03:49.223453,713,1590426229,166913032,,"['joint_S', 'joint_L', 'joint_E', 'joint_U', 'joint_R', 'joint_B', 'joint_T']","(-2, -2, -1, -2, 0, -63128, 2)","(-0.0017, 0.0017, -0.0008, -0.0017, 0.0, -62.3411, -0.0029)","(-13.0, 7.0, 10.0, -2.0, 0.0, -28988.0, 0.0)","(-0.04, -0.29, 0.11, 0.3294, -0.0324, -0.0684, 0.0)"
2020/05/26/02:03:49.280182,714,1590426229,223287105,,"['joint_S', 'joint_L', 'joint_E', 'joint_U', 'joint_R', 'joint_B', 'joint_T']","(-2, -2, -1, -2, 0, -64752, 2)","(-0.0017, 0.0017, -0.0008, -0.0017, 0.0, -63.9448, -0.0029)","(-8.0, 2.0, 10.0, -20.0, 0.0, -28988.0, 0.0)","(-0.04, -0.29, 0.11, 0.3294, -0.0324, -0.0684, 0.0)"
2020/05/26/02:03:49.335713,715,1590426229,280077934,,"['joint_S', 'joint_L', 'joint_E', 'joint_U', 'joint_R', 'joint_B', 'joint_T']","(-2, -2, -1, -2, 0, -66377, 2)","(-0.0017, 0.0017, -0.0008, -0.0017, 0.0, -65.5496, -0.0029)","(-8.0, 2.0, -5.0, -20.0, 0.0, -28930.0, 0.0)","(-0.04, -0.29, 0.11, 0.3294, -0.0324, -0.0684, 0.0)"
2020/05/26/02:03:49.394634,716,1590426229,335561990,,"['joint_S', 'joint_L', 'joint_E', 'joint_U', 'joint_R', 'joint_B', 'joint_T']","(-2, -2, -1, -2, 0, -68003, 2)","(-0.0017, 0.0017, -0.0008, -0.0017, 0.0, -67.1553, -0.0029)","(-8.0, 2.0, -5.0, -20.0, 0.0, -28930.0, 0.0)","(-0.04, -0.29, 0.11, 0.3294, -0.0324, -0.0684, 0.0)"
2020/05/26/02:03:49.450413,717,1590426229,394433021,,"['joint_S', 'joint_L', 'joint_E', 'joint_U', 'joint_R', 'joint_B', 'joint_T']","(-2, -2, 0, -2, 0, -69686, 2)","(-0.0017, 0.0017, 0.0, -0.0017, 0.0, -68.8173, -0.0029)","(-8.0, 2.0, -5.0, -20.0, 0.0, -28930.0, 0.0)","(-0.09, -0.27, 0.11, 0.2808, -0.0324, -0.0684, 0.0)"
2020/05/26/02:03:49.506191,718,1590426229,450370073,,"['joint_S', 'joint_L', 'joint_E', 'joint_U', 'joint_R', 'joint_B', 'joint_T']","(-2, -2, 0, -3, 0, -71312, 2)","(-0.0017, 0.0017, 0.0, -0.0026, 0.0, -70.4231, -0.0029)","(-8.0, 2.0, -5.0, -20.0, 0.0, -28930.0, 0.0)","(-0.09, -0.27, 0.07, 0.2808, -0.027, -0.0972, 0.0)"
2020/05/26/02:03:49.565100,719,1590426229,506166934,,"['joint_S', 'joint_L', 'joint_E', 'joint_U', 'joint_R', 'joint_B', 'joint_T']","(-2, -2, 0, -3, 0, -72937, 2)","(-0.0017, 0.0017, 0.0, -0.0026, 0.0, -72.0278, -0.0029)","(-8.0, 2.0, -5.0, -20.0, 0.0, -28930.0, 0.0)","(-0.09, -0.27, 0.07, 0.2808, -0.027, -0.0972, 0.0)"
2020/05/26/02:03:49.620818,720,1590426229,565195083,,"['joint_S', 'joint_L', 'joint_E', 'joint_U', 'joint_R', 'joint_B', 'joint_T']","(-2, -2, 0, -3, 0, -74677, 2)","(-0.0017, 0.0017, 0.0, -0.0026, 0.0, -73.7461, -0.0029)","(-8.0, 2.0, -5.0, -20.0, 0.0, -28930.0, 0.0)","(-0.09, -0.27, 0.07, 0.2808, -0.027, -0.0972, 0.0)"
2020/05/26/02:03:49.677471,721,1590426229,620867013,,"['joint_S', 'joint_L', 'joint_E', 'joint_U', 'joint_R', 'joint_B', 'joint_T']","(-2, -2, 0, -3, 0, -76417, 2)","(-0.0017, 0.0017, 0.0, -0.0026, 0.0, -75.4644, -0.0029)","(-8.0, 2.0, -5.0, -20.0, 0.0, -28930.0, 0.0)","(-0.09, -0.27, 0.07, 0.2808, -0.027, -0.0972, 0.0)"
2020/05/26/02:03:49.732974,722,1590426229,677603006,,"['joint_S', 'joint_L', 'joint_E', 'joint_U', 'joint_R', 'joint_B', 'joint_T']","(-2, -2, 0, -3, 0, -78143, 2)","(-0.0017, 0.0017, 0.0, -0.0026, 0.0, -77.1689, -0.0029)","(-8.0, 2.0, -5.0, -20.0, 0.0, -28930.0, 0.0)","(-0.09, -0.27, 0.07, 0.2808, -0.027, -0.0972, 0.0)"
2020/05/26/02:03:49.790013,723,1590426229,732901096,,"['joint_S', 'joint_L', 'joint_E', 'joint_U', 'joint_R', 'joint_B', 'joint_T']","(-2, -2, 0, -3, 0, -79788, 2)","(-0.0017, 0.0017, 0.0, -0.0026, 0.0, -78.7934, -0.0029)","(-8.0, 2.0, -5.0, -20.0, 0.0, -28930.0, 0.0)","(-0.09, -0.27, 0.07, 0.2808, -0.027, -0.0972, 0.0)"
2020/05/26/02:03:49.846550,724,1590426229,790082931,,"['joint_S', 'joint_L', 'joint_E', 'joint_U', 'joint_R', 'joint_B', 'joint_T']","(-2, -2, 0, -3, 0, -81382, 2)","(-0.0017, 0.0017, 0.0, -0.0026, 0.0, -80.3675, -0.0029)","(-8.0, 2.0, -5.0, -20.0, 0.0, -28930.0, 0.0)","(-0.09, -0.27, 0.07, 0.2808, -0.027, -0.0972, 0.0)"
2020/05/26/02:03:49.902288,725,1590426229,846592903,,"['joint_S', 'joint_L', 'joint_E', 'joint_U', 'joint_R', 'joint_B', 'joint_T']","(-2, -2, 0, -3, 0, -82680, 2)","(-0.0017, 0.0017, 0.0, -0.0026, 0.0, -81.6494, -0.0029)","(-8.0, 2.0, -5.0, -20.0, 0.0, -28930.0, 0.0)","(-0.09, -0.27, 0.07, 0.2808, -0.027, -0.0972, 0.0)"
2020/05/26/02:03:49.959141,726,1590426229,902333021,,"['joint_S', 'joint_L', 'joint_E', 'joint_U', 'joint_R', 'joint_B', 'joint_T']","(-2, -2, 0, -3, 0, -83918, 2)","(-0.0017, 0.0017, 0.0, -0.0026, 0.0, -82.8719, -0.0029)","(-8.0, 2.0, -5.0, -20.0, 0.0, -28930.0, 0.0)","(-0.09, -0.27, 0.07, 0.2808, -0.027, -0.0972, 0.0)"
2020/05/26/02:03:50.014468,727,1590426229,959095954,,"['joint_S', 'joint_L', 'joint_E', 'joint_U', 'joint_R', 'joint_B', 'joint_T']","(-2, -2, 0, -3, 0, -85191, 2)","(-0.0017, 0.0017, 0.0, -0.0026, 0.0, -84.1291, -0.0029)","(-8.0, 2.0, -5.0, -20.0, 0.0, -28930.0, 0.0)","(-0.09, -0.27, 0.07, 0.2808, -0.027, -0.0972, 0.0)"
2020/05/26/02:03:50.071540,728,1590426230,14523029,,"['joint_S', 'joint_L', 'joint_E', 'joint_U', 'joint_R', 'joint_B', 'joint_T']","(-2, -2, 0, -3, 0, -86421, 2)","(-0.0017, 0.0017, 0.0, -0.0026, 0.0, -85.3437, -0.0029)","(-8.0, 2.0, -5.0, -20.0, 0.0, -28930.0, 0.0)","(-0.09, -0.27, 0.07, 0.2808, -0.027, -0.0972, 0.0)"
2020/05/26/02:03:50.127789,729,1590426230,71253061,,"['joint_S', 'joint_L', 'joint_E', 'joint_U', 'joint_R', 'joint_B', 'joint_T']","(-2, -2, 0, -3, 0, -87575, 2)","(-0.0017, 0.0017, 0.0, -0.0026, 0.0, -86.4833, -0.0029)","(-8.0, 2.0, -5.0, -20.0, 0.0, -28930.0, 0.0)","(-0.09, -0.27, 0.07, 0.2808, -0.027, -0.0972, 0.0)"
2020/05/26/02:03:50.182506,730,1590426230,127785921,,"['joint_S', 'joint_L', 'joint_E', 'joint_U', 'joint_R', 'joint_B', 'joint_T']","(-2, -2, 0, -3, 0, -88656, 2)","(-0.0017, 0.0017, 0.0, -0.0026, 0.0, -87.5509, -0.0029)","(2.0, 0.0, 0.0, 0.0, 0.0, -21981.0, -1.0)","(-0.09, -0.27, 0.07, 0.2808, -0.027, -0.0972, 0.0)"
2020/05/26/02:03:50.238052,731,1590426230,182442903,,"['joint_S', 'joint_L', 'joint_E', 'joint_U', 'joint_R', 'joint_B', 'joint_T']","(-2, -2, 0, -3, 0, -89528, 2)","(-0.0017, 0.0017, 0.0, -0.0026, 0.0, -88.412, -0.0029)","(2.0, 0.0, 0.0, 0.0, 0.0, -21981.0, -1.0)","(-0.09, -0.27, 0.07, 0.2808, -0.027, -0.0972, 0.0)"
2020/05/26/02:03:50.294358,732,1590426230,238043069,,"['joint_S', 'joint_L', 'joint_E', 'joint_U', 'joint_R', 'joint_B', 'joint_T']","(-2, -2, 0, -3, 0, -90262, 2)","(-0.0017, 0.0017, 0.0, -0.0026, 0.0, -89.1368, -0.0029)","(2.0, 0.0, 0.0, 0.0, 0.0, -21981.0, -1.0)","(-0.09, -0.27, 0.07, 0.2808, -0.027, -0.0972, 0.0)"
2020/05/26/02:03:50.347798,733,1590426230,294487953,,"['joint_S', 'joint_L', 'joint_E', 'joint_U', 'joint_R', 'joint_B', 'joint_T']","(-2, -2, 0, -3, 0, -90792, 2)","(-0.0017, 0.0017, 0.0, -0.0026, 0.0, -89.6602, -0.0029)","(2.0, 0.0, 0.0, 0.0, 0.0, -21981.0, -1.0)","(-0.11, -0.29, 0.07, 0.2808, -0.0324, -0.108, 0.0)"
2020/05/26/02:03:50.402122,734,1590426230,347588062,,"['joint_S', 'joint_L', 'joint_E', 'joint_U', 'joint_R', 'joint_B', 'joint_T']","(-2, -2, 0, -3, 0, -91079, 2)","(-0.0017, 0.0017, 0.0, -0.0026, 0.0, -89.9437, -0.0029)","(2.0, 0.0, 0.0, 0.0, 0.0, -21981.0, -1.0)","(-0.11, -0.29, 0.1, 0.2808, -0.0324, -0.108, 0.0)"
2020/05/26/02:03:50.461155,735,1590426230,402127981,,"['joint_S', 'joint_L', 'joint_E', 'joint_U', 'joint_R', 'joint_B', 'joint_T']","(-2, -2, 0, -3, 0, -91134, 2)","(-0.0017, 0.0017, 0.0, -0.0026, 0.0, -89.998, -0.0029)","(2.0, 0.0, 0.0, 0.0, 0.0, -21981.0, -1.0)","(-0.11, -0.29, 0.1, 0.2808, -0.0324, -0.108, 0.0)"
2020/05/26/02:03:50.516741,736,1590426230,461103916,,"['joint_S', 'joint_L', 'joint_E', 'joint_U', 'joint_R', 'joint_B', 'joint_T']","(-2, -2, 0, -3, 0, -91134, 2)","(-0.0017, 0.0017, 0.0, -0.0026, 0.0, -89.998, -0.0029)","(2.0, 0.0, 0.0, 0.0, 0.0, -21981.0, -1.0)","(-0.11, -0.29, 0.1, 0.2808, -0.0324, -0.108, 0.0)"
2020/05/26/02:03:50.574070,737,1590426230,516680002,,"['joint_S', 'joint_L', 'joint_E', 'joint_U', 'joint_R', 'joint_B', 'joint_T']","(-2, -2, 0, -3, 0, -91134, 2)","(-0.0017, 0.0017, 0.0, -0.0026, 0.0, -89.998, -0.0029)","(2.0, 0.0, 0.0, 0.0, 0.0, -21981.0, -1.0)","(-0.11, -0.29, 0.1, 0.2808, -0.0324, -0.108, 0.0)"
2020/05/26/02:03:50.631327,738,1590426230,573930025,,"['joint_S', 'joint_L', 'joint_E', 'joint_U', 'joint_R', 'joint_B', 'joint_T']","(-2, -2, 0, -3, 0, -91134, 2)","(-0.0017, 0.0017, 0.0, -0.0026, 0.0, -89.998, -0.0029)","(2.0, 0.0, 0.0, 0.0, 0.0, -21981.0, -1.0)","(-0.11, -0.29, 0.1, 0.2808, -0.0324, -0.108, 0.0)"
2020/05/26/02:03:50.690627,739,1590426230,631339073,,"['joint_S', 'joint_L', 'joint_E', 'joint_U', 'joint_R', 'joint_B', 'joint_T']","(-2, -2, 0, -3, 0, -91134, 2)","(-0.0017, 0.0017, 0.0, -0.0026, 0.0, -89.998, -0.0029)","(2.0, 0.0, 0.0, 0.0, 0.0, -21981.0, -1.0)","(-0.11, -0.29, 0.1, 0.2808, -0.0324, -0.108, 0.0)"
2020/05/26/02:03:50.745788,740,1590426230,690702915,,"['joint_S', 'joint_L', 'joint_E', 'joint_U', 'joint_R', 'joint_B', 'joint_T']","(-2, -2, 0, -3, 0, -91134, 2)","(-0.0017, 0.0017, 0.0, -0.0026, 0.0, -89.998, -0.0029)","(2.0, 0.0, 0.0, 0.0, 0.0, -21981.0, -1.0)","(-0.11, -0.29, 0.1, 0.2808, -0.0324, -0.108, 0.0)"
2020/05/26/02:03:50.802440,741,1590426230,745764970,,"['joint_S', 'joint_L', 'joint_E', 'joint_U', 'joint_R', 'joint_B', 'joint_T']","(-2, -2, 0, -3, 0, -91134, 2)","(-0.0017, 0.0017, 0.0, -0.0026, 0.0, -89.998, -0.0029)","(2.0, 0.0, 0.0, 0.0, 0.0, -21981.0, -1.0)","(-0.11, -0.29, 0.1, 0.2808, -0.0324, -0.108, 0.0)"
2020/05/26/02:03:50.860114,742,1590426230,802177906,,"['joint_S', 'joint_L', 'joint_E', 'joint_U', 'joint_R', 'joint_B', 'joint_T']","(-2, -2, 0, -3, 0, -91134, 2)","(-0.0017, 0.0017, 0.0, -0.0026, 0.0, -89.998, -0.0029)","(2.0, 0.0, 0.0, 0.0, 0.0, -21981.0, -1.0)","(-0.11, -0.29, 0.1, 0.2808, -0.0324, -0.108, 0.0)"
2020/05/26/02:03:50.916814,743,1590426230,860003948,,"['joint_S', 'joint_L', 'joint_E', 'joint_U', 'joint_R', 'joint_B', 'joint_T']","(-2, -2, 0, -3, 0, -91134, 2)","(-0.0017, 0.0017, 0.0, -0.0026, 0.0, -89.998, -0.0029)","(2.0, 0.0, 0.0, 0.0, 0.0, -21981.0, -1.0)","(-0.11, -0.29, 0.1, 0.2808, -0.0324, -0.108, 0.0)"
2020/05/26/02:03:50.973221,744,1590426230,916805028,,"['joint_S', 'joint_L', 'joint_E', 'joint_U', 'joint_R', 'joint_B', 'joint_T']","(-2, -2, 0, -3, 0, -91134, 2)","(-0.0017, 0.0017, 0.0, -0.0026, 0.0, -89.998, -0.0029)","(2.0, 0.0, 0.0, 0.0, 0.0, -21981.0, -1.0)","(-0.11, -0.29, 0.1, 0.2808, -0.0324, -0.108, 0.0)"
2020/05/26/02:03:51.030138,745,1590426230,973213911,,"['joint_S', 'joint_L', 'joint_E', 'joint_U', 'joint_R', 'joint_B', 'joint_T']","(-2, -2, 0, -3, 0, -91134, 2)","(-0.0017, 0.0017, 0.0, -0.0026, 0.0, -89.998, -0.0029)","(4.0, 4.0, 0.0, -40.0, 0.0, -21981.0, -1.0)","(-0.11, -0.29, 0.1, 0.2808, -0.0324, -0.108, 0.0)"
2020/05/26/02:03:51.088471,746,1590426231,30265092,,"['joint_S', 'joint_L', 'joint_E', 'joint_U', 'joint_R', 'joint_B', 'joint_T']","(-2, -2, 0, -3, 0, -91134, 2)","(-0.0017, 0.0017, 0.0, -0.0026, 0.0, -89.998, -0.0029)","(4.0, 4.0, -2.0, -40.0, 0.0, 29.0, 0.0)","(-0.11, -0.29, 0.1, 0.2808, -0.0324, -0.108, 0.0)"
2020/05/26/02:03:51.145124,747,1590426231,88350057,,"['joint_S', 'joint_L', 'joint_E', 'joint_U', 'joint_R', 'joint_B', 'joint_T']","(-2, -2, 0, -3, 0, -91134, 2)","(-0.0017, 0.0017, 0.0, -0.0026, 0.0, -89.998, -0.0029)","(4.0, 4.0, -2.0, -40.0, 0.0, 29.0, 0.0)","(-0.11, -0.29, 0.1, 0.2808, -0.0324, -0.108, 0.0)"
2020/05/26/02:03:51.201785,748,1590426231,144792079,,"['joint_S', 'joint_L', 'joint_E', 'joint_U', 'joint_R', 'joint_B', 'joint_T']","(-2, -2, 0, -3, 0, -91134, 2)","(-0.0017, 0.0017, 0.0, -0.0026, 0.0, -89.998, -0.0029)","(4.0, 4.0, -2.0, -40.0, 0.0, 29.0, 0.0)","(-0.07, -0.24, 0.1, 0.1836, -0.0324, -0.108, 0.0)"
2020/05/26/02:03:51.258980,749,1590426231,201693058,,"['joint_S', 'joint_L', 'joint_E', 'joint_U', 'joint_R', 'joint_B', 'joint_T']","(-2, -2, 0, -3, 0, -91134, 2)","(-0.0017, 0.0017, 0.0, -0.0026, 0.0, -89.998, -0.0029)","(4.0, 4.0, -2.0, -40.0, 0.0, 29.0, 0.0)","(-0.07, -0.24, 0.07, 0.1836, -0.0324, -0.072, 0.0)"
2020/05/26/02:03:51.315985,750,1590426231,259052038,,"['joint_S', 'joint_L', 'joint_E', 'joint_U', 'joint_R', 'joint_B', 'joint_T']","(-2, -2, 0, -3, 0, -91134, 2)","(-0.0017, 0.0017, 0.0, -0.0026, 0.0, -89.998, -0.0029)","(4.0, 4.0, -2.0, -40.0, 0.0, 29.0, 0.0)","(-0.07, -0.24, 0.07, 0.1836, -0.0324, -0.072, 0.0)"
2020/05/26/02:03:51.373555,751,1590426231,315745115,,"['joint_S', 'joint_L', 'joint_E', 'joint_U', 'joint_R', 'joint_B', 'joint_T']","(-2, -2, 0, -3, 0, -91134, 2)","(-0.0017, 0.0017, 0.0, -0.0026, 0.0, -89.998, -0.0029)","(4.0, 4.0, -2.0, -40.0, 0.0, 29.0, 0.0)","(-0.07, -0.24, 0.07, 0.1836, -0.0324, -0.072, 0.0)"
2020/05/26/02:03:51.430552,752,1590426231,373603105,,"['joint_S', 'joint_L', 'joint_E', 'joint_U', 'joint_R', 'joint_B', 'joint_T']","(-2, -2, 0, -3, 0, -91134, 2)","(-0.0017, 0.0017, 0.0, -0.0026, 0.0, -89.998, -0.0029)","(4.0, 4.0, -2.0, -40.0, 0.0, 29.0, 0.0)","(-0.07, -0.24, 0.07, 0.1836, -0.0324, -0.072, 0.0)"
2020/05/26/02:03:51.489018,753,1590426231,430726051,,"['joint_S', 'joint_L', 'joint_E', 'joint_U', 'joint_R', 'joint_B', 'joint_T']","(-2, -2, 0, -3, 0, -91134, 2)","(-0.0017, 0.0017, 0.0, -0.0026, 0.0, -89.998, -0.0029)","(4.0, 4.0, -2.0, -40.0, 0.0, 29.0, 0.0)","(-0.07, -0.24, 0.07, 0.1836, -0.0324, -0.072, 0.0)"
2020/05/26/02:03:51.545464,754,1590426231,489028930,,"['joint_S', 'joint_L', 'joint_E', 'joint_U', 'joint_R', 'joint_B', 'joint_T']","(-2, -2, 0, -3, 0, -91134, 2)","(-0.0017, 0.0017, 0.0, -0.0026, 0.0, -89.998, -0.0029)","(4.0, 4.0, -2.0, -40.0, 0.0, 29.0, 0.0)","(-0.07, -0.24, 0.07, 0.1836, -0.0324, -0.072, 0.0)"
2020/05/26/02:03:51.603034,755,1590426231,545599937,,"['joint_S', 'joint_L', 'joint_E', 'joint_U', 'joint_R', 'joint_B', 'joint_T']","(-2, -2, 0, -3, 0, -91134, 2)","(-0.0017, 0.0017, 0.0, -0.0026, 0.0, -89.998, -0.0029)","(4.0, 4.0, -2.0, -40.0, 0.0, 29.0, 0.0)","(-0.07, -0.24, 0.07, 0.1836, -0.0324, -0.072, 0.0)"
2020/05/26/02:03:51.658684,756,1590426231,603143930,,"['joint_S', 'joint_L', 'joint_E', 'joint_U', 'joint_R', 'joint_B', 'joint_T']","(-2, -2, 0, -3, 0, -91134, 2)","(-0.0017, 0.0017, 0.0, -0.0026, 0.0, -89.998, -0.0029)","(4.0, 4.0, -2.0, -40.0, 0.0, 29.0, 0.0)","(-0.07, -0.24, 0.07, 0.1836, -0.0324, -0.072, 0.0)"
2020/05/26/02:03:51.717340,757,1590426231,658499002,,"['joint_S', 'joint_L', 'joint_E', 'joint_U', 'joint_R', 'joint_B', 'joint_T']","(-2, -2, 0, -3, 0, -91134, 2)","(-0.0017, 0.0017, 0.0, -0.0026, 0.0, -89.998, -0.0029)","(4.0, 4.0, -2.0, -40.0, 0.0, 29.0, 0.0)","(-0.07, -0.24, 0.07, 0.1836, -0.0324, -0.072, 0.0)"
2020/05/26/02:03:51.774023,758,1590426231,717274904,,"['joint_S', 'joint_L', 'joint_E', 'joint_U', 'joint_R', 'joint_B', 'joint_T']","(-2, -2, 0, -3, 0, -91134, 2)","(-0.0017, 0.0017, 0.0, -0.0026, 0.0, -89.998, -0.0029)","(4.0, 4.0, -2.0, -40.0, 0.0, 29.0, 0.0)","(-0.07, -0.24, 0.07, 0.1836, -0.0324, -0.072, 0.0)"
2020/05/26/02:03:51.830441,759,1590426231,773966073,,"['joint_S', 'joint_L', 'joint_E', 'joint_U', 'joint_R', 'joint_B', 'joint_T']","(-6, 2, -4, 1, -1, -91134, 6)","(-0.0052, -0.0017, -0.0034, 0.0008, 0.0008, -89.998, -0.0089)","(4.0, 4.0, -2.0, -40.0, 0.0, 29.0, 0.0)","(-0.07, -0.24, 0.07, 0.1836, -0.0324, -0.072, 0.0)"
2020/05/26/02:03:51.887158,760,1590426231,830245971,,"['joint_S', 'joint_L', 'joint_E', 'joint_U', 'joint_R', 'joint_B', 'joint_T']","(-103, 108, -97, 75, -32, -91111, 116)","(-0.0896, -0.0939, -0.0844, 0.0652, 0.0278, -89.9753, -0.1728)","(-65.0, 114.0, -2.0, -40.0, 0.0, 29.0, 0.0)","(-0.07, -0.24, 0.07, 0.1836, -0.0324, -0.072, 0.0)"
2020/05/26/02:03:51.943910,761,1590426231,887360095,,"['joint_S', 'joint_L', 'joint_E', 'joint_U', 'joint_R', 'joint_B', 'joint_T']","(-315, 340, -302, 237, -99, -91058, 356)","(-0.2741, -0.2958, -0.2628, 0.2062, 0.0861, -89.9229, -0.5303)","(-65.0, 114.0, -505.0, 89.0, -40.0, 139.0, 442.0)","(-0.07, -0.24, 0.07, 0.1836, -0.0324, -0.072, 0.0)"
2020/05/26/02:03:52.000726,762,1590426231,944013118,,"['joint_S', 'joint_L', 'joint_E', 'joint_U', 'joint_R', 'joint_B', 'joint_T']","(-640, 694, -614, 485, -202, -90978, 723)","(-0.5569, -0.6039, -0.5343, 0.422, 0.1757, -89.8439, -1.077)","(-65.0, 114.0, -505.0, 89.0, -40.0, 139.0, 442.0)","(-0.07, -0.24, 0.07, 0.1836, -0.0324, -0.072, 0.0)"
2020/05/26/02:03:52.057784,763,1590426232,727891,,"['joint_S', 'joint_L', 'joint_E', 'joint_U', 'joint_R', 'joint_B', 'joint_T']","(-1038, 1127, -997, 789, -328, -90880, 1173)","(-0.9032, -0.9807, -0.8675, 0.6865, 0.2854, -89.7471, -1.7473)","(-65.0, 114.0, -505.0, 89.0, -40.0, 139.0, 442.0)","(-0.2, -0.09, 0.07, 0.1836, -0.0324, -0.072, 0.0)"
2020/05/26/02:03:52.114741,764,1590426232,57797908,,"['joint_S', 'joint_L', 'joint_E', 'joint_U', 'joint_R', 'joint_B', 'joint_T']","(-1519, 1652, -1461, 1156, -480, -90761, 1717)","(-1.3218, -1.4375, -1.2713, 1.0059, 0.4176, -89.6296, -2.5577)","(-65.0, 114.0, -505.0, 89.0, -40.0, 139.0, 442.0)","(-0.2, -0.09, -0.15, 0.3132, 0.1188, 0.09, 0.0864)"
2020/05/26/02:03:52.170475,765,1590426232,114793062,,"['joint_S', 'joint_L', 'joint_E', 'joint_U', 'joint_R', 'joint_B', 'joint_T']","(-2071, 2254, -1992, 1578, -655, -90625, 2341)","(-1.8021, -1.9614, -1.7334, 1.3731, 0.5699, -89.4953, -3.4873)","(-65.0, 114.0, -505.0, 89.0, -40.0, 139.0, 442.0)","(-0.2, -0.09, -0.15, 0.3132, 0.1188, 0.09, 0.0864)"
2020/05/26/02:03:52.227526,766,1590426232,170468091,,"['joint_S', 'joint_L', 'joint_E', 'joint_U', 'joint_R', 'joint_B', 'joint_T']","(-2835, 3087, -2727, 2161, -897, -90437, 3205)","(-2.467, -2.6863, -2.373, 1.8805, 0.7805, -89.3097, -4.7743)","(-65.0, 114.0, -505.0, 89.0, -40.0, 139.0, 442.0)","(-0.2, -0.09, -0.15, 0.3132, 0.1188, 0.09, 0.0864)"
2020/05/26/02:03:52.286186,767,1590426232,227581024,,"['joint_S', 'joint_L', 'joint_E', 'joint_U', 'joint_R', 'joint_B', 'joint_T']","(-3663, 3990, -3525, 2793, -1160, -90232, 4141)","(-3.1875, -3.4721, -3.0674, 2.4304, 1.0094, -89.1072, -6.1687)","(-65.0, 114.0, -505.0, 89.0, -40.0, 139.0, 442.0)","(-0.2, -0.09, -0.15, 0.3132, 0.1188, 0.09, 0.0864)"
2020/05/26/02:03:52.342151,768,1590426232,286283969,,"['joint_S', 'joint_L', 'joint_E', 'joint_U', 'joint_R', 'joint_B', 'joint_T']","(-4627, 5041, -4453, 3530, -1465, -89994, 5231)","(-4.0264, -4.3866, -3.875, 3.0718, 1.2748, -88.8722, -7.7924)","(-65.0, 114.0, -505.0, 89.0, -40.0, 139.0, 442.0)","(-0.2, -0.09, -0.15, 0.3132, 0.1188, 0.09, 0.0864)"
2020/05/26/02:03:52.398865,769,1590426232,342200994,,"['joint_S', 'joint_L', 'joint_E', 'joint_U', 'joint_R', 'joint_B', 'joint_T']","(-5581, 6081, -5371, 4258, -1767, -89759, 6309)","(-4.8566, -5.2917, -4.6738, 3.7053, 1.5376, -88.6401, -9.3983)","(-65.0, 114.0, -505.0, 89.0, -40.0, 139.0, 442.0)","(-0.2, -0.09, -0.15, 0.3132, 0.1188, 0.09, 0.0864)"
2020/05/26/02:03:52.454821,770,1590426232,398983955,,"['joint_S', 'joint_L', 'joint_E', 'joint_U', 'joint_R', 'joint_B', 'joint_T']","(-6540, 7126, -6294, 4990, -2071, -89523, 7393)","(-5.6911, -6.201, -5.477, 4.3423, 1.8021, -88.4071, -11.0131)","(-65.0, 114.0, -505.0, 89.0, -40.0, 139.0, 442.0)","(-0.2, -0.09, -0.15, 0.3132, 0.1188, 0.09, 0.0864)"
2020/05/26/02:03:52.511261,771,1590426232,454900026,,"['joint_S', 'joint_L', 'joint_E', 'joint_U', 'joint_R', 'joint_B', 'joint_T']","(-7530, 8206, -7247, 5745, -2385, -89278, 8512)","(-6.5526, -7.1408, -6.3063, 4.9993, 2.0754, -88.1651, -12.68)","(-65.0, 114.0, -505.0, 89.0, -40.0, 139.0, 442.0)","(-0.2, -0.09, -0.15, 0.3132, 0.1188, 0.09, 0.0864)"
2020/05/26/02:03:52.568069,772,1590426232,511311054,,"['joint_S', 'joint_L', 'joint_E', 'joint_U', 'joint_R', 'joint_B', 'joint_T']","(-8486, 9249, -8168, 6476, -2688, -89042, 9594)","(-7.3845, -8.0485, -7.1078, 5.6354, 2.3391, -87.9321, -14.2919)","(-65.0, 114.0, -505.0, 89.0, -40.0, 139.0, 442.0)","(-0.2, -0.09, -0.15, 0.3132, 0.1188, 0.09, 0.0864)"
2020/05/26/02:03:52.625860,773,1590426232,568151950,,"['joint_S', 'joint_L', 'joint_E', 'joint_U', 'joint_R', 'joint_B', 'joint_T']","(-9434, 10282, -9081, 7200, -2988, -88809, 10665)","(-8.2095, -8.9474, -7.9023, 6.2654, 2.6001, -87.702, -15.8873)","(-65.0, 114.0, -505.0, 89.0, -40.0, 139.0, 442.0)","(-0.2, -0.09, -0.15, 0.3132, 0.1188, 0.09, 0.0864)"
2020/05/26/02:03:52.682784,774,1590426232,625861883,,"['joint_S', 'joint_L', 'joint_E', 'joint_U', 'joint_R', 'joint_B', 'joint_T']","(-10415, 11351, -10025, 7948, -3299, -88567, 11774)","(-9.0631, -9.8776, -8.7237, 6.9163, 2.8708, -87.463, -17.5393)","(-65.0, 114.0, -505.0, 89.0, -40.0, 139.0, 442.0)","(-0.2, -0.09, -0.15, 0.3132, 0.1188, 0.09, 0.0864)"
2020/05/26/02:03:52.739480,775,1590426232,682696104,,"['joint_S', 'joint_L', 'joint_E', 'joint_U', 'joint_R', 'joint_B', 'joint_T']","(-11371, 12394, -10946, 8679, -3602, -88331, 12856)","(-9.895, -10.7853, -9.5252, 7.5525, 3.1344, -87.2299, -19.1512)","(-65.0, 114.0, -505.0, 89.0, -40.0, 139.0, 442.0)","(-0.2, -0.09, -0.15, 0.3132, 0.1188, 0.09, 0.0864)"
2020/05/26/02:03:52.795591,776,1590426232,739620923,,"['joint_S', 'joint_L', 'joint_E', 'joint_U', 'joint_R', 'joint_B', 'joint_T']","(-12325, 13435, -11864, 9407, -3904, -88095, 13934)","(-10.7252, -11.6911, -10.3241, 8.186, 3.3972, -86.9969, -20.757)","(-16923.0, 18454.0, -505.0, 12931.0, -5361.0, 4184.0, 19095.0)","(-0.2, -0.09, -0.15, 0.3132, 0.1188, 0.09, 0.0864)"
2020/05/26/02:03:52.850858,777,1590426232,795381069,,"['joint_S', 'joint_L', 'joint_E', 'joint_U', 'joint_R', 'joint_B', 'joint_T']","(-13270, 14465, -12774, 10129, -4204, -87862, 15002)","(-11.5476, -12.5875, -11.1159, 8.8142, 3.6583, -86.7668, -22.348)","(-16923.0, 18454.0, -16299.0, 12931.0, -5361.0, 4184.0, 19095.0)","(-0.2, -0.09, -0.15, 0.3132, 0.1188, 0.09, 0.0864)"
2020/05/26/02:03:52.908509,778,1590426232,850778102,,"['joint_S', 'joint_L', 'joint_E', 'joint_U', 'joint_R', 'joint_B', 'joint_T']","(-14221, 15502, -13690, 10855, -4505, -87628, 16078)","(-12.3751, -13.4899, -11.913, 9.446, 3.9202, -86.5357, -23.9509)","(-16923.0, 18454.0, -16299.0, 12931.0, -5361.0, 4184.0, 19095.0)","(-0.2, -0.09, -0.15, 0.3132, 0.1188, 0.09, 0.0864)"
2020/05/26/02:03:52.965090,779,1590426232,908631086,,"['joint_S', 'joint_L', 'joint_E', 'joint_U', 'joint_R', 'joint_B', 'joint_T']","(-15213, 16583, -14644, 11612, -4819, -87383, 17198)","(-13.2384, -14.4305, -12.7432, 10.1048, 4.1935, -86.2937, -25.6193)","(-16923.0, 18454.0, -16299.0, 12931.0, -5361.0, 4184.0, 19095.0)","(-0.21, -0.15, -0.15, 0.3078, 0.0972, 0.0684, 0.0936)"
2020/05/26/02:03:53.021322,780,1590426232,965159893,,"['joint_S', 'joint_L', 'joint_E', 'joint_U', 'joint_R', 'joint_B', 'joint_T']","(-16185, 17643, -15580, 12354, -5127, -87143, 18298)","(-14.0842, -15.353, -13.5577, 10.7505, 4.4615, -86.0567, -27.258)","(-16923.0, 18454.0, -16299.0, 12931.0, -5361.0, 4184.0, 19095.0)","(-0.21, -0.15, -0.16, 0.3078, 0.0972, 0.0684, 0.0936)"
2020/05/26/02:03:53.077385,781,1590426233,21425962,,"['joint_S', 'joint_L', 'joint_E', 'joint_U', 'joint_R', 'joint_B', 'joint_T']","(-17136, 18680, -16496, 13081, -5429, -86909, 19373)","(-14.9118, -16.2554, -14.3548, 11.3831, 4.7243, -85.8256, -28.8594)","(-16923.0, 18454.0, -16299.0, 12931.0, -5361.0, 4184.0, 19095.0)","(-0.21, -0.15, -0.16, 0.3078, 0.0972, 0.0684, 0.0936)"
2020/05/26/02:03:53.133839,782,1590426233,77299118,,"['joint_S', 'joint_L', 'joint_E', 'joint_U', 'joint_R', 'joint_B', 'joint_T']","(-17994, 19616, -17322, 13736, -5700, -86697, 20343)","(-15.6584, -17.0699, -15.0736, 11.9531, 4.9601, -85.6163, -30.3043)","(-16923.0, 18454.0, -16299.0, 12931.0, -5361.0, 4184.0, 19095.0)","(-0.21, -0.15, -0.16, 0.3078, 0.0972, 0.0684, 0.0936)"
2020/05/26/02:03:53.190921,783,1590426233,133869886,,"['joint_S', 'joint_L', 'joint_E', 'joint_U', 'joint_R', 'joint_B', 'joint_T']","(-18712, 20398, -18013, 14283, -5928, -86520, 21154)","(-16.2832, -17.7504, -15.6749, 12.4291, 5.1585, -85.4415, -31.5125)","(-16923.0, 18454.0, -16299.0, 12931.0, -5361.0, 4184.0, 19095.0)","(-0.21, -0.15, -0.16, 0.3078, 0.0972, 0.0684, 0.0936)"
2020/05/26/02:03:53.247449,784,1590426233,191059112,,"['joint_S', 'joint_L', 'joint_E', 'joint_U', 'joint_R', 'joint_B', 'joint_T']","(-19247, 20981, -18528, 14692, -6097, -86388, 21759)","(-16.7488, -18.2577, -16.1231, 12.785, 5.3056, -85.3111, -32.4137)","(-16923.0, 18454.0, -16299.0, 12931.0, -5361.0, 4184.0, 19095.0)","(-0.21, -0.15, -0.16, 0.3078, 0.0972, 0.0684, 0.0936)"
2020/05/26/02:03:53.303879,785,1590426233,247459888,,"['joint_S', 'joint_L', 'joint_E', 'joint_U', 'joint_R', 'joint_B', 'joint_T']","(-19722, 21499, -18985, 15055, -6248, -86271, 22296)","(-17.1621, -18.7085, -16.5208, 13.1009, 5.437, -85.1956, -33.2137)","(-16923.0, 18454.0, -16299.0, 12931.0, -5361.0, 4184.0, 19095.0)","(-0.21, -0.15, -0.16, 0.3078, 0.0972, 0.0684, 0.0936)"
2020/05/26/02:03:53.361317,786,1590426233,303913116,,"['joint_S', 'joint_L', 'joint_E', 'joint_U', 'joint_R', 'joint_B', 'joint_T']","(-20108, 21921, -19357, 15350, -6370, -86175, 22733)","(-17.498, -19.0757, -16.8445, 13.3576, 5.5432, -85.1008, -33.8647)","(-16923.0, 18454.0, -16299.0, 12931.0, -5361.0, 4184.0, 19095.0)","(-0.21, -0.15, -0.16, 0.3078, 0.0972, 0.0684, 0.0936)"
2020/05/26/02:03:53.419127,787,1590426233,361269950,,"['joint_S', 'joint_L', 'joint_E', 'joint_U', 'joint_R', 'joint_B', 'joint_T']","(-20418, 22258, -19655, 15586, -6468, -86099, 23083)","(-17.7678, -19.369, -17.1038, 13.563, 5.6284, -85.0257, -34.386)","(-16923.0, 18454.0, -16299.0, 12931.0, -5361.0, 4184.0, 19095.0)","(-0.21, -0.15, -0.16, 0.3078, 0.0972, 0.0684, 0.0936)"
2020/05/26/02:03:53.476101,788,1590426233,419241905,,"['joint_S', 'joint_L', 'joint_E', 'joint_U', 'joint_R', 'joint_B', 'joint_T']","(-20613, 22471, -19843, 15735, -6530, -86051, 23304)","(-17.9375, -19.5543, -17.2674, 13.6926, 5.6824, -84.9783, -34.7153)","(-16923.0, 18454.0, -16299.0, 12931.0, -5361.0, 4184.0, 19095.0)","(-0.21, -0.15, -0.16, 0.3078, 0.0972, 0.0684, 0.0936)"
2020/05/26/02:03:53.535642,789,1590426233,476129055,,"['joint_S', 'joint_L', 'joint_E', 'joint_U', 'joint_R', 'joint_B', 'joint_T']","(-20692, 22557, -19919, 15795, -6555, -86032, 23393)","(-18.0062, -19.6291, -17.3335, 13.7448, 5.7041, -84.9596, -34.8478)","(-16923.0, 18454.0, -16299.0, 12931.0, -5361.0, 4184.0, 19095.0)","(-0.21, -0.15, -0.16, 0.3078, 0.0972, 0.0684, 0.0936)"
2020/05/26/02:03:53.594438,790,1590426233,535808086,,"['joint_S', 'joint_L', 'joint_E', 'joint_U', 'joint_R', 'joint_B', 'joint_T']","(-20692, 22557, -19919, 15796, -6555, -86032, 23393)","(-18.0062, -19.6291, -17.3335, 13.7457, 5.7041, -84.9596, -34.8478)","(-16923.0, 18454.0, -16299.0, 12931.0, -5361.0, 4184.0, 19095.0)","(-0.21, -0.15, -0.16, 0.3078, 0.0972, 0.0684, 0.0936)"
2020/05/26/02:03:53.651495,791,1590426233,594232082,,"['joint_S', 'joint_L', 'joint_E', 'joint_U', 'joint_R', 'joint_B', 'joint_T']","(-20692, 22557, -19919, 15796, -6555, -86032, 23393)","(-18.0062, -19.6291, -17.3335, 13.7457, 5.7041, -84.9596, -34.8478)","(-2430.0, 2396.0, -16299.0, 1512.0, -550.0, 4184.0, 19095.0)","(-0.21, -0.15, -0.16, 0.3078, 0.0972, 0.0684, 0.0936)"
2020/05/26/02:03:53.709750,792,1590426233,651546001,,"['joint_S', 'joint_L', 'joint_E', 'joint_U', 'joint_R', 'joint_B', 'joint_T']","(-20692, 22557, -19919, 15796, -6555, -86032, 23393)","(-18.0062, -19.6291, -17.3335, 13.7457, 5.7041, -84.9596, -34.8478)","(-2430.0, 2396.0, -1149.0, 1512.0, -550.0, 441.0, 1470.0)","(-0.21, -0.15, -0.16, 0.3078, 0.0972, 0.0684, 0.0936)"
2020/05/26/02:03:53.768256,793,1590426233,709861040,,"['joint_S', 'joint_L', 'joint_E', 'joint_U', 'joint_R', 'joint_B', 'joint_T']","(-20692, 22557, -19919, 15796, -6555, -86032, 23393)","(-18.0062, -19.6291, -17.3335, 13.7457, 5.7041, -84.9596, -34.8478)","(-2430.0, 2396.0, -1149.0, 1512.0, -550.0, 441.0, 1470.0)","(-0.21, -0.15, -0.16, 0.3078, 0.0972, 0.0684, 0.0936)"
2020/05/26/02:03:53.825607,794,1590426233,768318891,,"['joint_S', 'joint_L', 'joint_E', 'joint_U', 'joint_R', 'joint_B', 'joint_T']","(-20692, 22557, -19919, 15796, -6555, -86032, 23393)","(-18.0062, -19.6291, -17.3335, 13.7457, 5.7041, -84.9596, -34.8478)","(-2430.0, 2396.0, -1149.0, 1512.0, -550.0, 441.0, 1470.0)","(-0.15, -0.16, -0.16, 0.324, 0.1134, 0.0828, 0.0936)"
2020/05/26/02:03:53.884126,795,1590426233,825355052,,"['joint_S', 'joint_L', 'joint_E', 'joint_U', 'joint_R', 'joint_B', 'joint_T']","(-20692, 22557, -19919, 15796, -6555, -86032, 23393)","(-18.0062, -19.6291, -17.3335, 13.7457, 5.7041, -84.9596, -34.8478)","(-2430.0, 2396.0, -1149.0, 1512.0, -550.0, 441.0, 1470.0)","(-0.15, -0.16, -0.15, 0.324, 0.1134, 0.0828, 0.0648)"
