time,.header.seq,.header.stamp.secs,.header.stamp.nsecs,.header.frame_id,.name,.pulse,.position,.velocity,.torque
2020/05/26/02:02:25.268623,1,1590426145,213561058,,"['joint_S', 'joint_L', 'joint_E', 'joint_U', 'joint_R', 'joint_B', 'joint_T']","(2, -5, -1, -5, 6, 5, 3)","(0.0017, 0.0043, -0.0008, -0.0043, -0.0052, 0.0049, -0.0044)","(0.0, 0.0, 0.0, 0.0, 0.0, 5.0, -3.0)","(-0.08, -0.3, 0.02, 0.2754, -0.0216, 0.0432, 0.0144)"
2020/05/26/02:02:25.324937,2,1590426145,268455982,,"['joint_S', 'joint_L', 'joint_E', 'joint_U', 'joint_R', 'joint_B', 'joint_T']","(2, -5, -1, -5, 6, 5, 3)","(0.0017, 0.0043, -0.0008, -0.0043, -0.0052, 0.0049, -0.0044)","(0.0, 0.0, 0.0, 0.0, 0.0, 5.0, -3.0)","(-0.08, -0.3, 0.02, 0.2754, -0.0216, 0.0432, 0.0144)"
2020/05/26/02:02:25.379064,3,1590426145,325169086,,"['joint_S', 'joint_L', 'joint_E', 'joint_U', 'joint_R', 'joint_B', 'joint_T']","(2, -5, -1, -5, 6, 5, 3)","(0.0017, 0.0043, -0.0008, -0.0043, -0.0052, 0.0049, -0.0044)","(0.0, 0.0, 0.0, 0.0, 0.0, 5.0, -3.0)","(-0.08, -0.3, 0.02, 0.2754, -0.0216, 0.0432, 0.0144)"
2020/05/26/02:02:25.435942,4,1590426145,378849029,,"['joint_S', 'joint_L', 'joint_E', 'joint_U', 'joint_R', 'joint_B', 'joint_T']","(2, -5, -1, -5, 6, 5, 3)","(0.0017, 0.0043, -0.0008, -0.0043, -0.0052, 0.0049, -0.0044)","(0.0, 0.0, 0.0, 0.0, 0.0, 5.0, -3.0)","(-0.08, -0.3, 0.02, 0.2754, -0.0216, 0.0432, 0.0144)"
2020/05/26/02:02:25.490779,5,1590426145,435723066,,"['joint_S', 'joint_L', 'joint_E', 'joint_U', 'joint_R', 'joint_B', 'joint_T']","(2, -5, -1, -5, 6, 5, 3)","(0.0017, 0.0043, -0.0008, -0.0043, -0.0052, 0.0049, -0.0044)","(0.0, 0.0, 0.0, 0.0, 0.0, 5.0, -3.0)","(-0.08, -0.3, 0.02, 0.2754, -0.0216, 0.0432, 0.0144)"
2020/05/26/02:02:25.546818,6,1590426145,490845918,,"['joint_S', 'joint_L', 'joint_E', 'joint_U', 'joint_R', 'joint_B', 'joint_T']","(2, -5, -1, -5, 6, 5, 3)","(0.0017, 0.0043, -0.0008, -0.0043, -0.0052, 0.0049, -0.0044)","(0.0, 0.0, 0.0, 0.0, 0.0, 5.0, -3.0)","(-0.08, -0.3, 0.02, 0.2754, -0.0216, 0.0432, 0.0144)"
2020/05/26/02:02:25.602196,7,1590426145,546901941,,"['joint_S', 'joint_L', 'joint_E', 'joint_U', 'joint_R', 'joint_B', 'joint_T']","(2, -5, -1, -5, 6, 5, 3)","(0.0017, 0.0043, -0.0008, -0.0043, -0.0052, 0.0049, -0.0044)","(0.0, 0.0, 0.0, 0.0, 0.0, 3.0, -2.0)","(-0.08, -0.3, 0.02, 0.2754, -0.0216, 0.0432, 0.0144)"
2020/05/26/02:02:25.660153,8,1590426145,602291107,,"['joint_S', 'joint_L', 'joint_E', 'joint_U', 'joint_R', 'joint_B', 'joint_T']","(2, -5, -1, -5, 6, 5, 3)","(0.0017, 0.0043, -0.0008, -0.0043, -0.0052, 0.0049, -0.0044)","(0.0, 0.0, 0.0, 0.0, 0.0, 3.0, -2.0)","(-0.08, -0.3, 0.02, 0.2754, -0.0216, 0.0432, 0.0144)"
2020/05/26/02:02:25.715770,9,1590426145,659845113,,"['joint_S', 'joint_L', 'joint_E', 'joint_U', 'joint_R', 'joint_B', 'joint_T']","(2, -5, -1, -5, 6, 5, 3)","(0.0017, 0.0043, -0.0008, -0.0043, -0.0052, 0.0049, -0.0044)","(0.0, 0.0, 0.0, 0.0, 0.0, 3.0, -2.0)","(-0.08, -0.3, 0.02, 0.2754, -0.0216, 0.0432, 0.0144)"
2020/05/26/02:02:25.773924,10,1590426145,715581893,,"['joint_S', 'joint_L', 'joint_E', 'joint_U', 'joint_R', 'joint_B', 'joint_T']","(2, -5, -1, -5, 6, 5, 3)","(0.0017, 0.0043, -0.0008, -0.0043, -0.0052, 0.0049, -0.0044)","(0.0, 0.0, 0.0, 0.0, 0.0, 3.0, -2.0)","(-0.08, -0.3, 0.02, 0.2754, -0.0216, 0.0468, 0.0108)"
2020/05/26/02:02:25.829283,11,1590426145,774079084,,"['joint_S', 'joint_L', 'joint_E', 'joint_U', 'joint_R', 'joint_B', 'joint_T']","(2, -5, -1, -5, 6, 5, 3)","(0.0017, 0.0043, -0.0008, -0.0043, -0.0052, 0.0049, -0.0044)","(0.0, 0.0, 0.0, 0.0, 0.0, 3.0, -2.0)","(-0.08, -0.3, 0.02, 0.2754, -0.0216, 0.0468, 0.0108)"
2020/05/26/02:02:25.885337,12,1590426145,829063892,,"['joint_S', 'joint_L', 'joint_E', 'joint_U', 'joint_R', 'joint_B', 'joint_T']","(2, -5, -1, -5, 6, 5, 3)","(0.0017, 0.0043, -0.0008, -0.0043, -0.0052, 0.0049, -0.0044)","(0.0, 0.0, 0.0, 0.0, 0.0, 3.0, -2.0)","(-0.08, -0.3, 0.02, 0.2754, -0.0216, 0.0468, 0.0108)"
2020/05/26/02:02:25.940509,13,1590426145,885457992,,"['joint_S', 'joint_L', 'joint_E', 'joint_U', 'joint_R', 'joint_B', 'joint_T']","(2, -5, -1, -5, 6, 5, 3)","(0.0017, 0.0043, -0.0008, -0.0043, -0.0052, 0.0049, -0.0044)","(0.0, 0.0, 0.0, 0.0, 0.0, 3.0, -2.0)","(-0.08, -0.3, 0.02, 0.2754, -0.0216, 0.0468, 0.0108)"
2020/05/26/02:02:25.997013,14,1590426145,940433025,,"['joint_S', 'joint_L', 'joint_E', 'joint_U', 'joint_R', 'joint_B', 'joint_T']","(2, -5, -1, -5, 6, 5, 3)","(0.0017, 0.0043, -0.0008, -0.0043, -0.0052, 0.0049, -0.0044)","(0.0, 0.0, 0.0, 0.0, 0.0, 3.0, -2.0)","(-0.08, -0.3, 0.02, 0.2754, -0.0216, 0.0468, 0.0108)"
2020/05/26/02:02:26.053239,15,1590426145,997104883,,"['joint_S', 'joint_L', 'joint_E', 'joint_U', 'joint_R', 'joint_B', 'joint_T']","(2, -5, -1, -5, 6, 5, 3)","(0.0017, 0.0043, -0.0008, -0.0043, -0.0052, 0.0049, -0.0044)","(0.0, 0.0, 0.0, 0.0, 0.0, 3.0, -2.0)","(-0.08, -0.3, 0.02, 0.2754, -0.0216, 0.0468, 0.0108)"
2020/05/26/02:02:26.109107,16,1590426146,53344011,,"['joint_S', 'joint_L', 'joint_E', 'joint_U', 'joint_R', 'joint_B', 'joint_T']","(2, -5, -1, -5, 6, 5, 3)","(0.0017, 0.0043, -0.0008, -0.0043, -0.0052, 0.0049, -0.0044)","(0.0, 0.0, 0.0, 0.0, 0.0, 3.0, -2.0)","(-0.08, -0.3, 0.02, 0.2754, -0.0216, 0.0468, 0.0108)"
2020/05/26/02:02:26.165469,17,1590426146,109225988,,"['joint_S', 'joint_L', 'joint_E', 'joint_U', 'joint_R', 'joint_B', 'joint_T']","(2, -5, -1, -5, 6, 5, 3)","(0.0017, 0.0043, -0.0008, -0.0043, -0.0052, 0.0049, -0.0044)","(0.0, 0.0, 0.0, 0.0, 0.0, 3.0, -2.0)","(-0.08, -0.3, 0.02, 0.2754, -0.0216, 0.0468, 0.0108)"
2020/05/26/02:02:26.220856,18,1590426146,165662050,,"['joint_S', 'joint_L', 'joint_E', 'joint_U', 'joint_R', 'joint_B', 'joint_T']","(2, -5, -1, -5, 6, 5, 3)","(0.0017, 0.0043, -0.0008, -0.0043, -0.0052, 0.0049, -0.0044)","(0.0, 0.0, 0.0, 0.0, 0.0, 3.0, -2.0)","(-0.08, -0.3, 0.02, 0.2754, -0.0216, 0.0468, 0.0108)"
2020/05/26/02:02:26.277959,19,1590426146,220679044,,"['joint_S', 'joint_L', 'joint_E', 'joint_U', 'joint_R', 'joint_B', 'joint_T']","(2, -5, -1, -5, 6, 5, 3)","(0.0017, 0.0043, -0.0008, -0.0043, -0.0052, 0.0049, -0.0044)","(0.0, 0.0, 0.0, 0.0, 0.0, 3.0, -2.0)","(-0.08, -0.3, 0.02, 0.2754, -0.0216, 0.0468, 0.0108)"
2020/05/26/02:02:26.336222,20,1590426146,277889966,,"['joint_S', 'joint_L', 'joint_E', 'joint_U', 'joint_R', 'joint_B', 'joint_T']","(2, -5, -1, -5, 6, 5, 3)","(0.0017, 0.0043, -0.0008, -0.0043, -0.0052, 0.0049, -0.0044)","(0.0, 0.0, 0.0, 0.0, 0.0, 3.0, -2.0)","(-0.08, -0.3, 0.02, 0.2754, -0.0216, 0.0468, 0.0108)"
2020/05/26/02:02:26.392175,21,1590426146,336095094,,"['joint_S', 'joint_L', 'joint_E', 'joint_U', 'joint_R', 'joint_B', 'joint_T']","(2, -5, -1, -5, 6, 5, 3)","(0.0017, 0.0043, -0.0008, -0.0043, -0.0052, 0.0049, -0.0044)","(0.0, 0.0, 0.0, 0.0, 0.0, 3.0, -2.0)","(-0.08, -0.3, 0.02, 0.2754, -0.0216, 0.0468, 0.0108)"
2020/05/26/02:02:26.447022,22,1590426146,392164945,,"['joint_S', 'joint_L', 'joint_E', 'joint_U', 'joint_R', 'joint_B', 'joint_T']","(2, -5, -1, -5, 6, 5, 3)","(0.0017, 0.0043, -0.0008, -0.0043, -0.0052, 0.0049, -0.0044)","(0.0, 0.0, 0.0, 0.0, 0.0, 3.0, -2.0)","(-0.08, -0.3, 0.02, 0.2754, -0.0216, 0.0468, 0.0108)"
2020/05/26/02:02:26.503960,23,1590426146,446847915,,"['joint_S', 'joint_L', 'joint_E', 'joint_U', 'joint_R', 'joint_B', 'joint_T']","(2, -5, -1, -5, 6, 5, 3)","(0.0017, 0.0043, -0.0008, -0.0043, -0.0052, 0.0049, -0.0044)","(0.0, 0.0, 0.0, 0.0, 0.0, 2.0, -2.0)","(-0.08, -0.3, 0.02, 0.2754, -0.0216, 0.0468, 0.0108)"
2020/05/26/02:02:26.560472,24,1590426146,503971099,,"['joint_S', 'joint_L', 'joint_E', 'joint_U', 'joint_R', 'joint_B', 'joint_T']","(2, -5, -1, -5, 6, 5, 3)","(0.0017, 0.0043, -0.0008, -0.0043, -0.0052, 0.0049, -0.0044)","(0.0, 0.0, 0.0, 0.0, 0.0, 2.0, -2.0)","(-0.08, -0.3, 0.02, 0.2754, -0.0216, 0.0468, 0.0108)"
2020/05/26/02:02:26.617052,25,1590426146,560539960,,"['joint_S', 'joint_L', 'joint_E', 'joint_U', 'joint_R', 'joint_B', 'joint_T']","(2, -5, -1, -5, 6, 5, 3)","(0.0017, 0.0043, -0.0008, -0.0043, -0.0052, 0.0049, -0.0044)","(0.0, 0.0, 0.0, 0.0, 0.0, 2.0, -2.0)","(-0.08, -0.3, 0.02, 0.2754, -0.0216, 0.0468, 0.0108)"
2020/05/26/02:02:26.674412,26,1590426146,617161989,,"['joint_S', 'joint_L', 'joint_E', 'joint_U', 'joint_R', 'joint_B', 'joint_T']","(2, -5, -1, -5, 6, 5, 3)","(0.0017, 0.0043, -0.0008, -0.0043, -0.0052, 0.0049, -0.0044)","(0.0, 0.0, 0.0, 0.0, 0.0, 2.0, -2.0)","(-0.08, -0.3, 0.02, 0.2754, -0.0216, 0.0468, 0.0072)"
2020/05/26/02:02:26.729586,27,1590426146,674252986,,"['joint_S', 'joint_L', 'joint_E', 'joint_U', 'joint_R', 'joint_B', 'joint_T']","(2, -5, -1, -5, 6, 5, 3)","(0.0017, 0.0043, -0.0008, -0.0043, -0.0052, 0.0049, -0.0044)","(0.0, 0.0, 0.0, 0.0, 0.0, 2.0, -2.0)","(-0.08, -0.3, 0.02, 0.2754, -0.0216, 0.0468, 0.0072)"
2020/05/26/02:02:26.787725,28,1590426146,729670047,,"['joint_S', 'joint_L', 'joint_E', 'joint_U', 'joint_R', 'joint_B', 'joint_T']","(2, -5, -1, -5, 6, 5, 3)","(0.0017, 0.0043, -0.0008, -0.0043, -0.0052, 0.0049, -0.0044)","(0.0, 0.0, 0.0, 0.0, 0.0, 2.0, -2.0)","(-0.08, -0.3, 0.02, 0.2754, -0.0216, 0.0468, 0.0072)"
2020/05/26/02:02:26.842237,29,1590426146,787827968,,"['joint_S', 'joint_L', 'joint_E', 'joint_U', 'joint_R', 'joint_B', 'joint_T']","(2, -5, -1, -5, 6, 5, 3)","(0.0017, 0.0043, -0.0008, -0.0043, -0.0052, 0.0049, -0.0044)","(0.0, 0.0, 0.0, 0.0, 0.0, 2.0, -2.0)","(-0.08, -0.3, 0.02, 0.2754, -0.0216, 0.0468, 0.0072)"
2020/05/26/02:02:26.898581,30,1590426146,842129945,,"['joint_S', 'joint_L', 'joint_E', 'joint_U', 'joint_R', 'joint_B', 'joint_T']","(2, -5, -1, -5, 6, 5, 3)","(0.0017, 0.0043, -0.0008, -0.0043, -0.0052, 0.0049, -0.0044)","(0.0, 0.0, 0.0, 0.0, 0.0, 2.0, -2.0)","(-0.08, -0.3, 0.02, 0.2754, -0.0216, 0.0468, 0.0072)"
2020/05/26/02:02:26.955447,31,1590426146,898540019,,"['joint_S', 'joint_L', 'joint_E', 'joint_U', 'joint_R', 'joint_B', 'joint_T']","(2, -5, -1, -5, 6, 5, 3)","(0.0017, 0.0043, -0.0008, -0.0043, -0.0052, 0.0049, -0.0044)","(0.0, 0.0, 0.0, 0.0, 0.0, 2.0, -2.0)","(-0.08, -0.3, 0.02, 0.2754, -0.0216, 0.0468, 0.0072)"
2020/05/26/02:02:27.011122,32,1590426146,955456018,,"['joint_S', 'joint_L', 'joint_E', 'joint_U', 'joint_R', 'joint_B', 'joint_T']","(2, -5, -1, -5, 6, 5, 3)","(0.0017, 0.0043, -0.0008, -0.0043, -0.0052, 0.0049, -0.0044)","(0.0, 0.0, 0.0, 0.0, 0.0, 2.0, -2.0)","(-0.08, -0.3, 0.02, 0.2754, -0.0216, 0.0468, 0.0072)"
2020/05/26/02:02:27.066487,33,1590426147,11123895,,"['joint_S', 'joint_L', 'joint_E', 'joint_U', 'joint_R', 'joint_B', 'joint_T']","(2, -5, -1, -5, 6, 5, 3)","(0.0017, 0.0043, -0.0008, -0.0043, -0.0052, 0.0049, -0.0044)","(0.0, 0.0, 0.0, 0.0, 0.0, 2.0, -2.0)","(-0.08, -0.3, 0.02, 0.2754, -0.0216, 0.0468, 0.0072)"
2020/05/26/02:02:27.122840,34,1590426147,66411018,,"['joint_S', 'joint_L', 'joint_E', 'joint_U', 'joint_R', 'joint_B', 'joint_T']","(2, -5, -1, -5, 6, 5, 3)","(0.0017, 0.0043, -0.0008, -0.0043, -0.0052, 0.0049, -0.0044)","(0.0, 0.0, 0.0, 0.0, 0.0, 2.0, -2.0)","(-0.08, -0.3, 0.02, 0.2754, -0.0216, 0.0468, 0.0072)"
2020/05/26/02:02:27.178519,35,1590426147,122584104,,"['joint_S', 'joint_L', 'joint_E', 'joint_U', 'joint_R', 'joint_B', 'joint_T']","(2, -5, -1, -5, 6, 5, 3)","(0.0017, 0.0043, -0.0008, -0.0043, -0.0052, 0.0049, -0.0044)","(0.0, 0.0, 0.0, 0.0, 0.0, 2.0, -2.0)","(-0.08, -0.3, 0.02, 0.2754, -0.0216, 0.0468, 0.0072)"
2020/05/26/02:02:27.235208,36,1590426147,178561925,,"['joint_S', 'joint_L', 'joint_E', 'joint_U', 'joint_R', 'joint_B', 'joint_T']","(2, -5, -1, -5, 6, 5, 3)","(0.0017, 0.0043, -0.0008, -0.0043, -0.0052, 0.0049, -0.0044)","(0.0, 0.0, 0.0, 0.0, 0.0, 2.0, -2.0)","(-0.08, -0.3, 0.02, 0.2754, -0.0216, 0.0468, 0.0072)"
2020/05/26/02:02:27.291984,37,1590426147,235255956,,"['joint_S', 'joint_L', 'joint_E', 'joint_U', 'joint_R', 'joint_B', 'joint_T']","(2, -5, -1, -5, 6, 5, 3)","(0.0017, 0.0043, -0.0008, -0.0043, -0.0052, 0.0049, -0.0044)","(0.0, 0.0, 0.0, 0.0, 0.0, 2.0, -2.0)","(-0.08, -0.3, 0.02, 0.2754, -0.0216, 0.0468, 0.0072)"
2020/05/26/02:02:27.346578,38,1590426147,291783094,,"['joint_S', 'joint_L', 'joint_E', 'joint_U', 'joint_R', 'joint_B', 'joint_T']","(2, -5, -1, -5, 6, 5, 3)","(0.0017, 0.0043, -0.0008, -0.0043, -0.0052, 0.0049, -0.0044)","(0.0, 0.0, 0.0, 0.0, 0.0, 1.0, -1.0)","(-0.08, -0.3, 0.02, 0.2754, -0.0216, 0.0468, 0.0072)"
2020/05/26/02:02:27.401919,39,1590426147,346627950,,"['joint_S', 'joint_L', 'joint_E', 'joint_U', 'joint_R', 'joint_B', 'joint_T']","(2, -5, -1, -5, 6, 5, 3)","(0.0017, 0.0043, -0.0008, -0.0043, -0.0052, 0.0049, -0.0044)","(0.0, 0.0, 0.0, 0.0, 0.0, 1.0, -1.0)","(-0.08, -0.3, 0.02, 0.2754, -0.0216, 0.0468, 0.0072)"
2020/05/26/02:02:27.458293,40,1590426147,401762962,,"['joint_S', 'joint_L', 'joint_E', 'joint_U', 'joint_R', 'joint_B', 'joint_T']","(2, -5, -1, -5, 6, 5, 3)","(0.0017, 0.0043, -0.0008, -0.0043, -0.0052, 0.0049, -0.0044)","(0.0, 0.0, 0.0, 0.0, 0.0, 1.0, -1.0)","(-0.08, -0.3, 0.02, 0.2754, -0.0216, 0.0468, 0.0072)"
2020/05/26/02:02:27.514560,41,1590426147,458153009,,"['joint_S', 'joint_L', 'joint_E', 'joint_U', 'joint_R', 'joint_B', 'joint_T']","(2, -5, -1, -5, 6, 5, 3)","(0.0017, 0.0043, -0.0008, -0.0043, -0.0052, 0.0049, -0.0044)","(0.0, 0.0, 0.0, 0.0, 0.0, 1.0, -1.0)","(-0.08, -0.3, 0.02, 0.2754, -0.0216, 0.0504, 0.0072)"
2020/05/26/02:02:27.569396,42,1590426147,514281988,,"['joint_S', 'joint_L', 'joint_E', 'joint_U', 'joint_R', 'joint_B', 'joint_T']","(2, -5, -1, -5, 6, 5, 3)","(0.0017, 0.0043, -0.0008, -0.0043, -0.0052, 0.0049, -0.0044)","(0.0, 0.0, 0.0, 0.0, 0.0, 1.0, -1.0)","(-0.08, -0.3, 0.02, 0.2754, -0.0216, 0.0504, 0.0072)"
2020/05/26/02:02:27.624104,43,1590426147,569309949,,"['joint_S', 'joint_L', 'joint_E', 'joint_U', 'joint_R', 'joint_B', 'joint_T']","(2, -5, -1, -5, 6, 5, 3)","(0.0017, 0.0043, -0.0008, -0.0043, -0.0052, 0.0049, -0.0044)","(0.0, 0.0, 0.0, 0.0, 0.0, 1.0, -1.0)","(-0.08, -0.3, 0.02, 0.2754, -0.0216, 0.0504, 0.0072)"
2020/05/26/02:02:27.678579,44,1590426147,624053001,,"['joint_S', 'joint_L', 'joint_E', 'joint_U', 'joint_R', 'joint_B', 'joint_T']","(2, -5, -1, -5, 6, 5, 3)","(0.0017, 0.0043, -0.0008, -0.0043, -0.0052, 0.0049, -0.0044)","(0.0, 0.0, 0.0, 0.0, 0.0, 1.0, -1.0)","(-0.08, -0.3, 0.02, 0.2754, -0.0216, 0.0504, 0.0072)"
2020/05/26/02:02:27.733407,45,1590426147,678510904,,"['joint_S', 'joint_L', 'joint_E', 'joint_U', 'joint_R', 'joint_B', 'joint_T']","(2, -5, -1, -5, 6, 5, 3)","(0.0017, 0.0043, -0.0008, -0.0043, -0.0052, 0.0049, -0.0044)","(0.0, 0.0, 0.0, 0.0, 0.0, 1.0, -1.0)","(-0.08, -0.3, 0.02, 0.2754, -0.0216, 0.0504, 0.0072)"
2020/05/26/02:02:27.790832,46,1590426147,733236074,,"['joint_S', 'joint_L', 'joint_E', 'joint_U', 'joint_R', 'joint_B', 'joint_T']","(2, -5, -1, -5, 6, 5, 3)","(0.0017, 0.0043, -0.0008, -0.0043, -0.0052, 0.0049, -0.0044)","(0.0, 0.0, 0.0, 0.0, 0.0, 1.0, -1.0)","(-0.08, -0.3, 0.02, 0.2754, -0.0216, 0.0504, 0.0072)"
2020/05/26/02:02:27.847028,47,1590426147,790781974,,"['joint_S', 'joint_L', 'joint_E', 'joint_U', 'joint_R', 'joint_B', 'joint_T']","(2, -5, -1, -5, 6, 5, 3)","(0.0017, 0.0043, -0.0008, -0.0043, -0.0052, 0.0049, -0.0044)","(0.0, 0.0, 0.0, 0.0, 0.0, 1.0, -1.0)","(-0.08, -0.3, 0.02, 0.2754, -0.0216, 0.0504, 0.0072)"
2020/05/26/02:02:27.903395,48,1590426147,847053050,,"['joint_S', 'joint_L', 'joint_E', 'joint_U', 'joint_R', 'joint_B', 'joint_T']","(2, -5, -1, -5, 6, 5, 3)","(0.0017, 0.0043, -0.0008, -0.0043, -0.0052, 0.0049, -0.0044)","(0.0, 0.0, 0.0, 0.0, 0.0, 1.0, -1.0)","(-0.08, -0.3, 0.02, 0.2754, -0.0216, 0.0504, 0.0072)"
2020/05/26/02:02:27.958920,49,1590426147,903472900,,"['joint_S', 'joint_L', 'joint_E', 'joint_U', 'joint_R', 'joint_B', 'joint_T']","(2, -5, -1, -5, 6, 5, 3)","(0.0017, 0.0043, -0.0008, -0.0043, -0.0052, 0.0049, -0.0044)","(0.0, 0.0, 0.0, 0.0, 0.0, 1.0, -1.0)","(-0.08, -0.3, 0.02, 0.2754, -0.0216, 0.0504, 0.0072)"
2020/05/26/02:02:28.012487,50,1590426147,959037065,,"['joint_S', 'joint_L', 'joint_E', 'joint_U', 'joint_R', 'joint_B', 'joint_T']","(1, -4, -1, -4, 5, 4, 2)","(0.0008, 0.0034, -0.0008, -0.0034, -0.0043, 0.0039, -0.0029)","(0.0, 0.0, 0.0, 0.0, 0.0, 1.0, -1.0)","(-0.08, -0.3, 0.02, 0.2754, -0.0216, 0.0504, 0.0072)"
2020/05/26/02:02:28.068106,51,1590426148,12584924,,"['joint_S', 'joint_L', 'joint_E', 'joint_U', 'joint_R', 'joint_B', 'joint_T']","(1, -4, -1, -4, 5, -133, 2)","(0.0008, 0.0034, -0.0008, -0.0034, -0.0043, -0.1313, -0.0029)","(0.0, 0.0, 0.0, 0.0, 0.0, 1.0, -1.0)","(-0.08, -0.3, 0.02, 0.2754, -0.0216, 0.0504, 0.0072)"
2020/05/26/02:02:28.123420,52,1590426148,68078041,,"['joint_S', 'joint_L', 'joint_E', 'joint_U', 'joint_R', 'joint_B', 'joint_T']","(1, -4, -1, -4, 5, -528, 2)","(0.0008, 0.0034, -0.0008, -0.0034, -0.0043, -0.5214, -0.0029)","(0.0, 0.0, 0.0, 0.0, 0.0, 1.0, -1.0)","(-0.08, -0.3, 0.02, 0.2754, -0.0216, 0.0504, 0.0072)"
2020/05/26/02:02:28.178999,53,1590426148,123470067,,"['joint_S', 'joint_L', 'joint_E', 'joint_U', 'joint_R', 'joint_B', 'joint_T']","(1, -4, -1, -4, 5, -1145, 2)","(0.0008, 0.0034, -0.0008, -0.0034, -0.0043, -1.1307, -0.0029)","(-12.0, 114.0, 0.0, 0.0, 0.0, 1.0, -1.0)","(-0.08, -0.3, 0.02, 0.2754, -0.0216, 0.0504, 0.0072)"
2020/05/26/02:02:28.234818,54,1590426148,178975105,,"['joint_S', 'joint_L', 'joint_E', 'joint_U', 'joint_R', 'joint_B', 'joint_T']","(1, -4, -1, -4, 5, -1923, 2)","(0.0008, 0.0034, -0.0008, -0.0034, -0.0043, -1.899, -0.0029)","(-12.0, 114.0, 0.0, -168.0, -11.0, -4263.0, -11.0)","(-0.08, -0.3, 0.02, 0.2754, -0.0216, 0.0504, 0.0072)"
2020/05/26/02:02:28.290451,55,1590426148,234627962,,"['joint_S', 'joint_L', 'joint_E', 'joint_U', 'joint_R', 'joint_B', 'joint_T']","(1, -4, -1, -4, 5, -2886, 2)","(0.0008, 0.0034, -0.0008, -0.0034, -0.0043, -2.85, -0.0029)","(-12.0, 114.0, 0.0, -168.0, -11.0, -4263.0, -11.0)","(-0.08, -0.3, 0.02, 0.2754, -0.0216, 0.0504, 0.0072)"
2020/05/26/02:02:28.346350,56,1590426148,290400028,,"['joint_S', 'joint_L', 'joint_E', 'joint_U', 'joint_R', 'joint_B', 'joint_T']","(1, -4, -1, -4, 5, -3976, 2)","(0.0008, 0.0034, -0.0008, -0.0034, -0.0043, -3.9264, -0.0029)","(-12.0, 114.0, 0.0, -168.0, -11.0, -4263.0, -11.0)","(-0.11, -0.15, 0.02, 0.2754, -0.0216, 0.0504, 0.0072)"
2020/05/26/02:02:28.402316,57,1590426148,346472024,,"['joint_S', 'joint_L', 'joint_E', 'joint_U', 'joint_R', 'joint_B', 'joint_T']","(1, -4, -1, -4, 5, -5163, 2)","(0.0008, 0.0034, -0.0008, -0.0034, -0.0043, -5.0986, -0.0029)","(-12.0, 114.0, 0.0, -168.0, -11.0, -4263.0, -11.0)","(-0.11, -0.15, 0.02, 0.1404, 0.0, -0.0396, 0.0036)"
2020/05/26/02:02:28.461475,58,1590426148,402261972,,"['joint_S', 'joint_L', 'joint_E', 'joint_U', 'joint_R', 'joint_B', 'joint_T']","(1, -4, -1, -4, 5, -6413, 2)","(0.0008, 0.0034, -0.0008, -0.0034, -0.0043, -6.333, -0.0029)","(-12.0, 114.0, 0.0, -168.0, -11.0, -4263.0, -11.0)","(-0.11, -0.15, 0.02, 0.1404, 0.0, -0.0396, 0.0036)"
2020/05/26/02:02:28.517624,59,1590426148,461620092,,"['joint_S', 'joint_L', 'joint_E', 'joint_U', 'joint_R', 'joint_B', 'joint_T']","(1, -4, -1, -4, 5, -7739, 2)","(0.0008, 0.0034, -0.0008, -0.0034, -0.0043, -7.6425, -0.0029)","(-12.0, 114.0, 0.0, -168.0, -11.0, -4263.0, -11.0)","(-0.11, -0.15, 0.02, 0.1404, 0.0, -0.0396, 0.0036)"
2020/05/26/02:02:28.574492,60,1590426148,517671108,,"['joint_S', 'joint_L', 'joint_E', 'joint_U', 'joint_R', 'joint_B', 'joint_T']","(1, -4, -1, -4, 5, -9064, 2)","(0.0008, 0.0034, -0.0008, -0.0034, -0.0043, -8.951, -0.0029)","(-12.0, 114.0, 0.0, -168.0, -11.0, -4263.0, -11.0)","(-0.11, -0.15, 0.02, 0.1404, 0.0, -0.0396, 0.0036)"
2020/05/26/02:02:28.630934,61,1590426148,574584960,,"['joint_S', 'joint_L', 'joint_E', 'joint_U', 'joint_R', 'joint_B', 'joint_T']","(1, -4, -1, -4, 5, -10438, 2)","(0.0008, 0.0034, -0.0008, -0.0034, -0.0043, -10.3078, -0.0029)","(-12.0, 114.0, 0.0, -168.0, -11.0, -4263.0, -11.0)","(-0.11, -0.15, 0.02, 0.1404, 0.0, -0.0396, 0.0036)"
2020/05/26/02:02:28.689660,62,1590426148,631077051,,"['joint_S', 'joint_L', 'joint_E', 'joint_U', 'joint_R', 'joint_B', 'joint_T']","(1, -4, -1, -4, 4, -12003, 2)","(0.0008, 0.0034, -0.0008, -0.0034, -0.0034, -11.8533, -0.0029)","(-12.0, 114.0, 0.0, -168.0, -11.0, -4263.0, -11.0)","(-0.11, -0.15, 0.02, 0.1404, 0.0, -0.0396, 0.0036)"
2020/05/26/02:02:28.745295,63,1590426148,689358949,,"['joint_S', 'joint_L', 'joint_E', 'joint_U', 'joint_R', 'joint_B', 'joint_T']","(1, -4, -1, -4, 4, -13814, 2)","(0.0008, 0.0034, -0.0008, -0.0034, -0.0034, -13.6418, -0.0029)","(-12.0, 114.0, 0.0, -168.0, -11.0, -4263.0, -11.0)","(-0.11, -0.15, 0.02, 0.1404, 0.0, -0.0396, 0.0036)"
2020/05/26/02:02:28.801223,64,1590426148,745225906,,"['joint_S', 'joint_L', 'joint_E', 'joint_U', 'joint_R', 'joint_B', 'joint_T']","(1, -4, -1, -4, 4, -15555, 2)","(0.0008, 0.0034, -0.0008, -0.0034, -0.0034, -15.3611, -0.0029)","(-12.0, 114.0, 0.0, -168.0, -11.0, -4263.0, -11.0)","(-0.11, -0.15, 0.02, 0.1404, 0.0, -0.0396, 0.0036)"
2020/05/26/02:02:28.857627,65,1590426148,801220893,,"['joint_S', 'joint_L', 'joint_E', 'joint_U', 'joint_R', 'joint_B', 'joint_T']","(1, -4, -1, -4, 4, -17276, 2)","(0.0008, 0.0034, -0.0008, -0.0034, -0.0034, -17.0606, -0.0029)","(-12.0, 114.0, 0.0, -168.0, -11.0, -4263.0, -11.0)","(-0.11, -0.15, 0.02, 0.1404, 0.0, -0.0396, 0.0036)"
2020/05/26/02:02:28.914102,66,1590426148,857436895,,"['joint_S', 'joint_L', 'joint_E', 'joint_U', 'joint_R', 'joint_B', 'joint_T']","(1, -4, -1, -4, 4, -18920, 2)","(0.0008, 0.0034, -0.0008, -0.0034, -0.0034, -18.6841, -0.0029)","(-12.0, 114.0, 0.0, -168.0, -11.0, -4263.0, -11.0)","(-0.11, -0.15, 0.02, 0.1404, 0.0, -0.0396, 0.0036)"
2020/05/26/02:02:28.970555,67,1590426148,913883924,,"['joint_S', 'joint_L', 'joint_E', 'joint_U', 'joint_R', 'joint_B', 'joint_T']","(0, -4, -1, -4, 4, -20545, 2)","(0.0, 0.0034, -0.0008, -0.0034, -0.0034, -20.2889, -0.0029)","(-12.0, 114.0, 0.0, -168.0, -11.0, -4263.0, -11.0)","(-0.11, -0.15, 0.02, 0.1404, 0.0, -0.0396, 0.0036)"
2020/05/26/02:02:29.026562,68,1590426148,970288038,,"['joint_S', 'joint_L', 'joint_E', 'joint_U', 'joint_R', 'joint_B', 'joint_T']","(0, -4, -1, -4, 3, -22171, 2)","(0.0, 0.0034, -0.0008, -0.0034, -0.0026, -21.8946, -0.0029)","(-12.0, 114.0, 0.0, -168.0, -11.0, -4263.0, -11.0)","(-0.11, -0.15, 0.02, 0.1404, 0.0, -0.0396, 0.0036)"
2020/05/26/02:02:29.082599,69,1590426149,26823997,,"['joint_S', 'joint_L', 'joint_E', 'joint_U', 'joint_R', 'joint_B', 'joint_T']","(0, -4, -1, -4, 3, -23797, 2)","(0.0, 0.0034, -0.0008, -0.0034, -0.0026, -23.5003, -0.0029)","(-6.0, -3.0, 0.0, 76.0, -9.0, -29357.0, -12.0)","(-0.11, -0.15, 0.02, 0.1404, 0.0, -0.0396, 0.0036)"
2020/05/26/02:02:29.138537,70,1590426149,82674026,,"['joint_S', 'joint_L', 'joint_E', 'joint_U', 'joint_R', 'joint_B', 'joint_T']","(0, -4, -1, -4, 3, -25422, 2)","(0.0, 0.0034, -0.0008, -0.0034, -0.0026, -25.1051, -0.0029)","(-6.0, -3.0, 0.0, 76.0, -9.0, -29357.0, -12.0)","(-0.11, -0.15, 0.02, 0.1404, 0.0, -0.0396, 0.0036)"
2020/05/26/02:02:29.195919,71,1590426149,138411045,,"['joint_S', 'joint_L', 'joint_E', 'joint_U', 'joint_R', 'joint_B', 'joint_T']","(0, -4, -1, -4, 3, -27048, 2)","(0.0, 0.0034, -0.0008, -0.0034, -0.0026, -26.7108, -0.0029)","(-6.0, -3.0, 0.0, 76.0, -9.0, -29357.0, -12.0)","(-0.11, -0.15, 0.02, 0.1404, 0.0, -0.0396, 0.0036)"
2020/05/26/02:02:29.252823,72,1590426149,196103096,,"['joint_S', 'joint_L', 'joint_E', 'joint_U', 'joint_R', 'joint_B', 'joint_T']","(0, -3, -1, -4, 3, -28730, 2)","(0.0, 0.0026, -0.0008, -0.0034, -0.0026, -28.3718, -0.0029)","(-6.0, -3.0, 0.0, 76.0, -9.0, -29357.0, -12.0)","(-0.15, -0.43, 0.02, 0.2862, 0.0432, -0.0648, -0.0072)"
2020/05/26/02:02:29.309776,73,1590426149,252871990,,"['joint_S', 'joint_L', 'joint_E', 'joint_U', 'joint_R', 'joint_B', 'joint_T']","(0, -3, -1, -4, 3, -30356, 2)","(0.0, 0.0026, -0.0008, -0.0034, -0.0026, -29.9776, -0.0029)","(-6.0, -3.0, 0.0, 76.0, -9.0, -29357.0, -12.0)","(-0.15, -0.43, 0.02, 0.2862, 0.0432, -0.0648, -0.0072)"
2020/05/26/02:02:29.367488,74,1590426149,309492111,,"['joint_S', 'joint_L', 'joint_E', 'joint_U', 'joint_R', 'joint_B', 'joint_T']","(0, -3, -1, -4, 3, -32040, 2)","(0.0, 0.0026, -0.0008, -0.0034, -0.0026, -31.6406, -0.0029)","(-6.0, -3.0, 0.0, 76.0, -9.0, -29357.0, -12.0)","(-0.15, -0.43, 0.02, 0.2862, 0.0432, -0.0648, -0.0072)"
2020/05/26/02:02:29.423471,75,1590426149,367384910,,"['joint_S', 'joint_L', 'joint_E', 'joint_U', 'joint_R', 'joint_B', 'joint_T']","(0, -3, -1, -4, 2, -33666, 1)","(0.0, 0.0026, -0.0008, -0.0034, -0.0017, -33.2463, -0.0014)","(-6.0, -3.0, 0.0, 76.0, -9.0, -29357.0, -12.0)","(-0.15, -0.43, 0.02, 0.2862, 0.0432, -0.0648, -0.0072)"
2020/05/26/02:02:29.482197,76,1590426149,423398971,,"['joint_S', 'joint_L', 'joint_E', 'joint_U', 'joint_R', 'joint_B', 'joint_T']","(0, -3, -1, -4, 2, -35349, 1)","(0.0, 0.0026, -0.0008, -0.0034, -0.0017, -34.9083, -0.0014)","(-6.0, -3.0, 0.0, 76.0, -9.0, -29357.0, -12.0)","(-0.15, -0.43, 0.02, 0.2862, 0.0432, -0.0648, -0.0072)"
2020/05/26/02:02:29.540408,77,1590426149,482167959,,"['joint_S', 'joint_L', 'joint_E', 'joint_U', 'joint_R', 'joint_B', 'joint_T']","(0, -3, -1, -4, 2, -37090, 1)","(0.0, 0.0026, -0.0008, -0.0034, -0.0017, -36.6276, -0.0014)","(-6.0, -3.0, 0.0, 76.0, -9.0, -29357.0, -12.0)","(-0.15, -0.43, 0.02, 0.2862, 0.0432, -0.0648, -0.0072)"
2020/05/26/02:02:29.597249,78,1590426149,540465116,,"['joint_S', 'joint_L', 'joint_E', 'joint_U', 'joint_R', 'joint_B', 'joint_T']","(0, -3, -1, -4, 2, -38716, 1)","(0.0, 0.0026, -0.0008, -0.0034, -0.0017, -38.2334, -0.0014)","(-6.0, -3.0, 0.0, 76.0, -9.0, -29357.0, -12.0)","(-0.15, -0.43, 0.02, 0.2862, 0.0432, -0.0648, -0.0072)"
2020/05/26/02:02:29.656397,79,1590426149,597321987,,"['joint_S', 'joint_L', 'joint_E', 'joint_U', 'joint_R', 'joint_B', 'joint_T']","(0, -3, -1, -4, 2, -40399, 1)","(0.0, 0.0026, -0.0008, -0.0034, -0.0017, -39.8954, -0.0014)","(-6.0, -3.0, 0.0, 76.0, -9.0, -29357.0, -12.0)","(-0.15, -0.43, 0.02, 0.2862, 0.0432, -0.0648, -0.0072)"
2020/05/26/02:02:29.713645,80,1590426149,656440019,,"['joint_S', 'joint_L', 'joint_E', 'joint_U', 'joint_R', 'joint_B', 'joint_T']","(0, -3, -1, -4, 2, -42083, 1)","(0.0, 0.0026, -0.0008, -0.0034, -0.0017, -41.5584, -0.0014)","(-6.0, -3.0, 0.0, 76.0, -9.0, -29357.0, -12.0)","(-0.15, -0.43, 0.02, 0.2862, 0.0432, -0.0648, -0.0072)"
2020/05/26/02:02:29.770643,81,1590426149,713359117,,"['joint_S', 'joint_L', 'joint_E', 'joint_U', 'joint_R', 'joint_B', 'joint_T']","(0, -3, -1, -4, 2, -43709, 1)","(0.0, 0.0026, -0.0008, -0.0034, -0.0017, -43.1641, -0.0014)","(-6.0, -3.0, 0.0, 76.0, -9.0, -29357.0, -12.0)","(-0.15, -0.43, 0.02, 0.2862, 0.0432, -0.0648, -0.0072)"
2020/05/26/02:02:29.828098,82,1590426149,770656108,,"['joint_S', 'joint_L', 'joint_E', 'joint_U', 'joint_R', 'joint_B', 'joint_T']","(0, -3, -1, -4, 1, -45392, 1)","(0.0, 0.0026, -0.0008, -0.0034, -0.0008, -44.8261, -0.0014)","(-6.0, -3.0, 0.0, 76.0, -9.0, -29357.0, -12.0)","(-0.15, -0.43, 0.02, 0.2862, 0.0432, -0.0648, -0.0072)"
2020/05/26/02:02:29.885878,83,1590426149,828227043,,"['joint_S', 'joint_L', 'joint_E', 'joint_U', 'joint_R', 'joint_B', 'joint_T']","(0, -3, -1, -4, 1, -47073, 1)","(0.0, 0.0026, -0.0008, -0.0034, -0.0008, -46.4862, -0.0014)","(-6.0, -3.0, 0.0, 76.0, -9.0, -29357.0, -12.0)","(-0.15, -0.43, 0.02, 0.2862, 0.0432, -0.0648, -0.0072)"
2020/05/26/02:02:29.941913,84,1590426149,885809898,,"['joint_S', 'joint_L', 'joint_E', 'joint_U', 'joint_R', 'joint_B', 'joint_T']","(0, -3, -1, -4, 1, -48751, 1)","(0.0, 0.0026, -0.0008, -0.0034, -0.0008, -48.1433, -0.0014)","(14.0, 4.0, 0.0, -1.0, -9.0, -28998.0, -12.0)","(-0.15, -0.43, 0.02, 0.2862, 0.0432, -0.0648, -0.0072)"
2020/05/26/02:02:30.000354,85,1590426149,941912889,,"['joint_S', 'joint_L', 'joint_E', 'joint_U', 'joint_R', 'joint_B', 'joint_T']","(0, -3, -1, -4, 1, -50369, 1)","(0.0, 0.0026, -0.0008, -0.0034, -0.0008, -49.7411, -0.0014)","(14.0, 4.0, 0.0, -1.0, -9.0, -28998.0, -22.0)","(-0.15, -0.43, 0.02, 0.2862, 0.0432, -0.0648, -0.0072)"
2020/05/26/02:02:30.057527,86,1590426150,293016,,"['joint_S', 'joint_L', 'joint_E', 'joint_U', 'joint_R', 'joint_B', 'joint_T']","(0, -3, -1, -4, 1, -52046, 1)","(0.0, 0.0026, -0.0008, -0.0034, -0.0008, -51.3972, -0.0014)","(14.0, 4.0, 0.0, -1.0, -9.0, -28998.0, -22.0)","(-0.15, -0.43, 0.02, 0.2862, 0.0432, -0.0648, -0.0072)"
2020/05/26/02:02:30.114851,87,1590426150,57625055,,"['joint_S', 'joint_L', 'joint_E', 'joint_U', 'joint_R', 'joint_B', 'joint_T']","(0, -3, -1, -4, 1, -53724, 1)","(0.0, 0.0026, -0.0008, -0.0034, -0.0008, -53.0543, -0.0014)","(14.0, 4.0, 0.0, -1.0, -9.0, -28998.0, -22.0)","(-0.06, -0.24, 0.02, 0.324, 0.0756, -0.0828, -0.0072)"
2020/05/26/02:02:30.171824,88,1590426150,114883899,,"['joint_S', 'joint_L', 'joint_E', 'joint_U', 'joint_R', 'joint_B', 'joint_T']","(0, -2, -1, -4, 0, -55348, 1)","(0.0, 0.0017, -0.0008, -0.0034, 0.0, -54.658, -0.0014)","(14.0, 4.0, 0.0, -1.0, -9.0, -28998.0, -22.0)","(-0.06, -0.24, 0.03, 0.324, 0.0756, -0.0828, -0.0216)"
2020/05/26/02:02:30.229698,89,1590426150,171520948,,"['joint_S', 'joint_L', 'joint_E', 'joint_U', 'joint_R', 'joint_B', 'joint_T']","(0, -2, -1, -4, 0, -57031, 1)","(0.0, 0.0017, -0.0008, -0.0034, 0.0, -56.3201, -0.0014)","(14.0, 4.0, 0.0, -1.0, -9.0, -28998.0, -22.0)","(-0.06, -0.24, 0.03, 0.324, 0.0756, -0.0828, -0.0216)"
2020/05/26/02:02:30.287069,90,1590426150,229619026,,"['joint_S', 'joint_L', 'joint_E', 'joint_U', 'joint_R', 'joint_B', 'joint_T']","(0, -2, -1, -4, 0, -58715, 1)","(0.0, 0.0017, -0.0008, -0.0034, 0.0, -57.9831, -0.0014)","(14.0, 4.0, 0.0, -1.0, -9.0, -28998.0, -22.0)","(-0.06, -0.24, 0.03, 0.324, 0.0756, -0.0828, -0.0216)"
2020/05/26/02:02:30.342835,91,1590426150,287026882,,"['joint_S', 'joint_L', 'joint_E', 'joint_U', 'joint_R', 'joint_B', 'joint_T']","(-1, -2, -1, -4, 0, -60341, 1)","(-0.0008, 0.0017, -0.0008, -0.0034, 0.0, -59.5888, -0.0014)","(14.0, 4.0, 0.0, -1.0, -9.0, -28998.0, -22.0)","(-0.06, -0.24, 0.03, 0.324, 0.0756, -0.0828, -0.0216)"
2020/05/26/02:02:30.399714,92,1590426150,342850923,,"['joint_S', 'joint_L', 'joint_E', 'joint_U', 'joint_R', 'joint_B', 'joint_T']","(-1, -2, -1, -4, 0, -62025, 1)","(-0.0008, 0.0017, -0.0008, -0.0034, 0.0, -61.2518, -0.0014)","(14.0, 4.0, 0.0, -1.0, -9.0, -28998.0, -22.0)","(-0.06, -0.24, 0.03, 0.324, 0.0756, -0.0828, -0.0216)"
2020/05/26/02:02:30.458416,93,1590426150,399780035,,"['joint_S', 'joint_L', 'joint_E', 'joint_U', 'joint_R', 'joint_B', 'joint_T']","(-1, -2, -2, -4, 0, -63650, 1)","(-0.0008, 0.0017, -0.0017, -0.0034, 0.0, -62.8566, -0.0014)","(14.0, 4.0, 0.0, -1.0, -9.0, -28998.0, -22.0)","(-0.06, -0.24, 0.03, 0.324, 0.0756, -0.0828, -0.0216)"
2020/05/26/02:02:30.514482,94,1590426150,458144903,,"['joint_S', 'joint_L', 'joint_E', 'joint_U', 'joint_R', 'joint_B', 'joint_T']","(-1, -2, -2, -4, 0, -65275, 1)","(-0.0008, 0.0017, -0.0017, -0.0034, 0.0, -64.4613, -0.0014)","(14.0, 4.0, 0.0, -1.0, -9.0, -28998.0, -22.0)","(-0.06, -0.24, 0.03, 0.324, 0.0756, -0.0828, -0.0216)"
2020/05/26/02:02:30.570840,95,1590426150,514659881,,"['joint_S', 'joint_L', 'joint_E', 'joint_U', 'joint_R', 'joint_B', 'joint_T']","(-1, -2, -2, -4, 0, -66959, 1)","(-0.0008, 0.0017, -0.0017, -0.0034, 0.0, -66.1243, -0.0014)","(14.0, 4.0, 0.0, -1.0, -9.0, -28998.0, -22.0)","(-0.06, -0.24, 0.03, 0.324, 0.0756, -0.0828, -0.0216)"
2020/05/26/02:02:30.627114,96,1590426150,570808887,,"['joint_S', 'joint_L', 'joint_E', 'joint_U', 'joint_R', 'joint_B', 'joint_T']","(-1, -2, -2, -4, 0, -68585, 0)","(-0.0008, 0.0017, -0.0017, -0.0034, 0.0, -67.73, 0.0)","(14.0, 4.0, 0.0, -1.0, -9.0, -28998.0, -22.0)","(-0.06, -0.24, 0.03, 0.324, 0.0756, -0.0828, -0.0216)"
2020/05/26/02:02:30.684283,97,1590426150,627202987,,"['joint_S', 'joint_L', 'joint_E', 'joint_U', 'joint_R', 'joint_B', 'joint_T']","(-1, -2, -2, -4, 0, -70269, 0)","(-0.0008, 0.0017, -0.0017, -0.0034, 0.0, -69.3931, 0.0)","(14.0, 4.0, 0.0, -1.0, -9.0, -28998.0, -22.0)","(-0.06, -0.24, 0.03, 0.324, 0.0756, -0.0828, -0.0216)"
2020/05/26/02:02:30.742542,98,1590426150,684146881,,"['joint_S', 'joint_L', 'joint_E', 'joint_U', 'joint_R', 'joint_B', 'joint_T']","(-1, -2, -2, -4, 0, -71894, 0)","(-0.0008, 0.0017, -0.0017, -0.0034, 0.0, -70.9978, 0.0)","(14.0, 4.0, 0.0, -1.0, -9.0, -28998.0, -22.0)","(-0.06, -0.24, 0.03, 0.324, 0.0756, -0.0828, -0.0216)"
2020/05/26/02:02:30.801369,99,1590426150,742575883,,"['joint_S', 'joint_L', 'joint_E', 'joint_U', 'joint_R', 'joint_B', 'joint_T']","(-1, -2, -2, -4, 0, -73587, 0)","(-0.0008, 0.0017, -0.0017, -0.0034, 0.0, -72.6697, 0.0)","(-5.0, 0.0, 0.0, -12.0, -9.0, -28998.0, -22.0)","(-0.06, -0.24, 0.03, 0.324, 0.0756, -0.0828, -0.0216)"
2020/05/26/02:02:30.858980,100,1590426150,801274061,,"['joint_S', 'joint_L', 'joint_E', 'joint_U', 'joint_R', 'joint_B', 'joint_T']","(-1, -2, -2, -4, 0, -75360, 0)","(-0.0008, 0.0017, -0.0017, -0.0034, 0.0, -74.4206, 0.0)","(-5.0, 0.0, -9.0, -12.0, 5.0, -29008.0, -25.0)","(-0.06, -0.24, 0.03, 0.324, 0.0756, -0.0828, -0.0216)"
2020/05/26/02:02:30.915365,101,1590426150,858845949,,"['joint_S', 'joint_L', 'joint_E', 'joint_U', 'joint_R', 'joint_B', 'joint_T']","(-1, -2, -2, -4, -1, -77164, 0)","(-0.0008, 0.0017, -0.0017, -0.0034, 0.0008, -76.2021, 0.0)","(-5.0, 0.0, -9.0, -12.0, 5.0, -29008.0, -25.0)","(-0.06, -0.24, 0.03, 0.324, 0.0756, -0.0828, -0.0216)"
2020/05/26/02:02:30.971843,102,1590426150,915321111,,"['joint_S', 'joint_L', 'joint_E', 'joint_U', 'joint_R', 'joint_B', 'joint_T']","(-1, -2, -2, -4, -1, -78865, 0)","(-0.0008, 0.0017, -0.0017, -0.0034, 0.0008, -77.8819, 0.0)","(-5.0, 0.0, -9.0, -12.0, 5.0, -29008.0, -25.0)","(-0.07, -0.16, 0.03, 0.2646, 0.0756, -0.0828, -0.0216)"
2020/05/26/02:02:31.028452,103,1590426150,971772909,,"['joint_S', 'joint_L', 'joint_E', 'joint_U', 'joint_R', 'joint_B', 'joint_T']","(-2, -2, -2, -4, -1, -80508, 0)","(-0.0017, 0.0017, -0.0017, -0.0034, 0.0008, -79.5044, 0.0)","(-5.0, 0.0, -9.0, -12.0, 5.0, -29008.0, -25.0)","(-0.07, -0.16, -0.02, 0.2646, 0.0594, -0.126, -0.0396)"
2020/05/26/02:02:31.086925,104,1590426151,28470039,,"['joint_S', 'joint_L', 'joint_E', 'joint_U', 'joint_R', 'joint_B', 'joint_T']","(-2, -2, -2, -4, -1, -81910, 0)","(-0.0017, 0.0017, -0.0017, -0.0034, 0.0008, -80.889, 0.0)","(-5.0, 0.0, -9.0, -12.0, 5.0, -29008.0, -25.0)","(-0.07, -0.16, -0.02, 0.2646, 0.0594, -0.126, -0.0396)"
2020/05/26/02:02:31.144325,105,1590426151,86867094,,"['joint_S', 'joint_L', 'joint_E', 'joint_U', 'joint_R', 'joint_B', 'joint_T']","(-2, -1, -2, -4, -1, -83233, 0)","(-0.0017, 0.0008, -0.0017, -0.0034, 0.0008, -82.1955, 0.0)","(-5.0, 0.0, -9.0, -12.0, 5.0, -29008.0, -25.0)","(-0.07, -0.16, -0.02, 0.2646, 0.0594, -0.126, -0.0396)"
2020/05/26/02:02:31.202564,106,1590426151,144453048,,"['joint_S', 'joint_L', 'joint_E', 'joint_U', 'joint_R', 'joint_B', 'joint_T']","(-2, -1, -2, -4, -1, -84561, 0)","(-0.0017, 0.0008, -0.0017, -0.0034, 0.0008, -83.5069, 0.0)","(-5.0, 0.0, -9.0, -12.0, 5.0, -29008.0, -25.0)","(-0.07, -0.16, -0.02, 0.2646, 0.0594, -0.126, -0.0396)"
2020/05/26/02:02:31.261744,107,1590426151,202521085,,"['joint_S', 'joint_L', 'joint_E', 'joint_U', 'joint_R', 'joint_B', 'joint_T']","(-2, -1, -2, -4, -1, -85860, 0)","(-0.0017, 0.0008, -0.0017, -0.0034, 0.0008, -84.7897, 0.0)","(-5.0, 0.0, -9.0, -12.0, 5.0, -29008.0, -25.0)","(-0.07, -0.16, -0.02, 0.2646, 0.0594, -0.126, -0.0396)"
2020/05/26/02:02:31.318983,108,1590426151,261667013,,"['joint_S', 'joint_L', 'joint_E', 'joint_U', 'joint_R', 'joint_B', 'joint_T']","(-2, -1, -2, -4, -1, -87095, 0)","(-0.0017, 0.0008, -0.0017, -0.0034, 0.0008, -86.0093, 0.0)","(-5.0, 0.0, -9.0, -12.0, 5.0, -29008.0, -25.0)","(-0.07, -0.16, -0.02, 0.2646, 0.0594, -0.126, -0.0396)"
2020/05/26/02:02:31.377640,109,1590426151,318890094,,"['joint_S', 'joint_L', 'joint_E', 'joint_U', 'joint_R', 'joint_B', 'joint_T']","(-2, -1, -2, -4, -2, -88229, 0)","(-0.0017, 0.0008, -0.0017, -0.0034, 0.0017, -87.1292, 0.0)","(-5.0, 0.0, -9.0, -12.0, 5.0, -29008.0, -25.0)","(-0.07, -0.16, -0.02, 0.2646, 0.0594, -0.126, -0.0396)"
2020/05/26/02:02:31.435450,110,1590426151,377548933,,"['joint_S', 'joint_L', 'joint_E', 'joint_U', 'joint_R', 'joint_B', 'joint_T']","(-2, -1, -2, -4, -2, -89226, 0)","(-0.0017, 0.0008, -0.0017, -0.0034, 0.0017, -88.1138, 0.0)","(-5.0, 0.0, -9.0, -12.0, 5.0, -29008.0, -25.0)","(-0.07, -0.16, -0.02, 0.2646, 0.0594, -0.126, -0.0396)"
2020/05/26/02:02:31.493359,111,1590426151,435218095,,"['joint_S', 'joint_L', 'joint_E', 'joint_U', 'joint_R', 'joint_B', 'joint_T']","(-2, -1, -2, -4, -2, -90051, 0)","(-0.0017, 0.0008, -0.0017, -0.0034, 0.0017, -88.9285, 0.0)","(-5.0, 0.0, -9.0, -12.0, 5.0, -29008.0, -25.0)","(-0.07, -0.16, -0.02, 0.2646, 0.0594, -0.126, -0.0396)"
2020/05/26/02:02:31.550914,112,1590426151,493314027,,"['joint_S', 'joint_L', 'joint_E', 'joint_U', 'joint_R', 'joint_B', 'joint_T']","(-2, -1, -2, -4, -2, -90685, 0)","(-0.0017, 0.0008, -0.0017, -0.0034, 0.0017, -89.5546, 0.0)","(-5.0, 0.0, -9.0, -12.0, 5.0, -29008.0, -25.0)","(-0.07, -0.16, -0.02, 0.2646, 0.0594, -0.126, -0.0396)"
2020/05/26/02:02:31.608163,113,1590426151,550976991,,"['joint_S', 'joint_L', 'joint_E', 'joint_U', 'joint_R', 'joint_B', 'joint_T']","(-2, -1, -2, -4, -2, -91048, 0)","(-0.0017, 0.0008, -0.0017, -0.0034, 0.0017, -89.9131, 0.0)","(-5.0, 0.0, -9.0, -12.0, 5.0, -29008.0, -25.0)","(-0.07, -0.16, -0.02, 0.2646, 0.0594, -0.126, -0.0396)"
2020/05/26/02:02:31.668031,114,1590426151,608206033,,"['joint_S', 'joint_L', 'joint_E', 'joint_U', 'joint_R', 'joint_B', 'joint_T']","(-2, -1, -2, -4, -2, -91138, 0)","(-0.0017, 0.0008, -0.0017, -0.0034, 0.0017, -90.0019, 0.0)","(-4.0, -2.0, -9.0, -12.0, 5.0, -29008.0, -25.0)","(-0.07, -0.16, -0.02, 0.2646, 0.0594, -0.126, -0.0396)"
2020/05/26/02:02:31.727802,115,1590426151,667845964,,"['joint_S', 'joint_L', 'joint_E', 'joint_U', 'joint_R', 'joint_B', 'joint_T']","(-2, -1, -2, -4, -2, -91138, 0)","(-0.0017, 0.0008, -0.0017, -0.0034, 0.0017, -90.0019, 0.0)","(-4.0, -2.0, 0.0, 44.0, -3.0, -8904.0, -9.0)","(-0.07, -0.16, -0.02, 0.2646, 0.0594, -0.126, -0.0396)"
2020/05/26/02:02:31.788826,116,1590426151,727993011,,"['joint_S', 'joint_L', 'joint_E', 'joint_U', 'joint_R', 'joint_B', 'joint_T']","(-2, -1, -2, -4, -2, -91138, 0)","(-0.0017, 0.0008, -0.0017, -0.0034, 0.0017, -90.0019, 0.0)","(-4.0, -2.0, 0.0, 44.0, -3.0, -8904.0, -9.0)","(-0.07, -0.16, -0.02, 0.2646, 0.0594, -0.126, -0.0396)"
2020/05/26/02:02:31.849440,117,1590426151,788717031,,"['joint_S', 'joint_L', 'joint_E', 'joint_U', 'joint_R', 'joint_B', 'joint_T']","(-2, -1, -2, -4, -2, -91138, 0)","(-0.0017, 0.0008, -0.0017, -0.0034, 0.0017, -90.0019, 0.0)","(-4.0, -2.0, 0.0, 44.0, -3.0, -8904.0, -9.0)","(-0.12, -0.16, -0.02, 0.2808, 0.0756, -0.126, -0.0396)"
2020/05/26/02:02:31.908266,118,1590426151,849591970,,"['joint_S', 'joint_L', 'joint_E', 'joint_U', 'joint_R', 'joint_B', 'joint_T']","(-2, -1, -2, -4, -2, -91138, 0)","(-0.0017, 0.0008, -0.0017, -0.0034, 0.0017, -90.0019, 0.0)","(-4.0, -2.0, 0.0, 44.0, -3.0, -8904.0, -9.0)","(-0.12, -0.16, -0.04, 0.2808, 0.0756, -0.0684, -0.0504)"
2020/05/26/02:02:31.967288,119,1590426151,908309936,,"['joint_S', 'joint_L', 'joint_E', 'joint_U', 'joint_R', 'joint_B', 'joint_T']","(-2, -1, -2, -4, -2, -91138, 0)","(-0.0017, 0.0008, -0.0017, -0.0034, 0.0017, -90.0019, 0.0)","(-4.0, -2.0, 0.0, 44.0, -3.0, -8904.0, -9.0)","(-0.12, -0.16, -0.04, 0.2808, 0.0756, -0.0684, -0.0504)"
2020/05/26/02:02:32.026039,120,1590426151,967109918,,"['joint_S', 'joint_L', 'joint_E', 'joint_U', 'joint_R', 'joint_B', 'joint_T']","(-2, -1, -2, -4, -2, -91138, 0)","(-0.0017, 0.0008, -0.0017, -0.0034, 0.0017, -90.0019, 0.0)","(-4.0, -2.0, 0.0, 44.0, -3.0, -8904.0, -9.0)","(-0.12, -0.16, -0.04, 0.2808, 0.0756, -0.0684, -0.0504)"
2020/05/26/02:02:32.085451,121,1590426152,25795936,,"['joint_S', 'joint_L', 'joint_E', 'joint_U', 'joint_R', 'joint_B', 'joint_T']","(-2, -1, -2, -4, -2, -91138, 0)","(-0.0017, 0.0008, -0.0017, -0.0034, 0.0017, -90.0019, 0.0)","(-4.0, -2.0, 0.0, 44.0, -3.0, -8904.0, -9.0)","(-0.12, -0.16, -0.04, 0.2808, 0.0756, -0.0684, -0.0504)"
2020/05/26/02:02:32.143942,122,1590426152,85453987,,"['joint_S', 'joint_L', 'joint_E', 'joint_U', 'joint_R', 'joint_B', 'joint_T']","(-2, -1, -2, -4, -2, -91138, 0)","(-0.0017, 0.0008, -0.0017, -0.0034, 0.0017, -90.0019, 0.0)","(-4.0, -2.0, 0.0, 44.0, -3.0, -8904.0, -9.0)","(-0.12, -0.16, -0.04, 0.2808, 0.0756, -0.0684, -0.0504)"
2020/05/26/02:02:32.202904,123,1590426152,143973112,,"['joint_S', 'joint_L', 'joint_E', 'joint_U', 'joint_R', 'joint_B', 'joint_T']","(-2, -1, -2, -4, -2, -91138, 0)","(-0.0017, 0.0008, -0.0017, -0.0034, 0.0017, -90.0019, 0.0)","(-4.0, -2.0, 0.0, 44.0, -3.0, -8904.0, -9.0)","(-0.12, -0.16, -0.04, 0.2808, 0.0756, -0.0684, -0.0504)"
2020/05/26/02:02:32.262848,124,1590426152,202949047,,"['joint_S', 'joint_L', 'joint_E', 'joint_U', 'joint_R', 'joint_B', 'joint_T']","(-2, -1, -2, -4, -2, -91138, 0)","(-0.0017, 0.0008, -0.0017, -0.0034, 0.0017, -90.0019, 0.0)","(-4.0, -2.0, 0.0, 44.0, -3.0, -8904.0, -9.0)","(-0.12, -0.16, -0.04, 0.2808, 0.0756, -0.0684, -0.0504)"
2020/05/26/02:02:32.323096,125,1590426152,262902975,,"['joint_S', 'joint_L', 'joint_E', 'joint_U', 'joint_R', 'joint_B', 'joint_T']","(-2, -1, -2, -4, -2, -91138, 0)","(-0.0017, 0.0008, -0.0017, -0.0034, 0.0017, -90.0019, 0.0)","(-4.0, -2.0, 0.0, 44.0, -3.0, -8904.0, -9.0)","(-0.12, -0.16, -0.04, 0.2808, 0.0756, -0.0684, -0.0504)"
2020/05/26/02:02:32.384058,126,1590426152,323165893,,"['joint_S', 'joint_L', 'joint_E', 'joint_U', 'joint_R', 'joint_B', 'joint_T']","(-2, -1, -2, -4, -2, -91138, 0)","(-0.0017, 0.0008, -0.0017, -0.0034, 0.0017, -90.0019, 0.0)","(-4.0, -2.0, 0.0, 44.0, -3.0, -8904.0, -9.0)","(-0.12, -0.16, -0.04, 0.2808, 0.0756, -0.0684, -0.0504)"
2020/05/26/02:02:32.441352,127,1590426152,383955001,,"['joint_S', 'joint_L', 'joint_E', 'joint_U', 'joint_R', 'joint_B', 'joint_T']","(-2, -1, -2, -4, -2, -91138, 0)","(-0.0017, 0.0008, -0.0017, -0.0034, 0.0017, -90.0019, 0.0)","(-4.0, -2.0, 0.0, 44.0, -3.0, -8904.0, -9.0)","(-0.12, -0.16, -0.04, 0.2808, 0.0756, -0.0684, -0.0504)"
2020/05/26/02:02:32.500659,128,1590426152,441431045,,"['joint_S', 'joint_L', 'joint_E', 'joint_U', 'joint_R', 'joint_B', 'joint_T']","(-2, -1, -2, -4, -2, -91138, 0)","(-0.0017, 0.0008, -0.0017, -0.0034, 0.0017, -90.0019, 0.0)","(-4.0, -2.0, 0.0, 44.0, -3.0, -8904.0, -9.0)","(-0.12, -0.16, -0.04, 0.2808, 0.0756, -0.0684, -0.0504)"
2020/05/26/02:02:32.559736,129,1590426152,500725030,,"['joint_S', 'joint_L', 'joint_E', 'joint_U', 'joint_R', 'joint_B', 'joint_T']","(-2, -1, -2, -4, -2, -91138, 0)","(-0.0017, 0.0008, -0.0017, -0.0034, 0.0017, -90.0019, 0.0)","(7.0, -3.0, 0.0, -35.0, 4.0, -8904.0, -9.0)","(-0.12, -0.16, -0.04, 0.2808, 0.0756, -0.0684, -0.0504)"
2020/05/26/02:02:32.618696,130,1590426152,559720993,,"['joint_S', 'joint_L', 'joint_E', 'joint_U', 'joint_R', 'joint_B', 'joint_T']","(-2, -1, -2, -4, -2, -91138, 0)","(-0.0017, 0.0008, -0.0017, -0.0034, 0.0017, -90.0019, 0.0)","(7.0, -3.0, 0.0, -35.0, 4.0, 54.0, 1.0)","(-0.12, -0.16, -0.04, 0.2808, 0.0756, -0.0684, -0.0504)"
2020/05/26/02:02:32.677501,131,1590426152,618529081,,"['joint_S', 'joint_L', 'joint_E', 'joint_U', 'joint_R', 'joint_B', 'joint_T']","(-2, -1, -2, -4, -2, -91138, 0)","(-0.0017, 0.0008, -0.0017, -0.0034, 0.0017, -90.0019, 0.0)","(7.0, -3.0, 0.0, -35.0, 4.0, 54.0, 1.0)","(-0.12, -0.16, -0.04, 0.2808, 0.0756, -0.0684, -0.0504)"
2020/05/26/02:02:32.736371,132,1590426152,677289962,,"['joint_S', 'joint_L', 'joint_E', 'joint_U', 'joint_R', 'joint_B', 'joint_T']","(-2, -1, -2, -4, -2, -91138, 0)","(-0.0017, 0.0008, -0.0017, -0.0034, 0.0017, -90.0019, 0.0)","(7.0, -3.0, 0.0, -35.0, 4.0, 54.0, 1.0)","(-0.07, -0.16, -0.04, 0.1188, 0.0378, -0.0288, -0.0504)"
2020/05/26/02:02:32.797308,133,1590426152,736279964,,"['joint_S', 'joint_L', 'joint_E', 'joint_U', 'joint_R', 'joint_B', 'joint_T']","(-2, -1, -2, -4, -2, -91138, 0)","(-0.0017, 0.0008, -0.0017, -0.0034, 0.0017, -90.0019, 0.0)","(7.0, -3.0, 0.0, -35.0, 4.0, 54.0, 1.0)","(-0.07, -0.16, -0.03, 0.1188, 0.0378, -0.0288, -0.0504)"
2020/05/26/02:02:32.856588,134,1590426152,797307968,,"['joint_S', 'joint_L', 'joint_E', 'joint_U', 'joint_R', 'joint_B', 'joint_T']","(-2, -1, -2, -4, -2, -91138, 0)","(-0.0017, 0.0008, -0.0017, -0.0034, 0.0017, -90.0019, 0.0)","(7.0, -3.0, 0.0, -35.0, 4.0, 54.0, 1.0)","(-0.07, -0.16, -0.03, 0.1188, 0.0378, -0.0288, -0.0504)"
2020/05/26/02:02:32.915833,135,1590426152,856597900,,"['joint_S', 'joint_L', 'joint_E', 'joint_U', 'joint_R', 'joint_B', 'joint_T']","(-2, -1, -2, -4, -2, -91138, 0)","(-0.0017, 0.0008, -0.0017, -0.0034, 0.0017, -90.0019, 0.0)","(7.0, -3.0, 0.0, -35.0, 4.0, 54.0, 1.0)","(-0.07, -0.16, -0.03, 0.1188, 0.0378, -0.0288, -0.0504)"
2020/05/26/02:02:32.976132,136,1590426152,915920019,,"['joint_S', 'joint_L', 'joint_E', 'joint_U', 'joint_R', 'joint_B', 'joint_T']","(-2, -1, -2, -4, -2, -91138, 0)","(-0.0017, 0.0008, -0.0017, -0.0034, 0.0017, -90.0019, 0.0)","(7.0, -3.0, 0.0, -35.0, 4.0, 54.0, 1.0)","(-0.07, -0.16, -0.03, 0.1188, 0.0378, -0.0288, -0.0504)"
2020/05/26/02:02:33.036963,137,1590426152,976340055,,"['joint_S', 'joint_L', 'joint_E', 'joint_U', 'joint_R', 'joint_B', 'joint_T']","(-2, -1, -2, -4, -2, -91138, 0)","(-0.0017, 0.0008, -0.0017, -0.0034, 0.0017, -90.0019, 0.0)","(7.0, -3.0, 0.0, -35.0, 4.0, 54.0, 1.0)","(-0.07, -0.16, -0.03, 0.1188, 0.0378, -0.0288, -0.0504)"
2020/05/26/02:02:33.093781,138,1590426153,36648035,,"['joint_S', 'joint_L', 'joint_E', 'joint_U', 'joint_R', 'joint_B', 'joint_T']","(-2, -1, -2, -4, -2, -91138, 0)","(-0.0017, 0.0008, -0.0017, -0.0034, 0.0017, -90.0019, 0.0)","(7.0, -3.0, 0.0, -35.0, 4.0, 54.0, 1.0)","(-0.07, -0.16, -0.03, 0.1188, 0.0378, -0.0288, -0.0504)"
2020/05/26/02:02:33.154341,139,1590426153,93825101,,"['joint_S', 'joint_L', 'joint_E', 'joint_U', 'joint_R', 'joint_B', 'joint_T']","(-2, -1, -2, -4, -2, -91138, 0)","(-0.0017, 0.0008, -0.0017, -0.0034, 0.0017, -90.0019, 0.0)","(7.0, -3.0, 0.0, -35.0, 4.0, 54.0, 1.0)","(-0.07, -0.16, -0.03, 0.1188, 0.0378, -0.0288, -0.0504)"
2020/05/26/02:02:33.213867,140,1590426153,154443025,,"['joint_S', 'joint_L', 'joint_E', 'joint_U', 'joint_R', 'joint_B', 'joint_T']","(-2, -1, -2, -4, -2, -91138, 0)","(-0.0017, 0.0008, -0.0017, -0.0034, 0.0017, -90.0019, 0.0)","(7.0, -3.0, 0.0, -35.0, 4.0, 54.0, 1.0)","(-0.07, -0.16, -0.03, 0.1188, 0.0378, -0.0288, -0.0504)"
2020/05/26/02:02:33.273431,141,1590426153,213944911,,"['joint_S', 'joint_L', 'joint_E', 'joint_U', 'joint_R', 'joint_B', 'joint_T']","(-2, -1, -2, -4, -2, -91138, 0)","(-0.0017, 0.0008, -0.0017, -0.0034, 0.0017, -90.0019, 0.0)","(7.0, -3.0, 0.0, -35.0, 4.0, 54.0, 1.0)","(-0.07, -0.16, -0.03, 0.1188, 0.0378, -0.0288, -0.0504)"
2020/05/26/02:02:33.329890,142,1590426153,273282051,,"['joint_S', 'joint_L', 'joint_E', 'joint_U', 'joint_R', 'joint_B', 'joint_T']","(-12, 10, -11, 4, -5, -91138, 11)","(-0.0104, -0.0087, -0.0095, 0.0034, 0.0043, -90.0019, -0.0163)","(7.0, -3.0, 0.0, -35.0, 4.0, 54.0, 1.0)","(-0.07, -0.16, -0.03, 0.1188, 0.0378, -0.0288, -0.0504)"
2020/05/26/02:02:33.390138,143,1590426153,329962015,,"['joint_S', 'joint_L', 'joint_E', 'joint_U', 'joint_R', 'joint_B', 'joint_T']","(-126, 133, -121, 91, -41, -91109, 140)","(-0.1096, -0.1157, -0.1052, 0.0791, 0.0356, -89.9733, -0.2085)","(7.0, -3.0, 0.0, -35.0, 4.0, 54.0, 1.0)","(-0.07, -0.16, -0.03, 0.1188, 0.0378, -0.0288, -0.0504)"
2020/05/26/02:02:33.448093,144,1590426153,389899015,,"['joint_S', 'joint_L', 'joint_E', 'joint_U', 'joint_R', 'joint_B', 'joint_T']","(-364, 391, -349, 270, -117, -91050, 409)","(-0.3167, -0.3402, -0.3037, 0.2349, 0.1018, -89.915, -0.6092)","(-248.0, 361.0, -870.0, 317.0, -149.0, 256.0, 1031.0)","(-0.07, -0.16, -0.03, 0.1188, 0.0378, -0.0288, -0.0504)"
2020/05/26/02:02:33.504085,145,1590426153,448070049,,"['joint_S', 'joint_L', 'joint_E', 'joint_U', 'joint_R', 'joint_B', 'joint_T']","(-706, 761, -677, 528, -226, -90965, 796)","(-0.6143, -0.6622, -0.5891, 0.4594, 0.1966, -89.8311, -1.1857)","(-248.0, 361.0, -870.0, 317.0, -149.0, 256.0, 1031.0)","(-0.07, -0.16, -0.03, 0.1188, 0.0378, -0.0288, -0.0504)"
2020/05/26/02:02:33.560925,146,1590426153,503962039,,"['joint_S', 'joint_L', 'joint_E', 'joint_U', 'joint_R', 'joint_B', 'joint_T']","(-1134, 1224, -1088, 851, -363, -90858, 1280)","(-0.9868, -1.0651, -0.9467, 0.7405, 0.3158, -89.7254, -1.9067)","(-248.0, 361.0, -870.0, 317.0, -149.0, 256.0, 1031.0)","(-0.07, -0.16, -0.03, 0.1188, 0.0378, -0.0288, -0.0504)"
2020/05/26/02:02:33.617397,147,1590426153,560705900,,"['joint_S', 'joint_L', 'joint_E', 'joint_U', 'joint_R', 'joint_B', 'joint_T']","(-1613, 1742, -1546, 1213, -516, -90738, 1822)","(-1.4036, -1.5158, -1.3453, 1.0555, 0.449, -89.6069, -2.7141)","(-248.0, 361.0, -870.0, 317.0, -149.0, 256.0, 1031.0)","(-0.19, -0.09, -0.15, 0.2916, 0.1134, 0.0828, 0.0828)"
2020/05/26/02:02:33.674169,148,1590426153,617563962,,"['joint_S', 'joint_L', 'joint_E', 'joint_U', 'joint_R', 'joint_B', 'joint_T']","(-2221, 2401, -2130, 1672, -710, -90586, 2510)","(-1.9327, -2.0893, -1.8535, 1.4549, 0.6178, -89.4568, -3.739)","(-248.0, 361.0, -870.0, 317.0, -149.0, 256.0, 1031.0)","(-0.19, -0.09, -0.15, 0.2916, 0.1134, 0.0828, 0.0828)"
2020/05/26/02:02:33.731805,149,1590426153,673829078,,"['joint_S', 'joint_L', 'joint_E', 'joint_U', 'joint_R', 'joint_B', 'joint_T']","(-2985, 3228, -2863, 2249, -953, -90396, 3374)","(-2.5975, -2.809, -2.4913, 1.957, 0.8293, -89.2692, -5.0261)","(-248.0, 361.0, -870.0, 317.0, -149.0, 256.0, 1031.0)","(-0.19, -0.09, -0.15, 0.2916, 0.1134, 0.0828, 0.0828)"
2020/05/26/02:02:33.788994,150,1590426153,731841087,,"['joint_S', 'joint_L', 'joint_E', 'joint_U', 'joint_R', 'joint_B', 'joint_T']","(-3841, 4154, -3683, 2894, -1226, -90182, 4341)","(-3.3424, -3.6148, -3.2049, 2.5183, 1.0668, -89.0578, -6.4666)","(-248.0, 361.0, -870.0, 317.0, -149.0, 256.0, 1031.0)","(-0.19, -0.09, -0.15, 0.2916, 0.1134, 0.0828, 0.0828)"
2020/05/26/02:02:33.846432,151,1590426153,789022922,,"['joint_S', 'joint_L', 'joint_E', 'joint_U', 'joint_R', 'joint_B', 'joint_T']","(-4845, 5241, -4646, 3652, -1547, -89931, 5477)","(-4.2161, -4.5607, -4.0429, 3.1779, 1.3462, -88.81, -8.1589)","(-248.0, 361.0, -870.0, 317.0, -149.0, 256.0, 1031.0)","(-0.19, -0.09, -0.15, 0.2916, 0.1134, 0.0828, 0.0828)"
2020/05/26/02:02:33.901888,152,1590426153,845814943,,"['joint_S', 'joint_L', 'joint_E', 'joint_U', 'joint_R', 'joint_B', 'joint_T']","(-5841, 6319, -5601, 4404, -1864, -89683, 6603)","(-5.0828, -5.4988, -4.874, 3.8323, 1.622, -88.5651, -9.8363)","(-248.0, 361.0, -870.0, 317.0, -149.0, 256.0, 1031.0)","(-0.19, -0.09, -0.15, 0.2916, 0.1134, 0.0828, 0.0828)"
2020/05/26/02:02:33.958495,153,1590426153,901952981,,"['joint_S', 'joint_L', 'joint_E', 'joint_U', 'joint_R', 'joint_B', 'joint_T']","(-6801, 7359, -6522, 5128, -2171, -89443, 7689)","(-5.9182, -6.4038, -5.6754, 4.4624, 1.8892, -88.3281, -11.454)","(-248.0, 361.0, -870.0, 317.0, -149.0, 256.0, 1031.0)","(-0.19, -0.09, -0.15, 0.2916, 0.1134, 0.0828, 0.0828)"
2020/05/26/02:02:34.015438,154,1590426153,958587884,,"['joint_S', 'joint_L', 'joint_E', 'joint_U', 'joint_R', 'joint_B', 'joint_T']","(-7752, 8387, -7433, 5846, -2474, -89206, 8764)","(-6.7458, -7.2984, -6.4682, 5.0872, 2.1528, -88.094, -13.0554)","(-248.0, 361.0, -870.0, 317.0, -149.0, 256.0, 1031.0)","(-0.19, -0.09, -0.15, 0.2916, 0.1134, 0.0828, 0.0828)"
2020/05/26/02:02:34.071905,155,1590426154,15496015,,"['joint_S', 'joint_L', 'joint_E', 'joint_U', 'joint_R', 'joint_B', 'joint_T']","(-8735, 9452, -8376, 6588, -2788, -88960, 9876)","(-7.6012, -8.2251, -7.2888, 5.7329, 2.4261, -87.8511, -14.7119)","(-248.0, 361.0, -870.0, 317.0, -149.0, 256.0, 1031.0)","(-0.19, -0.09, -0.15, 0.2916, 0.1134, 0.0828, 0.0828)"
2020/05/26/02:02:34.129500,156,1590426154,72005033,,"['joint_S', 'joint_L', 'joint_E', 'joint_U', 'joint_R', 'joint_B', 'joint_T']","(-9685, 10479, -9286, 7305, -3091, -88723, 10950)","(-8.4279, -9.1188, -8.0807, 6.3568, 2.6898, -87.617, -16.3119)","(-248.0, 361.0, -870.0, 317.0, -149.0, 256.0, 1031.0)","(-0.19, -0.09, -0.15, 0.2916, 0.1134, 0.0828, 0.0828)"
2020/05/26/02:02:34.189068,157,1590426154,129476070,,"['joint_S', 'joint_L', 'joint_E', 'joint_U', 'joint_R', 'joint_B', 'joint_T']","(-10670, 11546, -10231, 8048, -3405, -88477, 12065)","(-9.285, -10.0473, -8.903, 7.0034, 2.963, -87.3741, -17.9728)","(-248.0, 361.0, -870.0, 317.0, -149.0, 256.0, 1031.0)","(-0.19, -0.09, -0.15, 0.2916, 0.1134, 0.0828, 0.0828)"
2020/05/26/02:02:34.245666,158,1590426154,188980102,,"['joint_S', 'joint_L', 'joint_E', 'joint_U', 'joint_R', 'joint_B', 'joint_T']","(-11666, 12624, -11186, 8800, -3723, -88229, 13190)","(-10.1518, -10.9854, -9.7341, 7.6577, 3.2397, -87.1292, -19.6487)","(-248.0, 361.0, -870.0, 317.0, -149.0, 256.0, 1031.0)","(-0.19, -0.09, -0.15, 0.2916, 0.1134, 0.0828, 0.0828)"
2020/05/26/02:02:34.302087,159,1590426154,245832920,,"['joint_S', 'joint_L', 'joint_E', 'joint_U', 'joint_R', 'joint_B', 'joint_T']","(-12653, 13692, -12132, 9545, -4038, -87982, 14307)","(-11.0106, -11.9148, -10.5573, 8.306, 3.5138, -86.8853, -21.3127)","(-16953.0, 18357.0, -870.0, 12814.0, -5411.0, 4239.0, 1031.0)","(-0.19, -0.09, -0.15, 0.2916, 0.1134, 0.0828, 0.0828)"
2020/05/26/02:02:34.357564,160,1590426154,302229881,,"['joint_S', 'joint_L', 'joint_E', 'joint_U', 'joint_R', 'joint_B', 'joint_T']","(-13602, 14719, -13042, 10261, -4340, -87745, 15380)","(-11.8365, -12.8085, -11.3492, 8.9291, 3.7766, -86.6512, -22.9111)","(-16953.0, 18357.0, -16292.0, 12814.0, -5411.0, 4239.0, 19243.0)","(-0.19, -0.09, -0.15, 0.2916, 0.1134, 0.0828, 0.0828)"
2020/05/26/02:02:34.413551,161,1590426154,357597112,,"['joint_S', 'joint_L', 'joint_E', 'joint_U', 'joint_R', 'joint_B', 'joint_T']","(-14552, 15748, -13954, 10978, -4644, -87508, 16455)","(-12.6632, -13.7039, -12.1428, 9.5531, 4.0412, -86.4172, -24.5125)","(-16953.0, 18357.0, -16292.0, 12814.0, -5411.0, 4239.0, 19243.0)","(-0.19, -0.09, -0.15, 0.2916, 0.1134, 0.0828, 0.0828)"
2020/05/26/02:02:34.469600,162,1590426154,413564920,,"['joint_S', 'joint_L', 'joint_E', 'joint_U', 'joint_R', 'joint_B', 'joint_T']","(-15502, 16775, -14864, 11695, -4947, -87271, 17528)","(-13.4899, -14.5976, -12.9347, 10.177, 4.3049, -86.1831, -26.1109)","(-16953.0, 18357.0, -16292.0, 12814.0, -5411.0, 4239.0, 19243.0)","(-0.21, -0.14, -0.15, 0.2862, 0.0918, 0.0684, 0.0828)"
2020/05/26/02:02:34.527230,163,1590426154,469651937,,"['joint_S', 'joint_L', 'joint_E', 'joint_U', 'joint_R', 'joint_B', 'joint_T']","(-16477, 17831, -15799, 12430, -5258, -87028, 18631)","(-14.3383, -15.5166, -13.7483, 10.8166, 4.5755, -85.9432, -27.754)","(-16953.0, 18357.0, -16292.0, 12814.0, -5411.0, 4239.0, 19243.0)","(-0.21, -0.14, -0.15, 0.2862, 0.0918, 0.0684, 0.0936)"
2020/05/26/02:02:34.584209,164,1590426154,527312040,,"['joint_S', 'joint_L', 'joint_E', 'joint_U', 'joint_R', 'joint_B', 'joint_T']","(-17420, 18852, -16703, 13142, -5559, -86792, 19698)","(-15.1589, -16.405, -14.535, 11.4362, 4.8374, -85.7101, -29.3435)","(-16953.0, 18357.0, -16292.0, 12814.0, -5411.0, 4239.0, 19243.0)","(-0.21, -0.14, -0.15, 0.2862, 0.0918, 0.0684, 0.0936)"
2020/05/26/02:02:34.640030,165,1590426154,584284067,,"['joint_S', 'joint_L', 'joint_E', 'joint_U', 'joint_R', 'joint_B', 'joint_T']","(-18239, 19738, -17488, 13760, -5820, -86588, 20624)","(-15.8716, -17.176, -15.2181, 11.974, 5.0645, -85.5086, -30.7229)","(-16953.0, 18357.0, -16292.0, 12814.0, -5411.0, 4239.0, 19243.0)","(-0.21, -0.14, -0.15, 0.2862, 0.0918, 0.0684, 0.0936)"
2020/05/26/02:02:34.698323,166,1590426154,639909982,,"['joint_S', 'joint_L', 'joint_E', 'joint_U', 'joint_R', 'joint_B', 'joint_T']","(-18942, 20499, -18163, 14291, -6044, -86412, 21419)","(-16.4834, -17.8383, -15.8055, 12.436, 5.2595, -85.3348, -31.9072)","(-16953.0, 18357.0, -16292.0, 12814.0, -5411.0, 4239.0, 19243.0)","(-0.21, -0.14, -0.15, 0.2862, 0.0918, 0.0684, 0.0936)"
2020/05/26/02:02:34.755364,167,1590426154,698128938,,"['joint_S', 'joint_L', 'joint_E', 'joint_U', 'joint_R', 'joint_B', 'joint_T']","(-19446, 21045, -18646, 14672, -6205, -86287, 21989)","(-16.9219, -18.3134, -16.2258, 12.7676, 5.3996, -85.2114, -32.7563)","(-16953.0, 18357.0, -16292.0, 12814.0, -5411.0, 4239.0, 19243.0)","(-0.21, -0.14, -0.15, 0.2862, 0.0918, 0.0684, 0.0936)"
2020/05/26/02:02:34.811594,168,1590426154,755357980,,"['joint_S', 'joint_L', 'joint_E', 'joint_U', 'joint_R', 'joint_B', 'joint_T']","(-19902, 21538, -19083, 15016, -6350, -86173, 22505)","(-17.3188, -18.7424, -16.6061, 13.0669, 5.5257, -85.0988, -33.525)","(-16953.0, 18357.0, -16292.0, 12814.0, -5411.0, 4239.0, 19243.0)","(-0.21, -0.14, -0.15, 0.2862, 0.0918, 0.0684, 0.0936)"
2020/05/26/02:02:34.868243,169,1590426154,811418056,,"['joint_S', 'joint_L', 'joint_E', 'joint_U', 'joint_R', 'joint_B', 'joint_T']","(-20267, 21933, -19433, 15291, -6467, -86082, 22917)","(-17.6364, -19.0861, -16.9106, 13.3062, 5.6276, -85.009, -34.1388)","(-16953.0, 18357.0, -16292.0, 12814.0, -5411.0, 4239.0, 19243.0)","(-0.21, -0.14, -0.15, 0.2862, 0.0918, 0.0684, 0.0936)"
2020/05/26/02:02:34.925712,170,1590426154,868182897,,"['joint_S', 'joint_L', 'joint_E', 'joint_U', 'joint_R', 'joint_B', 'joint_T']","(-20541, 22229, -19695, 15498, -6554, -86013, 23227)","(-17.8748, -19.3437, -17.1386, 13.4864, 5.7033, -84.9408, -34.6006)","(-16953.0, 18357.0, -16292.0, 12814.0, -5411.0, 4239.0, 19243.0)","(-0.21, -0.14, -0.15, 0.2862, 0.0918, 0.0684, 0.0936)"
2020/05/26/02:02:34.981944,171,1590426154,925483942,,"['joint_S', 'joint_L', 'joint_E', 'joint_U', 'joint_R', 'joint_B', 'joint_T']","(-20710, 22412, -19857, 15625, -6608, -85971, 23418)","(-18.0219, -19.503, -17.2796, 13.5969, 5.7503, -84.8993, -34.8851)","(-16953.0, 18357.0, -16292.0, 12814.0, -5411.0, 4239.0, 19243.0)","(-0.21, -0.14, -0.15, 0.2862, 0.0918, 0.0684, 0.0936)"
2020/05/26/02:02:35.040182,172,1590426154,982027053,,"['joint_S', 'joint_L', 'joint_E', 'joint_U', 'joint_R', 'joint_B', 'joint_T']","(-20759, 22466, -19905, 15662, -6624, -85959, 23474)","(-18.0645, -19.55, -17.3214, 13.6291, 5.7642, -84.8875, -34.9685)","(-16953.0, 18357.0, -16292.0, 12814.0, -5411.0, 4239.0, 19243.0)","(-0.21, -0.14, -0.15, 0.2862, 0.0918, 0.0684, 0.0936)"
2020/05/26/02:02:35.098486,173,1590426155,40075063,,"['joint_S', 'joint_L', 'joint_E', 'joint_U', 'joint_R', 'joint_B', 'joint_T']","(-20759, 22466, -19905, 15662, -6624, -85959, 23474)","(-18.0645, -19.55, -17.3214, 13.6291, 5.7642, -84.8875, -34.9685)","(-16953.0, 18357.0, -16292.0, 12814.0, -5411.0, 4239.0, 19243.0)","(-0.21, -0.14, -0.15, 0.2862, 0.0918, 0.0684, 0.0936)"
2020/05/26/02:02:35.157153,174,1590426155,98581075,,"['joint_S', 'joint_L', 'joint_E', 'joint_U', 'joint_R', 'joint_B', 'joint_T']","(-20759, 22466, -19905, 15662, -6624, -85959, 23474)","(-18.0645, -19.55, -17.3214, 13.6291, 5.7642, -84.8875, -34.9685)","(-1733.0, 1662.0, -16292.0, 12814.0, -5411.0, 4239.0, 19243.0)","(-0.21, -0.14, -0.15, 0.2862, 0.0918, 0.0684, 0.0936)"
2020/05/26/02:02:35.215545,175,1590426155,157140016,,"['joint_S', 'joint_L', 'joint_E', 'joint_U', 'joint_R', 'joint_B', 'joint_T']","(-20759, 22466, -19905, 15662, -6624, -85959, 23474)","(-18.0645, -19.55, -17.3214, 13.6291, 5.7642, -84.8875, -34.9685)","(-1733.0, 1662.0, -688.0, 1028.0, -370.0, 348.0, 964.0)","(-0.21, -0.14, -0.15, 0.2862, 0.0918, 0.0684, 0.0936)"
2020/05/26/02:02:35.273483,176,1590426155,215394020,,"['joint_S', 'joint_L', 'joint_E', 'joint_U', 'joint_R', 'joint_B', 'joint_T']","(-20759, 22466, -19905, 15662, -6624, -85959, 23474)","(-18.0645, -19.55, -17.3214, 13.6291, 5.7642, -84.8875, -34.9685)","(-1733.0, 1662.0, -688.0, 1028.0, -370.0, 348.0, 964.0)","(-0.21, -0.14, -0.15, 0.2862, 0.0918, 0.0684, 0.0936)"
2020/05/26/02:02:35.330426,177,1590426155,273421049,,"['joint_S', 'joint_L', 'joint_E', 'joint_U', 'joint_R', 'joint_B', 'joint_T']","(-20759, 22466, -19905, 15662, -6624, -85959, 23474)","(-18.0645, -19.55, -17.3214, 13.6291, 5.7642, -84.8875, -34.9685)","(-1733.0, 1662.0, -688.0, 1028.0, -370.0, 348.0, 964.0)","(-0.16, -0.18, -0.15, 0.324, 0.0918, 0.0684, 0.0936)"
2020/05/26/02:02:35.389178,178,1590426155,330509901,,"['joint_S', 'joint_L', 'joint_E', 'joint_U', 'joint_R', 'joint_B', 'joint_T']","(-20759, 22466, -19905, 15662, -6624, -85959, 23474)","(-18.0645, -19.55, -17.3214, 13.6291, 5.7642, -84.8875, -34.9685)","(-1733.0, 1662.0, -688.0, 1028.0, -370.0, 348.0, 964.0)","(-0.16, -0.18, -0.14, 0.324, 0.1026, 0.0792, 0.0612)"
