time,.header.seq,.header.stamp.secs,.header.stamp.nsecs,.header.frame_id,.name,.pulse,.position,.velocity,.torque
2020/05/26/02:05:04.530246,1225,1590426304,475802898,,"['joint_S', 'joint_L', 'joint_E', 'joint_U', 'joint_R', 'joint_B', 'joint_T']","(-5, 5, -4, 0, 0, 0, 1)","(-0.0043, -0.0043, -0.0034, 0.0, 0.0, 0.0, -0.0014)","(0.0, 0.0, 0.0, 0.0, 0.0, 0.0, 0.0)","(6.8e-05, -0.003767, 5.4e-05, 0.004543, 0.000589, 0.001155, 2.4e-05)"
2020/05/26/02:05:04.584598,1226,1590426304,530128955,,"['joint_S', 'joint_L', 'joint_E', 'joint_U', 'joint_R', 'joint_B', 'joint_T']","(-5, 5, -4, 0, 0, 0, 1)","(-0.0043, -0.0043, -0.0034, 0.0, 0.0, 0.0, -0.0014)","(0.0, 0.0, 0.0, 0.0, 0.0, 0.0, 0.0)","(0.000106, -0.003767, 5.4e-05, 0.004543, 0.000589, 0.001157, 2.2e-05)"
2020/05/26/02:05:04.640830,1227,1590426304,584320068,,"['joint_S', 'joint_L', 'joint_E', 'joint_U', 'joint_R', 'joint_B', 'joint_T']","(-5, 5, -4, 0, 0, 0, 1)","(-0.0043, -0.0043, -0.0034, 0.0, 0.0, 0.0, -0.0014)","(0.0, 0.0, 0.0, 0.0, 0.0, 0.0, 0.0)","(7.4e-05, -0.003767, 5.4e-05, 0.004543, 0.000589, 0.001157, 2e-05)"
2020/05/26/02:05:04.695983,1228,1590426304,640770912,,"['joint_S', 'joint_L', 'joint_E', 'joint_U', 'joint_R', 'joint_B', 'joint_T']","(-5, 5, -4, 0, 0, 0, 1)","(-0.0043, -0.0043, -0.0034, 0.0, 0.0, 0.0, -0.0014)","(0.0, 0.0, 0.0, 0.0, 0.0, 0.0, 0.0)","(7.4e-05, -0.003767, 5.4e-05, 0.004543, 0.000589, 0.001165, 1.8e-05)"
2020/05/26/02:05:04.750018,1229,1590426304,695703983,,"['joint_S', 'joint_L', 'joint_E', 'joint_U', 'joint_R', 'joint_B', 'joint_T']","(-5, 5, -4, 0, 0, 0, 1)","(-0.0043, -0.0043, -0.0034, 0.0, 0.0, 0.0, -0.0014)","(-124.8, 0.0, 0.0, 0.0, 0.0, 0.0, 0.0)","(0.000111, -0.003762, 5.4e-05, 0.004543, 0.000589, 0.001171, 1.8e-05)"
2020/05/26/02:05:04.802860,1230,1590426304,749766111,,"['joint_S', 'joint_L', 'joint_E', 'joint_U', 'joint_R', 'joint_B', 'joint_T']","(-5, 5, -4, 0, 0, 0, 1)","(-0.0043, -0.0043, -0.0034, 0.0, 0.0, 0.0, -0.0014)","(0.0, 0.0, 0.0, 0.0, 0.0, 0.0, 0.0)","(0.000106, -0.003801, 5.4e-05, 0.004543, 0.000589, 0.001167, 1.6e-05)"
2020/05/26/02:05:04.857373,1231,1590426304,802814960,,"['joint_S', 'joint_L', 'joint_E', 'joint_U', 'joint_R', 'joint_B', 'joint_T']","(-5, 5, -4, 0, 0, 0, 1)","(-0.0043, -0.0043, -0.0034, 0.0, 0.0, 0.0, -0.0014)","(0.0, 0.0, 0.0, 0.0, 0.0, 0.0, 0.0)","(6.3e-05, -0.003767, 5.4e-05, 0.004543, 0.000589, 0.001173, 1.4e-05)"
2020/05/26/02:05:04.912146,1232,1590426304,857237100,,"['joint_S', 'joint_L', 'joint_E', 'joint_U', 'joint_R', 'joint_B', 'joint_T']","(-5, 5, -4, 0, 0, 0, 1)","(-0.0043, -0.0043, -0.0034, 0.0, 0.0, 0.0, -0.0014)","(0.0, 0.0, 0.0, 0.0, 0.0, 0.0, 0.0)","(7e-05, -0.003767, 5.4e-05, 0.004543, 0.000589, 0.001157, 1.4e-05)"
2020/05/26/02:05:04.965375,1233,1590426304,912046909,,"['joint_S', 'joint_L', 'joint_E', 'joint_U', 'joint_R', 'joint_B', 'joint_T']","(-5, 5, -4, 0, 0, 0, 1)","(-0.0043, -0.0043, -0.0034, 0.0, 0.0, 0.0, -0.0014)","(0.0, 0.0, 0.0, 0.0, 0.0, 0.0, 0.0)","(7.4e-05, -0.003767, 5.4e-05, 0.004541, 0.000589, 0.001163, 1.2e-05)"
2020/05/26/02:05:05.019099,1234,1590426304,965097904,,"['joint_S', 'joint_L', 'joint_E', 'joint_U', 'joint_R', 'joint_B', 'joint_T']","(-5, 5, -4, 0, 0, 0, 1)","(-0.0043, -0.0043, -0.0034, 0.0, 0.0, 0.0, -0.0014)","(0.0, 0.0, 0.0, 0.0, 0.0, 0.0, 0.0)","(0.000106, -0.003767, 5.4e-05, 0.004537, 0.000589, 0.001161, 1e-05)"
2020/05/26/02:05:05.072886,1235,1590426305,18882036,,"['joint_S', 'joint_L', 'joint_E', 'joint_U', 'joint_R', 'joint_B', 'joint_T']","(-5, 5, -4, 0, 0, 0, 1)","(-0.0043, -0.0043, -0.0034, 0.0, 0.0, 0.0, -0.0014)","(0.0, 0.0, 0.0, 0.0, 0.0, 0.0, 0.0)","(7.4e-05, -0.003767, 5.4e-05, 0.004543, 0.000589, 0.001165, 1e-05)"
2020/05/26/02:05:05.126586,1236,1590426305,72863101,,"['joint_S', 'joint_L', 'joint_E', 'joint_U', 'joint_R', 'joint_B', 'joint_T']","(-5, 5, -4, 0, 0, 0, 1)","(-0.0043, -0.0043, -0.0034, 0.0, 0.0, 0.0, -0.0014)","(0.0, 0.0, 0.0, 0.0, 0.0, 0.0, 0.0)","(7.2e-05, -0.003767, 5.4e-05, 0.004543, 0.000589, 0.001163, 8e-06)"
2020/05/26/02:05:05.182090,1237,1590426305,126427888,,"['joint_S', 'joint_L', 'joint_E', 'joint_U', 'joint_R', 'joint_B', 'joint_T']","(-5, 5, -4, 0, 0, 0, 1)","(-0.0043, -0.0043, -0.0034, 0.0, 0.0, 0.0, -0.0014)","(0.0, 0.0, 0.0, 0.0, 0.0, 0.0, 0.0)","(7.2e-05, -0.003767, 5.4e-05, 0.004543, 0.000589, 0.001167, 6e-06)"
2020/05/26/02:05:05.237822,1238,1590426305,181869983,,"['joint_S', 'joint_L', 'joint_E', 'joint_U', 'joint_R', 'joint_B', 'joint_T']","(-5, 5, -4, 0, 0, 0, 1)","(-0.0043, -0.0043, -0.0034, 0.0, 0.0, 0.0, -0.0014)","(0.0, 0.0, 0.0, 0.0, 0.0, 0.0, 0.0)","(7.4e-05, -0.003767, 5.4e-05, 0.004543, 0.000589, 0.001167, 6e-06)"
2020/05/26/02:05:05.292372,1239,1590426305,237540006,,"['joint_S', 'joint_L', 'joint_E', 'joint_U', 'joint_R', 'joint_B', 'joint_T']","(-5, 5, -4, 0, 0, 0, 1)","(-0.0043, -0.0043, -0.0034, 0.0, 0.0, 0.0, -0.0014)","(0.0, 0.0, 0.0, 0.0, 0.0, 0.0, 0.0)","(7.4e-05, -0.003767, 5.4e-05, 0.004543, 0.000589, 0.001169, 4e-06)"
2020/05/26/02:05:05.345837,1240,1590426305,292284965,,"['joint_S', 'joint_L', 'joint_E', 'joint_U', 'joint_R', 'joint_B', 'joint_T']","(-5, 5, -4, 0, 0, 0, 1)","(-0.0043, -0.0043, -0.0034, 0.0, 0.0, 0.0, -0.0014)","(0.0, 0.0, 0.0, 0.0, 0.0, 0.0, 0.0)","(7.4e-05, -0.003767, 5.4e-05, 0.004543, 0.000589, 0.001169, 2e-06)"
2020/05/26/02:05:05.401368,1241,1590426305,345817089,,"['joint_S', 'joint_L', 'joint_E', 'joint_U', 'joint_R', 'joint_B', 'joint_T']","(-5, 5, -4, 0, 0, 0, 1)","(-0.0043, -0.0043, -0.0034, 0.0, 0.0, 0.0, -0.0014)","(0.0, 0.0, 0.0, 0.0, 0.0, 0.0, 0.0)","(7.4e-05, -0.003767, 5.4e-05, 0.004541, 0.000589, 0.001169, 2e-06)"
2020/05/26/02:05:05.454935,1242,1590426305,401303052,,"['joint_S', 'joint_L', 'joint_E', 'joint_U', 'joint_R', 'joint_B', 'joint_T']","(-5, 5, -4, 0, 0, 0, 1)","(-0.0043, -0.0043, -0.0034, 0.0, 0.0, 0.0, -0.0014)","(0.0, 0.0, 0.0, 0.0, 0.0, 0.0, 0.0)","(7.4e-05, -0.003767, 5.4e-05, 0.004543, 0.000589, 0.001171, 0.0)"
2020/05/26/02:05:05.508516,1243,1590426305,454740047,,"['joint_S', 'joint_L', 'joint_E', 'joint_U', 'joint_R', 'joint_B', 'joint_T']","(-5, 5, -4, 0, 0, 0, 1)","(-0.0043, -0.0043, -0.0034, 0.0, 0.0, 0.0, -0.0014)","(0.0, 0.0, 0.0, 0.0, 0.0, 0.0, 0.0)","(7.4e-05, -0.003767, 5.4e-05, 0.004543, 0.000589, 0.001171, 0.0)"
2020/05/26/02:05:05.560560,1244,1590426305,508357048,,"['joint_S', 'joint_L', 'joint_E', 'joint_U', 'joint_R', 'joint_B', 'joint_T']","(-5, 5, -4, 0, 0, 0, 1)","(-0.0043, -0.0043, -0.0034, 0.0, 0.0, 0.0, -0.0014)","(0.0, 0.0, 0.0, 0.0, 0.0, 0.0, 0.0)","(7.4e-05, -0.003767, 5.2e-05, 0.004543, 0.000589, 0.001171, 0.0)"
2020/05/26/02:05:05.614479,1245,1590426305,560370922,,"['joint_S', 'joint_L', 'joint_E', 'joint_U', 'joint_R', 'joint_B', 'joint_T']","(-5, 5, -4, 0, 0, 0, 1)","(-0.0043, -0.0043, -0.0034, 0.0, 0.0, 0.0, -0.0014)","(0.0, 0.0, 0.0, 0.0, 0.0, 0.0, 0.0)","(7.4e-05, -0.003767, 5.4e-05, 0.004543, 0.000589, 0.001173, -2e-06)"
2020/05/26/02:05:05.668350,1246,1590426305,614254951,,"['joint_S', 'joint_L', 'joint_E', 'joint_U', 'joint_R', 'joint_B', 'joint_T']","(-5, 5, -4, 0, 0, 0, 1)","(-0.0043, -0.0043, -0.0034, 0.0, 0.0, 0.0, -0.0014)","(0.0, 0.0, 0.0, 0.0, 0.0, 0.0, 0.0)","(7.4e-05, -0.003767, 5.4e-05, 0.004543, 0.000589, 0.001173, -2e-06)"
2020/05/26/02:05:05.724676,1247,1590426305,668302059,,"['joint_S', 'joint_L', 'joint_E', 'joint_U', 'joint_R', 'joint_B', 'joint_T']","(-5, 5, -4, 0, 0, 0, 1)","(-0.0043, -0.0043, -0.0034, 0.0, 0.0, 0.0, -0.0014)","(0.0, 0.0, 0.0, 0.0, 0.0, 0.0, 0.0)","(7.2e-05, -0.003767, 5.4e-05, 0.004543, 0.000589, 0.001176, -4e-06)"
2020/05/26/02:05:05.780781,1248,1590426305,724481105,,"['joint_S', 'joint_L', 'joint_E', 'joint_U', 'joint_R', 'joint_B', 'joint_T']","(-5, 5, -4, 0, 0, 0, 1)","(-0.0043, -0.0043, -0.0034, 0.0, 0.0, 0.0, -0.0014)","(0.0, 0.0, 0.0, 0.0, 0.0, 0.0, 0.0)","(7.4e-05, -0.003767, 4.9e-05, 0.004543, 0.000589, 0.001176, -4e-06)"
2020/05/26/02:05:05.833638,1249,1590426305,780535936,,"['joint_S', 'joint_L', 'joint_E', 'joint_U', 'joint_R', 'joint_B', 'joint_T']","(-5, 5, -4, 0, 0, 0, 1)","(-0.0043, -0.0043, -0.0034, 0.0, 0.0, 0.0, -0.0014)","(0.0, 0.0, 0.0, 0.0, 0.0, 0.0, 0.0)","(7.4e-05, -0.003767, 5.4e-05, 0.004543, 0.000589, 0.001176, -4e-06)"
2020/05/26/02:05:05.888715,1250,1590426305,833353996,,"['joint_S', 'joint_L', 'joint_E', 'joint_U', 'joint_R', 'joint_B', 'joint_T']","(-5, 5, -4, 0, 0, 0, 1)","(-0.0043, -0.0043, -0.0034, 0.0, 0.0, 0.0, -0.0014)","(0.0, 0.0, 0.0, 0.0, 0.0, 0.0, 0.0)","(0.000106, -0.003767, 5.6e-05, 0.004543, 0.000589, 0.001178, -6e-06)"
2020/05/26/02:05:05.940593,1251,1590426305,888617038,,"['joint_S', 'joint_L', 'joint_E', 'joint_U', 'joint_R', 'joint_B', 'joint_T']","(-5, 5, -4, 0, 0, 0, 1)","(-0.0043, -0.0043, -0.0034, 0.0, 0.0, 0.0, -0.0014)","(0.0, 0.0, 0.0, 0.0, 0.0, 0.0, 0.0)","(7.4e-05, -0.003767, 5.6e-05, 0.004545, 0.000589, 0.001178, -6e-06)"
2020/05/26/02:05:05.994320,1252,1590426305,940570116,,"['joint_S', 'joint_L', 'joint_E', 'joint_U', 'joint_R', 'joint_B', 'joint_T']","(-5, 5, -4, 0, 0, 0, 1)","(-0.0043, -0.0043, -0.0034, 0.0, 0.0, 0.0, -0.0014)","(0.0, 0.0, 0.0, 0.0, 0.0, 0.0, 0.0)","(7.4e-05, -0.003767, 5.6e-05, 0.004545, 0.000589, 0.00118, -6e-06)"
2020/05/26/02:05:06.050121,1253,1590426305,994277000,,"['joint_S', 'joint_L', 'joint_E', 'joint_U', 'joint_R', 'joint_B', 'joint_T']","(-5, 5, -4, 0, 0, 0, 1)","(-0.0043, -0.0043, -0.0034, 0.0, 0.0, 0.0, -0.0014)","(0.0, 0.0, 0.0, 0.0, 0.0, 0.0, 0.0)","(7.4e-05, -0.003767, 5.6e-05, 0.004545, 0.000589, 0.00118, -8e-06)"
2020/05/26/02:05:06.105800,1254,1590426306,50082921,,"['joint_S', 'joint_L', 'joint_E', 'joint_U', 'joint_R', 'joint_B', 'joint_T']","(-5, 5, -4, 0, 0, 0, 1)","(-0.0043, -0.0043, -0.0034, 0.0, 0.0, 0.0, -0.0014)","(0.0, 0.0, 0.0, 0.0, 0.0, 0.0, 0.0)","(7.4e-05, -0.003767, 5.6e-05, 0.004543, 0.000589, 0.00118, -8e-06)"
2020/05/26/02:05:06.160971,1255,1590426306,105536937,,"['joint_S', 'joint_L', 'joint_E', 'joint_U', 'joint_R', 'joint_B', 'joint_T']","(-5, 5, -4, 0, 0, 0, 1)","(-0.0043, -0.0043, -0.0034, 0.0, 0.0, 0.0, -0.0014)","(0.0, 0.0, 0.0, 0.0, 0.0, 0.0, 0.0)","(7.4e-05, -0.003767, 5.6e-05, 0.004545, 0.000589, 0.00118, -1e-05)"
2020/05/26/02:05:06.215479,1256,1590426306,160736083,,"['joint_S', 'joint_L', 'joint_E', 'joint_U', 'joint_R', 'joint_B', 'joint_T']","(-5, 5, -4, 0, 0, 0, 1)","(-0.0043, -0.0043, -0.0034, 0.0, 0.0, 0.0, -0.0014)","(0.0, 0.0, 0.0, 0.0, 0.0, 0.0, 0.0)","(7.4e-05, -0.003767, 5.6e-05, 0.004545, 0.000589, 0.001182, -1e-05)"
2020/05/26/02:05:06.269411,1257,1590426306,215265989,,"['joint_S', 'joint_L', 'joint_E', 'joint_U', 'joint_R', 'joint_B', 'joint_T']","(-5, 5, -4, 0, 0, 0, 1)","(-0.0043, -0.0043, -0.0034, 0.0, 0.0, 0.0, -0.0014)","(0.0, 0.0, 0.0, 0.0, 0.0, 0.0, 0.0)","(7.4e-05, -0.003767, 5.6e-05, 0.004545, 0.000589, 0.001182, -1e-05)"
2020/05/26/02:05:06.324114,1258,1590426306,269283056,,"['joint_S', 'joint_L', 'joint_E', 'joint_U', 'joint_R', 'joint_B', 'joint_T']","(-5, 5, -4, 0, 0, 0, 1)","(-0.0043, -0.0043, -0.0034, 0.0, 0.0, 0.0, -0.0014)","(0.0, 0.0, 0.0, 0.0, 0.0, 0.0, 0.0)","(7.4e-05, -0.003767, 5.6e-05, 0.004543, 0.000589, 0.001182, -1.2e-05)"
2020/05/26/02:05:06.378366,1259,1590426306,323975086,,"['joint_S', 'joint_L', 'joint_E', 'joint_U', 'joint_R', 'joint_B', 'joint_T']","(-5, 5, -4, 0, 0, 0, 1)","(-0.0043, -0.0043, -0.0034, 0.0, 0.0, 0.0, -0.0014)","(0.0, 0.0, 0.0, 0.0, 0.0, 0.0, 0.0)","(7.4e-05, -0.003767, 5.6e-05, 0.004543, 0.000589, 0.001184, -1.2e-05)"
2020/05/26/02:05:06.431444,1260,1590426306,378298997,,"['joint_S', 'joint_L', 'joint_E', 'joint_U', 'joint_R', 'joint_B', 'joint_T']","(-5, 5, -4, 0, 0, 0, 1)","(-0.0043, -0.0043, -0.0034, 0.0, 0.0, 0.0, -0.0014)","(0.0, 0.0, 0.0, 0.0, 0.0, 0.0, 0.0)","(7.2e-05, -0.003764, 5.6e-05, 0.004545, 0.000589, 0.001184, -1.4e-05)"
2020/05/26/02:05:06.487861,1261,1590426306,431380033,,"['joint_S', 'joint_L', 'joint_E', 'joint_U', 'joint_R', 'joint_B', 'joint_T']","(-5, 5, -4, 0, 0, 0, 1)","(-0.0043, -0.0043, -0.0034, 0.0, 0.0, 0.0, -0.0014)","(0.0, 0.0, 0.0, 0.0, 0.0, 0.0, 0.0)","(7.4e-05, -0.003767, 5.6e-05, 0.004545, 0.000589, 0.001186, -1.4e-05)"
2020/05/26/02:05:06.541992,1262,1590426306,487596988,,"['joint_S', 'joint_L', 'joint_E', 'joint_U', 'joint_R', 'joint_B', 'joint_T']","(-5, 5, -4, 0, 0, 0, 1)","(-0.0043, -0.0043, -0.0034, 0.0, 0.0, 0.0, -0.0014)","(0.0, 0.0, 0.0, 0.0, 0.0, 0.0, 0.0)","(7.4e-05, -0.003767, 5.6e-05, 0.004545, 0.000589, 0.001186, -1.4e-05)"
2020/05/26/02:05:06.595052,1263,1590426306,541815042,,"['joint_S', 'joint_L', 'joint_E', 'joint_U', 'joint_R', 'joint_B', 'joint_T']","(-5, 5, -4, 0, 0, 0, 1)","(-0.0043, -0.0043, -0.0034, 0.0, 0.0, 0.0, -0.0014)","(124.8, 0.0, 0.0, 0.0, 0.0, 0.0, 0.0)","(6.3e-05, -0.003767, 5.6e-05, 0.004545, 0.000589, 0.001186, -1.6e-05)"
2020/05/26/02:05:06.651553,1264,1590426306,595032930,,"['joint_S', 'joint_L', 'joint_E', 'joint_U', 'joint_R', 'joint_B', 'joint_T']","(-5, 5, -4, 0, 0, 0, 1)","(-0.0043, -0.0043, -0.0034, 0.0, 0.0, 0.0, -0.0014)","(0.0, 0.0, 0.0, 0.0, 0.0, 0.0, 0.0)","(7.7e-05, -0.003767, 5.6e-05, 0.004545, 0.000589, 0.001188, -1.6e-05)"
2020/05/26/02:05:06.705616,1265,1590426306,651328086,,"['joint_S', 'joint_L', 'joint_E', 'joint_U', 'joint_R', 'joint_B', 'joint_T']","(-5, 5, -4, 0, 0, 0, 1)","(-0.0043, -0.0043, -0.0034, 0.0, 0.0, 0.0, -0.0014)","(0.0, 0.0, 0.0, 0.0, 0.0, 0.0, 0.0)","(7.7e-05, -0.003767, 5.6e-05, 0.004545, 0.000589, 0.001188, -1.8e-05)"
2020/05/26/02:05:06.759465,1266,1590426306,705406904,,"['joint_S', 'joint_L', 'joint_E', 'joint_U', 'joint_R', 'joint_B', 'joint_T']","(-5, 5, -4, 0, 0, 0, 1)","(-0.0043, -0.0043, -0.0034, 0.0, 0.0, 0.0, -0.0014)","(0.0, 0.0, 0.0, 0.0, 0.0, 0.0, 0.0)","(7.7e-05, -0.003767, 5.6e-05, 0.004545, 0.000589, 0.00119, -1.8e-05)"
2020/05/26/02:05:06.814689,1267,1590426306,759351015,,"['joint_S', 'joint_L', 'joint_E', 'joint_U', 'joint_R', 'joint_B', 'joint_T']","(-5, 5, -4, 0, 0, 0, 1)","(-0.0043, -0.0043, -0.0034, 0.0, 0.0, 0.0, -0.0014)","(0.0, 0.0, 0.0, 0.0, 0.0, 0.0, 0.0)","(7.7e-05, -0.003767, 5.6e-05, 0.004545, 0.000589, 0.00119, -1.8e-05)"
2020/05/26/02:05:06.868119,1268,1590426306,814534902,,"['joint_S', 'joint_L', 'joint_E', 'joint_U', 'joint_R', 'joint_B', 'joint_T']","(-5, 5, -4, 0, 0, 0, 1)","(-0.0043, -0.0043, -0.0034, 0.0, 0.0, 0.0, -0.0014)","(0.0, 0.0, 0.0, 0.0, 0.0, 0.0, 0.0)","(7.7e-05, -0.003769, 5.6e-05, 0.004545, 0.000589, 0.00119, -2e-05)"
2020/05/26/02:05:06.923433,1269,1590426306,867933988,,"['joint_S', 'joint_L', 'joint_E', 'joint_U', 'joint_R', 'joint_B', 'joint_T']","(-5, 5, -4, 0, 0, 0, 1)","(-0.0043, -0.0043, -0.0034, 0.0, 0.0, 0.0, -0.0014)","(0.0, 0.0, 0.0, 0.0, 0.0, 0.0, 0.0)","(7.7e-05, -0.003769, 5.6e-05, 0.004545, 0.000589, 0.001192, -2e-05)"
2020/05/26/02:05:06.977179,1270,1590426306,923465967,,"['joint_S', 'joint_L', 'joint_E', 'joint_U', 'joint_R', 'joint_B', 'joint_T']","(-5, 5, -4, 0, 0, 0, 1)","(-0.0043, -0.0043, -0.0034, 0.0, 0.0, 0.0, -0.0014)","(0.0, 0.0, 0.0, 0.0, 0.0, 0.0, 0.0)","(7.7e-05, -0.003767, 5.6e-05, 0.004543, 0.000589, 0.001192, -2e-05)"
2020/05/26/02:05:07.030610,1271,1590426306,977067947,,"['joint_S', 'joint_L', 'joint_E', 'joint_U', 'joint_R', 'joint_B', 'joint_T']","(-5, 5, -4, 0, 0, 0, 1)","(-0.0043, -0.0043, -0.0034, 0.0, 0.0, 0.0, -0.0014)","(0.0, 0.0, 0.0, 0.0, 0.0, 0.0, 0.0)","(7.7e-05, -0.003767, 5.6e-05, 0.004545, 0.000589, 0.001194, -2.2e-05)"
2020/05/26/02:05:07.086495,1272,1590426307,30334949,,"['joint_S', 'joint_L', 'joint_E', 'joint_U', 'joint_R', 'joint_B', 'joint_T']","(-5, 5, -4, 0, 0, 0, 1)","(-0.0043, -0.0043, -0.0034, 0.0, 0.0, 0.0, -0.0014)","(0.0, 0.0, 0.0, 0.0, 0.0, 0.0, 0.0)","(7.7e-05, -0.003767, 5.6e-05, 0.004543, 0.000589, 0.001194, -2.2e-05)"
2020/05/26/02:05:07.141027,1273,1590426307,86427927,,"['joint_S', 'joint_L', 'joint_E', 'joint_U', 'joint_R', 'joint_B', 'joint_T']","(-5, 5, -4, 0, 0, 0, 1)","(-0.0043, -0.0043, -0.0034, 0.0, 0.0, 0.0, -0.0014)","(0.0, 0.0, 0.0, 0.0, 0.0, 0.0, 0.0)","(7.7e-05, -0.003767, 5.6e-05, 0.004545, 0.000589, 0.001194, -2.2e-05)"
2020/05/26/02:05:07.194951,1274,1590426307,141000032,,"['joint_S', 'joint_L', 'joint_E', 'joint_U', 'joint_R', 'joint_B', 'joint_T']","(-5, 5, -4, 0, 0, 0, 1)","(-0.0043, -0.0043, -0.0034, 0.0, 0.0, 0.0, -0.0014)","(0.0, 0.0, 0.0, 0.0, 0.0, 0.0, 0.0)","(7.7e-05, -0.003764, 5.6e-05, 0.004545, 0.000589, 0.001196, -2.4e-05)"
2020/05/26/02:05:07.249417,1275,1590426307,194892883,,"['joint_S', 'joint_L', 'joint_E', 'joint_U', 'joint_R', 'joint_B', 'joint_T']","(-5, 5, -4, 0, 0, 0, 1)","(-0.0043, -0.0043, -0.0034, 0.0, 0.0, 0.0, -0.0014)","(0.0, 0.0, 0.0, 0.0, 0.0, 0.0, 0.0)","(7.7e-05, -0.003767, 5.6e-05, 0.004545, 0.000589, 0.001196, -2.4e-05)"
2020/05/26/02:05:07.303120,1276,1590426307,249314069,,"['joint_S', 'joint_L', 'joint_E', 'joint_U', 'joint_R', 'joint_B', 'joint_T']","(-5, 5, -4, 0, 0, 0, 1)","(-0.0043, -0.0043, -0.0034, 0.0, 0.0, 0.0, -0.0014)","(0.0, 0.0, 0.0, 0.0, 0.0, 0.0, 0.0)","(7.7e-05, -0.003764, 5.6e-05, 0.004543, 0.000589, 0.001198, -2.6e-05)"
2020/05/26/02:05:07.356426,1277,1590426307,302892923,,"['joint_S', 'joint_L', 'joint_E', 'joint_U', 'joint_R', 'joint_B', 'joint_T']","(-5, 5, -4, 0, 0, 0, 1)","(-0.0043, -0.0043, -0.0034, 0.0, 0.0, 0.0, -0.0014)","(0.0, 0.0, 0.0, 0.0, 0.0, 0.0, 0.0)","(7.7e-05, -0.003767, 5.6e-05, 0.004545, 0.000589, 0.001198, -2.6e-05)"
2020/05/26/02:05:07.411136,1278,1590426307,356292009,,"['joint_S', 'joint_L', 'joint_E', 'joint_U', 'joint_R', 'joint_B', 'joint_T']","(-5, 5, -4, 0, 0, 0, 1)","(-0.0043, -0.0043, -0.0034, 0.0, 0.0, 0.0, -0.0014)","(0.0, 0.0, -124.8, 0.0, 0.0, 0.0, 0.0)","(7.7e-05, -0.003767, 0.000102, 0.004543, 0.000589, 0.001198, -2.6e-05)"
2020/05/26/02:05:07.463855,1279,1590426307,411070108,,"['joint_S', 'joint_L', 'joint_E', 'joint_U', 'joint_R', 'joint_B', 'joint_T']","(-5, 5, -4, 0, 0, 0, 1)","(-0.0043, -0.0043, -0.0034, 0.0, 0.0, 0.0, -0.0014)","(0.0, 0.0, 0.0, 0.0, 0.0, 0.0, 0.0)","(7.4e-05, -0.003767, 5.6e-05, 0.004545, 0.000589, 0.0012, -2.9e-05)"
2020/05/26/02:05:07.520343,1280,1590426307,463795900,,"['joint_S', 'joint_L', 'joint_E', 'joint_U', 'joint_R', 'joint_B', 'joint_T']","(-5, 5, -4, 0, 0, 0, 1)","(-0.0043, -0.0043, -0.0034, 0.0, 0.0, 0.0, -0.0014)","(0.0, 0.0, 0.0, 0.0, 0.0, 0.0, 0.0)","(7.4e-05, -0.003767, 5.6e-05, 0.004547, 0.000589, 0.0012, -2.9e-05)"
2020/05/26/02:05:07.573908,1281,1590426307,520262956,,"['joint_S', 'joint_L', 'joint_E', 'joint_U', 'joint_R', 'joint_B', 'joint_T']","(-5, 5, -4, 0, 0, 0, 1)","(-0.0043, -0.0043, -0.0034, 0.0, 0.0, 0.0, -0.0014)","(0.0, 0.0, 0.0, 0.0, 0.0, 0.0, 0.0)","(7.2e-05, -0.003767, 5.6e-05, 0.004547, 0.000589, 0.0012, -2.9e-05)"
2020/05/26/02:05:07.628266,1282,1590426307,573770999,,"['joint_S', 'joint_L', 'joint_E', 'joint_U', 'joint_R', 'joint_B', 'joint_T']","(-5, 5, -4, 0, 0, 0, 1)","(-0.0043, -0.0043, -0.0034, 0.0, 0.0, 0.0, -0.0014)","(0.0, 0.0, 0.0, 0.0, 0.0, 0.0, 0.0)","(7.7e-05, -0.003769, 5.8e-05, 0.004547, 0.000589, 0.001202, -3.1e-05)"
2020/05/26/02:05:07.681074,1283,1590426307,628074884,,"['joint_S', 'joint_L', 'joint_E', 'joint_U', 'joint_R', 'joint_B', 'joint_T']","(-5, 5, -4, 0, 0, 0, 1)","(-0.0043, -0.0043, -0.0034, 0.0, 0.0, 0.0, -0.0014)","(0.0, 0.0, 0.0, 0.0, 0.0, 0.0, 0.0)","(9.9e-05, -0.003511, 9e-05, 0.004216, 0.000591, 0.000698, -3.5e-05)"
2020/05/26/02:05:07.735041,1284,1590426307,680905103,,"['joint_S', 'joint_L', 'joint_E', 'joint_U', 'joint_R', 'joint_B', 'joint_T']","(-5, 6, -4, -1, 0, -3, 1)","(-0.0043, -0.0052, -0.0034, -0.0008, 0.0, -0.0029, -0.0014)","(0.0, 0.0, 0.0, 0.0, 0.0, -249.6, 0.0)","(0.000145, -0.002969, 0.000154, 0.003604, 0.000601, -0.002333, -3.9e-05)"
2020/05/26/02:05:07.789281,1285,1590426307,734900951,,"['joint_S', 'joint_L', 'joint_E', 'joint_U', 'joint_R', 'joint_B', 'joint_T']","(-5, 6, -4, -2, 0, -154, 1)","(-0.0043, -0.0052, -0.0034, -0.0017, 0.0, -0.152, -0.0014)","(0.0, 0.0, 0.0, 0.0, 0.0, -4243.2, 0.0)","(0.000213, -0.002228, 0.000238, 0.002845, 0.000616, -0.000402, -4.7e-05)"
2020/05/26/02:05:07.845087,1286,1590426307,789237976,,"['joint_S', 'joint_L', 'joint_E', 'joint_U', 'joint_R', 'joint_B', 'joint_T']","(-5, 7, -4, -3, 0, -450, 1)","(-0.0043, -0.006, -0.0034, -0.0026, 0.0, -0.4443, -0.0014)","(0.0, 0.0, 0.0, -124.8, 0.0, -6864.0, 0.0)","(0.000281, -0.001532, 0.00033, 0.002239, 0.000618, -0.000889, -5.8e-05)"
2020/05/26/02:05:07.901672,1287,1590426307,845009088,,"['joint_S', 'joint_L', 'joint_E', 'joint_U', 'joint_R', 'joint_B', 'joint_T']","(-5, 9, -4, -5, 0, -940, 1)","(-0.0043, -0.0078, -0.0034, -0.0043, 0.0, -0.9282, -0.0014)","(124.8, 124.8, 0.0, 0.0, 0.0, -10608.0, 0.0)","(0.000303, -0.001314, 0.000396, 0.002054, 0.00063, -0.000939, -7.6e-05)"
2020/05/26/02:05:07.958712,1288,1590426307,901424884,,"['joint_S', 'joint_L', 'joint_E', 'joint_U', 'joint_R', 'joint_B', 'joint_T']","(-5, 10, -4, -6, 0, -1650, 1)","(-0.0043, -0.0087, -0.0034, -0.0052, 0.0, -1.6294, -0.0014)","(0.0, 0.0, 0.0, 0.0, 0.0, -14102.4, 0.0)","(0.000403, -0.001489, 0.000487, 0.002143, 0.000634, -0.001283, -9.9e-05)"
2020/05/26/02:05:08.013268,1289,1590426307,958522081,,"['joint_S', 'joint_L', 'joint_E', 'joint_U', 'joint_R', 'joint_B', 'joint_T']","(-5, 11, -4, -8, 0, -2545, 1)","(-0.0043, -0.0095, -0.0034, -0.0069, 0.0, -2.5132, -0.0014)","(0.0, 0.0, 0.0, 0.0, 0.0, -17222.4, 0.0)","(0.000457, -0.001881, 0.00055, 0.002367, 0.000634, -0.001292, -0.00012)"
2020/05/26/02:05:08.068565,1290,1590426308,13273954,,"['joint_S', 'joint_L', 'joint_E', 'joint_U', 'joint_R', 'joint_B', 'joint_T']","(-5, 11, -4, -8, 0, -3549, 1)","(-0.0043, -0.0095, -0.0034, -0.0069, 0.0, -3.5047, -0.0014)","(124.8, -124.8, 0.0, -124.0, 0.0, -19219.2, 0.0)","(0.000491, -0.002404, 0.000614, 0.002707, 0.000634, -0.001414, -0.000143)"
2020/05/26/02:05:08.122838,1291,1590426308,68412065,,"['joint_S', 'joint_L', 'joint_E', 'joint_U', 'joint_R', 'joint_B', 'joint_T']","(-5, 10, -4, -8, 0, -4655, 1)","(-0.0043, -0.0087, -0.0034, -0.0069, 0.0, -4.5969, -0.0014)","(0.0, 0.0, 0.0, 0.0, 0.0, -20966.4, 0.0)","(0.000559, -0.00306, 0.000668, 0.003045, 0.000632, -0.00169, -0.000165)"
2020/05/26/02:05:08.179012,1292,1590426308,122773885,,"['joint_S', 'joint_L', 'joint_E', 'joint_U', 'joint_R', 'joint_B', 'joint_T']","(-5, 10, -4, -8, 0, -5843, 1)","(-0.0043, -0.0087, -0.0034, -0.0069, 0.0, -5.7701, -0.0014)","(0.0, 0.0, 0.0, 0.0, 0.0, -21964.8, 0.0)","(0.000598, -0.003764, 0.000711, 0.003562, 0.000632, -0.00153, -0.000188)"
2020/05/26/02:05:08.234979,1293,1590426308,178817987,,"['joint_S', 'joint_L', 'joint_E', 'joint_U', 'joint_R', 'joint_B', 'joint_T']","(-5, 9, -3, -7, 0, -7075, 1)","(-0.0043, -0.0078, -0.0026, -0.006, 0.0, -6.9868, -0.0014)","(0.0, 0.0, 0.0, 0.0, 0.0, -22713.6, 0.0)","(0.000639, -0.004318, 0.000752, 0.003867, 0.000626, -0.001491, -0.000211)"
2020/05/26/02:05:08.290115,1294,1590426308,234967947,,"['joint_S', 'joint_L', 'joint_E', 'joint_U', 'joint_R', 'joint_B', 'joint_T']","(-5, 9, -3, -7, 0, -8368, 1)","(-0.0043, -0.0078, -0.0026, -0.006, 0.0, -8.2636, -0.0014)","(0.0, 0.0, 0.0, 0.0, 0.0, -23587.2, 0.0)","(0.000689, -0.004574, 0.000788, 0.003812, 0.000626, -0.001669, -0.000226)"
2020/05/26/02:05:08.344310,1295,1590426308,289947986,,"['joint_S', 'joint_L', 'joint_E', 'joint_U', 'joint_R', 'joint_B', 'joint_T']","(-5, 8, -3, -8, 0, -9706, 1)","(-0.0043, -0.0069, -0.0026, -0.0069, 0.0, -9.585, -0.0014)","(0.0, 0.0, 0.0, 0.0, 0.0, -25084.8, 0.0)","(0.0007, -0.004594, 0.00082, 0.003702, 0.000632, -0.0017, -0.00024)"
2020/05/26/02:05:08.400608,1296,1590426308,344134092,,"['joint_S', 'joint_L', 'joint_E', 'joint_U', 'joint_R', 'joint_B', 'joint_T']","(-4, 8, -3, -7, 0, -11143, 1)","(-0.0034, -0.0069, -0.0026, -0.006, 0.0, -11.0041, -0.0014)","(0.0, 0.0, 0.0, 0.0, 0.0, -27206.4, 0.0)","(0.00075, -0.004467, 0.000899, 0.003566, 0.000634, -0.002011, -0.000253)"
2020/05/26/02:05:08.457305,1297,1590426308,400475978,,"['joint_S', 'joint_L', 'joint_E', 'joint_U', 'joint_R', 'joint_B', 'joint_T']","(-4, 8, -3, -7, 0, -12729, 1)","(-0.0034, -0.0069, -0.0026, -0.006, 0.0, -12.5703, -0.0014)","(0.0, 0.0, 0.0, 0.0, 0.0, -28579.2, 0.0)","(0.000786, -0.004762, 0.000974, 0.003991, 0.000634, -0.002281, -0.000275)"
2020/05/26/02:05:08.512591,1298,1590426308,457257032,,"['joint_S', 'joint_L', 'joint_E', 'joint_U', 'joint_R', 'joint_B', 'joint_T']","(-4, 7, -3, -7, 0, -14404, 1)","(-0.0034, -0.006, -0.0026, -0.006, 0.0, -14.2244, -0.0014)","(0.0, 0.0, 0.0, 0.0, 0.0, -29827.2, 0.0)","(0.000806, -0.005319, 0.001088, 0.004698, 0.000634, -0.001939, -0.0003)"
2020/05/26/02:05:08.569467,1299,1590426308,512487888,,"['joint_S', 'joint_L', 'joint_E', 'joint_U', 'joint_R', 'joint_B', 'joint_T']","(-4, 5, -3, -6, 0, -16108, 1)","(-0.0034, -0.0043, -0.0026, -0.0052, 0.0, -15.9072, -0.0014)","(0.0, 0.0, 0.0, -124.8, 0.0, -30201.6, 0.0)","(0.000829, -0.005523, 0.001183, 0.005283, 0.000632, -0.001885, -0.000325)"
2020/05/26/02:05:08.624965,1300,1590426308,569428920,,"['joint_S', 'joint_L', 'joint_E', 'joint_U', 'joint_R', 'joint_B', 'joint_T']","(-4, 4, -3, -5, 0, -17795, 1)","(-0.0034, -0.0034, -0.0026, -0.0043, 0.0, -17.5731, -0.0014)","(0.0, -124.0, 0.0, 0.0, 0.0, -29827.2, 0.0)","(0.000865, -0.005442, 0.001235, 0.005586, 0.000609, -0.002065, -0.000348)"
2020/05/26/02:05:08.680312,1301,1590426308,624772071,,"['joint_S', 'joint_L', 'joint_E', 'joint_U', 'joint_R', 'joint_B', 'joint_T']","(-4, 3, -3, -4, 0, -19453, 1)","(-0.0034, -0.0026, -0.0026, -0.0034, 0.0, -19.2105, -0.0014)","(0.0, 0.0, 0.0, 124.0, 0.0, -29203.2, 0.0)","(0.000924, -0.005378, 0.001287, 0.005689, 0.000597, -0.002094, -0.000367)"
2020/05/26/02:05:08.738538,1302,1590426308,680046081,,"['joint_S', 'joint_L', 'joint_E', 'joint_U', 'joint_R', 'joint_B', 'joint_T']","(-4, 2, -2, -4, 0, -21087, 1)","(-0.0034, -0.0017, -0.0017, -0.0034, 0.0, -20.8241, -0.0014)","(-124.8, 0.0, 0.0, 124.8, 0.0, -28953.6, 0.0)","(0.000967, -0.005093, 0.001273, 0.005792, 0.000634, -0.002246, -0.000383)"
2020/05/26/02:05:08.793292,1303,1590426308,738349914,,"['joint_S', 'joint_L', 'joint_E', 'joint_U', 'joint_R', 'joint_B', 'joint_T']","(-4, 2, -2, -4, 0, -22774, 1)","(-0.0034, -0.0017, -0.0017, -0.0034, 0.0, -22.4901, -0.0014)","(0.0, 0.0, 0.0, 0.0, 0.0, -28953.6, 0.0)","(0.001038, -0.004807, 0.00133, 0.005934, 0.000622, -0.001825, -0.000402)"
2020/05/26/02:05:08.849580,1304,1590426308,793112993,,"['joint_S', 'joint_L', 'joint_E', 'joint_U', 'joint_R', 'joint_B', 'joint_T']","(-4, 2, -2, -3, 0, -24369, 1)","(-0.0034, -0.0017, -0.0017, -0.0026, 0.0, -24.0652, -0.0014)","(0.0, 124.0, 0.0, 0.0, -124.8, -29078.4, 0.0)","(0.001115, -0.004664, 0.001332, 0.006122, 0.000634, -0.001901, -0.000418)"
2020/05/26/02:05:08.906555,1305,1590426308,849507093,,"['joint_S', 'joint_L', 'joint_E', 'joint_U', 'joint_R', 'joint_B', 'joint_T']","(-4, 2, -2, -2, 0, -25990, 1)","(-0.0034, -0.0017, -0.0017, -0.0017, 0.0, -25.666, -0.0014)","(0.0, 0.0, 0.0, 0.0, 0.0, -28953.6, 0.0)","(0.00118, -0.004395, 0.001378, 0.006109, 0.000597, -0.002132, -0.000437)"
2020/05/26/02:05:08.961708,1306,1590426308,906493902,,"['joint_S', 'joint_L', 'joint_E', 'joint_U', 'joint_R', 'joint_B', 'joint_T']","(-4, 2, -1, -2, 0, -27616, 1)","(-0.0034, -0.0017, -0.0008, -0.0017, 0.0, -27.2717, -0.0014)","(0.0, 0.0, 0.0, 0.0, 0.0, -28828.8, 0.0)","(0.001248, -0.004145, 0.00136, 0.006089, 0.000595, -0.002393, -0.000454)"
2020/05/26/02:05:09.016566,1307,1590426308,961621999,,"['joint_S', 'joint_L', 'joint_E', 'joint_U', 'joint_R', 'joint_B', 'joint_T']","(-4, 3, -1, -2, 0, -29213, 1)","(-0.0034, -0.0026, -0.0008, -0.0017, 0.0, -28.8488, -0.0014)","(0.0, 0.0, 0.0, 124.0, 0.0, -28454.4, 0.0)","(0.001296, -0.004068, 0.001314, 0.006136, 0.000589, -0.002428, -0.00047)"
2020/05/26/02:05:09.071952,1308,1590426309,16478061,,"['joint_S', 'joint_L', 'joint_E', 'joint_U', 'joint_R', 'joint_B', 'joint_T']","(-4, 3, -1, -2, 0, -30841, 1)","(-0.0034, -0.0026, -0.0008, -0.0017, 0.0, -30.4565, -0.0014)","(0.0, 0.0, 0.0, 0.0, 0.0, -29078.4, 0.0)","(0.001362, -0.004012, 0.00126, 0.006206, 0.000614, -0.001928, -0.000487)"
2020/05/26/02:05:09.128780,1309,1590426309,71777105,,"['joint_S', 'joint_L', 'joint_E', 'joint_U', 'joint_R', 'joint_B', 'joint_T']","(-4, 3, -1, -2, 0, -32465, 1)","(-0.0034, -0.0026, -0.0008, -0.0017, 0.0, -32.0603, -0.0014)","(0.0, 0.0, 0.0, 0.0, 0.0, -28953.6, 0.0)","(0.001407, -0.004002, 0.001217, 0.006258, 0.000587, -0.001968, -0.000504)"
2020/05/26/02:05:09.185166,1310,1590426309,128655910,,"['joint_S', 'joint_L', 'joint_E', 'joint_U', 'joint_R', 'joint_B', 'joint_T']","(-4, 3, -1, -1, 0, -34088, 1)","(-0.0034, -0.0026, -0.0008, -0.0008, 0.0, -33.663, -0.0014)","(0.0, 0.0, 0.0, 0.0, 0.0, -28953.6, 0.0)","(0.00145, -0.00393, 0.001156, 0.006216, 0.000581, -0.002229, -0.000518)"
2020/05/26/02:05:09.239164,1311,1590426309,184961080,,"['joint_S', 'joint_L', 'joint_E', 'joint_U', 'joint_R', 'joint_B', 'joint_T']","(-4, 3, 0, -1, 0, -35715, 1)","(-0.0034, -0.0026, 0.0, -0.0008, 0.0, -35.2698, -0.0014)","(0.0, 0.0, 0.0, 0.0, -124.8, -28704.0, 0.0)","(0.001491, -0.003871, 0.001119, 0.006138, 0.000624, -0.002378, -0.000535)"
2020/05/26/02:05:09.294513,1312,1590426309,238975048,,"['joint_S', 'joint_L', 'joint_E', 'joint_U', 'joint_R', 'joint_B', 'joint_T']","(-4, 3, 0, -1, 0, -37311, 1)","(-0.0034, -0.0026, 0.0, -0.0008, 0.0, -36.8459, -0.0014)","(0.0, 0.0, 0.0, 0.0, 0.0, -28828.8, 0.0)","(0.001525, -0.003819, 0.001097, 0.00612, 0.000607, -0.002493, -0.000549)"
2020/05/26/02:05:09.351635,1313,1590426309,294250965,,"['joint_S', 'joint_L', 'joint_E', 'joint_U', 'joint_R', 'joint_B', 'joint_T']","(-3, 3, 0, -1, 0, -38910, 1)","(-0.0026, -0.0026, 0.0, -0.0008, 0.0, -38.4249, -0.0014)","(0.0, 0.0, 0.0, 0.0, 0.0, -29078.4, 0.0)","(0.001545, -0.00383, 0.001097, 0.006128, 0.000607, -0.001711, -0.000564)"
2020/05/26/02:05:09.406969,1314,1590426309,351530075,,"['joint_S', 'joint_L', 'joint_E', 'joint_U', 'joint_R', 'joint_B', 'joint_T']","(-3, 3, 0, -1, 0, -40562, 1)","(-0.0026, -0.0026, 0.0, -0.0008, 0.0, -40.0564, -0.0014)","(0.0, 0.0, 0.0, 0.0, 0.0, -29452.8, 0.0)","(0.001559, -0.003832, 0.00109, 0.006035, 0.000605, -0.001889, -0.00058)"
2020/05/26/02:05:09.461353,1315,1590426309,406837940,,"['joint_S', 'joint_L', 'joint_E', 'joint_U', 'joint_R', 'joint_B', 'joint_T']","(-3, 3, 0, 0, 0, -42154, 1)","(-0.0026, -0.0026, 0.0, 0.0, 0.0, -41.6285, -0.0014)","(0.0, 0.0, 0.0, -124.8, 0.0, -29203.2, 0.0)","(0.001622, -0.003778, 0.00111, 0.00593, 0.000612, -0.002387, -0.000593)"
2020/05/26/02:05:09.516779,1316,1590426309,461266040,,"['joint_S', 'joint_L', 'joint_E', 'joint_U', 'joint_R', 'joint_B', 'joint_T']","(-3, 3, 0, 0, 0, -43754, 1)","(-0.0026, -0.0026, 0.0, 0.0, 0.0, -43.2086, -0.0014)","(0.0, 0.0, 0.0, 0.0, 0.0, -28704.0, 0.0)","(0.00165, -0.003724, 0.001099, 0.00579, 0.000579, -0.002615, -0.000607)"
2020/05/26/02:05:09.572917,1317,1590426309,516561031,,"['joint_S', 'joint_L', 'joint_E', 'joint_U', 'joint_R', 'joint_B', 'joint_T']","(-3, 3, 0, -1, 0, -45321, 1)","(-0.0026, -0.0026, 0.0, -0.0008, 0.0, -44.756, -0.0014)","(0.0, -124.8, 0.0, 0.0, 0.0, -28454.4, 0.0)","(0.001654, -0.003676, 0.001083, 0.005736, 0.000601, -0.00258, -0.000622)"
2020/05/26/02:05:09.627648,1318,1590426309,572844028,,"['joint_S', 'joint_L', 'joint_E', 'joint_U', 'joint_R', 'joint_B', 'joint_T']","(-2, 3, 0, -1, 0, -46977, 1)","(-0.0017, -0.0026, 0.0, -0.0008, 0.0, -46.3914, -0.0014)","(0.0, 0.0, 0.0, 0.0, 0.0, -29328.0, 0.0)","(0.00162, -0.003724, 0.00106, 0.005742, 0.000585, -0.001966, -0.000634)"
2020/05/26/02:05:09.683551,1319,1590426309,627631902,,"['joint_S', 'joint_L', 'joint_E', 'joint_U', 'joint_R', 'joint_B', 'joint_T']","(-2, 3, 0, -1, 0, -48571, 1)","(-0.0017, -0.0026, 0.0, -0.0008, 0.0, -47.9655, -0.0014)","(0.0, 0.0, 0.0, -124.0, 0.0, -29078.4, 0.0)","(0.001622, -0.003733, 0.001054, 0.005635, 0.000599, -0.002279, -0.000647)"
2020/05/26/02:05:09.736622,1320,1590426309,683276891,,"['joint_S', 'joint_L', 'joint_E', 'joint_U', 'joint_R', 'joint_B', 'joint_T']","(-2, 3, 0, 0, 0, -50164, 1)","(-0.0017, -0.0026, 0.0, 0.0, 0.0, -49.5387, -0.0014)","(0.0, 0.0, 0.0, 0.0, 0.0, -29078.4, 0.0)","(0.001582, -0.003681, 0.001029, 0.005497, 0.000603, -0.002714, -0.000661)"
2020/05/26/02:05:09.795798,1321,1590426309,736532926,,"['joint_S', 'joint_L', 'joint_E', 'joint_U', 'joint_R', 'joint_B', 'joint_T']","(-2, 3, 0, -1, 0, -51766, 1)","(-0.0017, -0.0026, 0.0, -0.0008, 0.0, -51.1207, -0.0014)","(0.0, 0.0, 0.0, 0.0, 0.0, -28704.0, 0.0)","(0.001541, -0.00366, 0.001001, 0.005417, 0.000595, -0.002733, -0.000672)"
2020/05/26/02:05:09.849728,1322,1590426309,795571088,,"['joint_S', 'joint_L', 'joint_E', 'joint_U', 'joint_R', 'joint_B', 'joint_T']","(-1, 3, 0, -1, 0, -53361, 1)","(-0.0008, -0.0026, 0.0, -0.0008, 0.0, -52.6958, -0.0014)","(0.0, 0.0, 0.0, 0.0, 124.0, -29078.4, 0.0)","(0.001477, -0.003683, 0.00097, 0.005376, 0.000562, -0.002505, -0.000684)"
2020/05/26/02:05:09.903103,1323,1590426309,849450111,,"['joint_S', 'joint_L', 'joint_E', 'joint_U', 'joint_R', 'joint_B', 'joint_T']","(-1, 3, 0, -1, 0, -54983, 1)","(-0.0008, -0.0026, 0.0, -0.0008, 0.0, -54.2976, -0.0014)","(0.0, 0.0, 0.0, 0.0, 0.0, -29328.0, 0.0)","(0.001421, -0.003776, 0.000947, 0.005353, 0.000597, -0.002229, -0.000696)"
2020/05/26/02:05:09.959024,1324,1590426309,902971982,,"['joint_S', 'joint_L', 'joint_E', 'joint_U', 'joint_R', 'joint_B', 'joint_T']","(-1, 3, 0, -1, 0, -56574, 1)","(-0.0008, -0.0026, 0.0, -0.0008, 0.0, -55.8688, -0.0014)","(0.0, 0.0, 0.0, 0.0, 0.0, -28953.6, 0.0)","(0.001362, -0.0039, 0.000922, 0.005233, 0.000599, -0.002714, -0.000709)"
2020/05/26/02:05:10.014059,1325,1590426309,958767890,,"['joint_S', 'joint_L', 'joint_E', 'joint_U', 'joint_R', 'joint_B', 'joint_T']","(-1, 3, 0, -1, 0, -58166, 1)","(-0.0008, -0.0026, 0.0, -0.0008, 0.0, -57.4409, -0.0014)","(0.0, 0.0, 0.0, 0.0, 0.0, -28579.2, 0.0)","(0.001307, -0.003919, 0.000897, 0.00511, 0.000581, -0.00298, -0.000721)"
2020/05/26/02:05:10.069078,1326,1590426310,13959884,,"['joint_S', 'joint_L', 'joint_E', 'joint_U', 'joint_R', 'joint_B', 'joint_T']","(-1, 3, 0, -1, 0, -59790, 1)","(-0.0008, -0.0026, 0.0, -0.0008, 0.0, -59.0447, -0.0014)","(0.0, 0.0, 0.0, 0.0, 0.0, -28579.2, 0.0)","(0.001248, -0.004023, 0.000881, 0.004996, 0.000581, -0.002841, -0.000732)"
2020/05/26/02:05:10.125341,1327,1590426310,68888902,,"['joint_S', 'joint_L', 'joint_E', 'joint_U', 'joint_R', 'joint_B', 'joint_T']","(-1, 3, 0, -1, 0, -61380, 1)","(-0.0008, -0.0026, 0.0, -0.0008, 0.0, -60.6149, -0.0014)","(0.0, 0.0, 0.0, 0.0, 0.0, -28828.8, 0.0)","(0.001199, -0.004077, 0.000897, 0.004935, 0.000595, -0.002403, -0.000742)"
2020/05/26/02:05:10.180549,1328,1590426310,125214099,,"['joint_S', 'joint_L', 'joint_E', 'joint_U', 'joint_R', 'joint_B', 'joint_T']","(-1, 2, 0, -1, 0, -62967, 1)","(-0.0008, -0.0017, 0.0, -0.0008, 0.0, -62.1821, -0.0014)","(0.0, 0.0, 0.0, 0.0, 0.0, -29328.0, 0.0)","(0.001174, -0.004134, 0.000945, 0.004834, 0.000572, -0.002617, -0.000757)"
2020/05/26/02:05:10.235962,1329,1590426310,180497884,,"['joint_S', 'joint_L', 'joint_E', 'joint_U', 'joint_R', 'joint_B', 'joint_T']","(-1, 2, 0, -1, 0, -64559, 0)","(-0.0008, -0.0017, 0.0, -0.0008, 0.0, -63.7542, 0.0)","(0.0, 0.0, 0.0, 0.0, 0.0, -28579.2, 0.0)","(0.001165, -0.004168, 0.001013, 0.004673, 0.000515, -0.003295, -0.000761)"
2020/05/26/02:05:10.292108,1330,1590426310,235848903,,"['joint_S', 'joint_L', 'joint_E', 'joint_U', 'joint_R', 'joint_B', 'joint_T']","(-1, 2, 0, -1, 0, -66216, 0)","(-0.0008, -0.0017, 0.0, -0.0008, 0.0, -65.3906, 0.0)","(0.0, 0.0, 0.0, 0.0, 0.0, -28579.2, 0.0)","(0.001176, -0.004179, 0.001054, 0.00456, 0.000401, -0.003156, -0.000773)"
2020/05/26/02:05:10.346233,1331,1590426310,291840076,,"['joint_S', 'joint_L', 'joint_E', 'joint_U', 'joint_R', 'joint_B', 'joint_T']","(-1, 2, 0, -1, 0, -67817, 0)","(-0.0008, -0.0017, 0.0, -0.0008, 0.0, -66.9716, 0.0)","(0.0, 0.0, 0.0, 0.0, 0.0, -28704.0, 0.0)","(0.001196, -0.004218, 0.001112, 0.004498, 0.000327, -0.002839, -0.000781)"
2020/05/26/02:05:10.400978,1332,1590426310,346175909,,"['joint_S', 'joint_L', 'joint_E', 'joint_U', 'joint_R', 'joint_B', 'joint_T']","(-1, 2, 1, -2, 0, -69408, 0)","(-0.0008, -0.0017, 0.0008, -0.0017, 0.0, -68.5428, 0.0)","(0.0, 0.0, 0.0, 0.0, 0.0, -29203.2, 0.0)","(0.00121, -0.004222, 0.001153, 0.004469, 0.000249, -0.002972, -0.000792)"
2020/05/26/02:05:10.458323,1333,1590426310,400788068,,"['joint_S', 'joint_L', 'joint_E', 'joint_U', 'joint_R', 'joint_B', 'joint_T']","(-1, 2, 1, -1, 0, -71007, 0)","(-0.0008, -0.0017, 0.0008, -0.0008, 0.0, -70.1219, 0.0)","(0.0, 0.0, 0.0, -124.8, 124.8, -29452.8, 0.0)","(0.001217, -0.004204, 0.001178, 0.004261, 0.00015, -0.003032, -0.000798)"
2020/05/26/02:05:10.512872,1334,1590426310,458112955,,"['joint_S', 'joint_L', 'joint_E', 'joint_U', 'joint_R', 'joint_B', 'joint_T']","(-1, 2, 1, -2, 0, -72620, 0)","(-0.0008, -0.0017, 0.0008, -0.0017, 0.0, -71.7148, 0.0)","(0.0, 0.0, 0.0, 0.0, 0.0, -29264.0, 0.0)","(0.001237, -0.004116, 0.00121, 0.004016, 0.000121, -0.00366, -0.000813)"
2020/05/26/02:05:10.569457,1335,1590426310,512645959,,"['joint_S', 'joint_L', 'joint_E', 'joint_U', 'joint_R', 'joint_B', 'joint_T']","(-1, 2, 1, -2, -1, -74296, 0)","(-0.0008, -0.0017, 0.0008, -0.0017, 0.0008, -73.3699, 0.0)","(0.0, 0.0, 0.0, 0.0, 0.0, -29452.8, 0.0)","(0.001246, -0.004061, 0.001246, 0.003929, 5.5e-05, -0.00349, -0.000817)"
2020/05/26/02:05:10.624917,1336,1590426310,569468975,,"['joint_S', 'joint_L', 'joint_E', 'joint_U', 'joint_R', 'joint_B', 'joint_T']","(-1, 2, 1, -2, -1, -76001, 0)","(-0.0008, -0.0017, 0.0008, -0.0017, 0.0008, -75.0536, 0.0)","(0.0, 0.0, 0.0, 0.0, 0.0, -30576.0, 0.0)","(0.001253, -0.00408, 0.001307, 0.004032, 4.5e-05, -0.003042, -0.000846)"
2020/05/26/02:05:10.680963,1337,1590426310,624676942,,"['joint_S', 'joint_L', 'joint_E', 'joint_U', 'joint_R', 'joint_B', 'joint_T']","(-1, 2, 1, -2, -1, -77692, 0)","(-0.0008, -0.0017, 0.0008, -0.0017, 0.0008, -76.7235, 0.0)","(0.0, 0.0, 0.0, 0.0, 0.0, -30326.4, 0.0)","(0.001255, -0.004132, 0.001341, 0.004333, 1e-05, -0.002698, -0.000877)"
2020/05/26/02:05:10.737341,1338,1590426310,680660963,,"['joint_S', 'joint_L', 'joint_E', 'joint_U', 'joint_R', 'joint_B', 'joint_T']","(-1, 2, 2, -1, -1, -79320, 0)","(-0.0008, -0.0017, 0.0017, -0.0008, 0.0008, -78.3312, 0.0)","(0.0, 0.0, 0.0, 0.0, 0.0, -28579.2, 0.0)","(0.00126, -0.004288, 0.001373, 0.004586, 2e-06, -0.002826, -0.00092)"
2020/05/26/02:05:10.793862,1339,1590426310,737206935,,"['joint_S', 'joint_L', 'joint_E', 'joint_U', 'joint_R', 'joint_B', 'joint_T']","(-1, 1, 2, -1, -1, -80862, 0)","(-0.0008, -0.0008, 0.0017, -0.0008, 0.0008, -79.854, 0.0)","(0.0, 0.0, 0.0, 0.0, 0.0, -25708.8, 0.0)","(0.001262, -0.004347, 0.001348, 0.004553, -4.1e-05, -0.003646, -0.000954)"
2020/05/26/02:05:10.850237,1340,1590426310,793795108,,"['joint_S', 'joint_L', 'joint_E', 'joint_U', 'joint_R', 'joint_B', 'joint_T']","(-1, 1, 2, -1, -1, -82265, 0)","(-0.0008, -0.0008, 0.0017, -0.0008, 0.0008, -81.2395, 0.0)","(0.0, 0.0, 0.0, 124.8, 0.0, -23836.8, 0.0)","(0.001262, -0.004383, 0.001348, 0.004378, -5.5e-05, -0.003299, -0.000983)"
2020/05/26/02:05:10.905337,1341,1590426310,850145101,,"['joint_S', 'joint_L', 'joint_E', 'joint_U', 'joint_R', 'joint_B', 'joint_T']","(-1, 1, 2, -1, -1, -83583, 0)","(-0.0008, -0.0008, 0.0017, -0.0008, 0.0008, -82.5411, 0.0)","(0.0, 0.0, 0.0, 0.0, 0.0, -22963.2, 0.0)","(0.001273, -0.004399, 0.001321, 0.004185, -6.8e-05, -0.002912, -0.001008)"
2020/05/26/02:05:10.960021,1342,1590426310,905350923,,"['joint_S', 'joint_L', 'joint_E', 'joint_U', 'joint_R', 'joint_B', 'joint_T']","(-1, 1, 2, -1, -1, -84823, 0)","(-0.0008, -0.0008, 0.0017, -0.0008, 0.0008, -83.7656, 0.0)","(0.0, 0.0, 0.0, 0.0, 0.0, -21715.2, 0.0)","(0.001296, -0.004399, 0.001278, 0.004152, -9.2e-05, -0.003503, -0.001034)"
2020/05/26/02:05:11.014612,1343,1590426310,959892034,,"['joint_S', 'joint_L', 'joint_E', 'joint_U', 'joint_R', 'joint_B', 'joint_T']","(-1, 1, 2, -1, -1, -86026, 0)","(-0.0008, -0.0008, 0.0017, -0.0008, 0.0008, -84.9536, 0.0)","(124.8, 0.0, 0.0, 0.0, 0.0, -21340.8, 0.0)","(0.001301, -0.004424, 0.001246, 0.004213, -8e-05, -0.003144, -0.001068)"
2020/05/26/02:05:11.069301,1344,1590426311,14456033,,"['joint_S', 'joint_L', 'joint_E', 'joint_U', 'joint_R', 'joint_B', 'joint_T']","(-1, 1, 2, -1, -1, -87166, 0)","(-0.0008, -0.0008, 0.0017, -0.0008, 0.0008, -86.0794, 0.0)","(0.0, 0.0, 0.0, 0.0, 0.0, -19968.0, 0.0)","(0.001391, -0.004417, 0.00123, 0.004327, -0.000105, -0.002868, -0.001099)"
2020/05/26/02:05:11.123739,1345,1590426311,69097995,,"['joint_S', 'joint_L', 'joint_E', 'joint_U', 'joint_R', 'joint_B', 'joint_T']","(-1, 0, 3, -1, -1, -88214, 0)","(-0.0008, 0.0, 0.0026, -0.0008, 0.0008, -87.1144, 0.0)","(0.0, 0.0, 0.0, 0.0, 0.0, -17846.4, 0.0)","(0.001443, -0.004435, 0.001237, 0.004488, -8.8e-05, -0.002843, -0.001132)"
2020/05/26/02:05:11.181450,1346,1590426311,123565912,,"['joint_S', 'joint_L', 'joint_E', 'joint_U', 'joint_R', 'joint_B', 'joint_T']","(-1, 0, 3, -1, -1, -89133, 0)","(-0.0008, 0.0, 0.0026, -0.0008, 0.0008, -88.0219, 0.0)","(0.0, 0.0, 0.0, 0.0, -124.8, -15600.0, 0.0)","(0.001475, -0.00442, 0.001273, 0.004652, -7.6e-05, -0.002878, -0.001163)"
2020/05/26/02:05:11.236963,1347,1590426311,181385993,,"['joint_S', 'joint_L', 'joint_E', 'joint_U', 'joint_R', 'joint_B', 'joint_T']","(-1, 0, 3, -1, -1, -89913, 0)","(-0.0008, 0.0, 0.0026, -0.0008, 0.0008, -88.7922, 0.0)","(0.0, 0.0, 0.0, 124.8, 0.0, -12230.4, 0.0)","(0.001482, -0.004365, 0.001276, 0.004838, -8.6e-05, -0.002758, -0.001196)"
2020/05/26/02:05:11.292534,1348,1590426311,236680030,,"['joint_S', 'joint_L', 'joint_E', 'joint_U', 'joint_R', 'joint_B', 'joint_T']","(0, 0, 3, 0, -1, -90504, 0)","(0.0, 0.0, 0.0026, 0.0, 0.0008, -89.3758, 0.0)","(0.0, 0.0, 0.0, 0.0, 0.0, -8486.4, 0.0)","(0.001507, -0.00434, 0.00126, 0.005097, -8.6e-05, -0.002208, -0.001227)"
2020/05/26/02:05:11.350178,1349,1590426311,292463064,,"['joint_S', 'joint_L', 'joint_E', 'joint_U', 'joint_R', 'joint_B', 'joint_T']","(0, 0, 3, 0, -1, -90879, 0)","(0.0, 0.0, 0.0026, 0.0, 0.0008, -89.7462, 0.0)","(0.0, 0.0, 0.0, 0.0, -124.8, -5366.4, 124.8)","(0.001511, -0.004263, 0.001253, 0.005075, -5.1e-05, -0.001972, -0.001252)"
2020/05/26/02:05:11.406592,1350,1590426311,349948883,,"['joint_S', 'joint_L', 'joint_E', 'joint_U', 'joint_R', 'joint_B', 'joint_T']","(0, 0, 3, 0, -1, -91073, 0)","(0.0, 0.0, 0.0026, 0.0, 0.0008, -89.9377, 0.0)","(0.0, 0.0, 0.0, 0.0, 0.0, -1872.0, 0.0)","(0.001509, -0.004104, 0.001208, 0.004867, -7.8e-05, -0.002084, -0.001267)"
2020/05/26/02:05:11.463703,1351,1590426311,406538963,,"['joint_S', 'joint_L', 'joint_E', 'joint_U', 'joint_R', 'joint_B', 'joint_T']","(0, 0, 3, -1, -1, -91130, 0)","(0.0, 0.0, 0.0026, -0.0008, 0.0008, -89.994, 0.0)","(0.0, 0.0, 0.0, 0.0, 0.0, -249.6, 0.0)","(0.001505, -0.003912, 0.001214, 0.00451, -7.6e-05, -0.002273, -0.001279)"
2020/05/26/02:05:11.522670,1352,1590426311,463689088,,"['joint_S', 'joint_L', 'joint_E', 'joint_U', 'joint_R', 'joint_B', 'joint_T']","(0, 0, 3, -1, -1, -91132, 0)","(0.0, 0.0, 0.0026, -0.0008, 0.0008, -89.996, 0.0)","(0.0, 0.0, 0.0, 0.0, 0.0, 0.0, 0.0)","(0.00148, -0.003728, 0.001185, 0.004246, -7.6e-05, -0.002503, -0.001294)"
2020/05/26/02:05:11.579500,1353,1590426311,522588014,,"['joint_S', 'joint_L', 'joint_E', 'joint_U', 'joint_R', 'joint_B', 'joint_T']","(0, 0, 3, -1, -1, -91133, 0)","(0.0, 0.0, 0.0026, -0.0008, 0.0008, -89.997, 0.0)","(0.0, 0.0, 0.0, 0.0, 0.0, 0.0, 0.0)","(0.001471, -0.00356, 0.00116, 0.004075, -7.6e-05, -0.002451, -0.00131)"
2020/05/26/02:05:11.635370,1354,1590426311,579335927,,"['joint_S', 'joint_L', 'joint_E', 'joint_U', 'joint_R', 'joint_B', 'joint_T']","(0, 0, 3, -1, -1, -91133, 0)","(0.0, 0.0, 0.0026, -0.0008, 0.0008, -89.997, 0.0)","(-124.8, 0.0, 0.0, 0.0, 0.0, 0.0, 0.0)","(0.001462, -0.00342, 0.001131, 0.003911, -7.6e-05, -0.002422, -0.001327)"
2020/05/26/02:05:11.691295,1355,1590426311,635301113,,"['joint_S', 'joint_L', 'joint_E', 'joint_U', 'joint_R', 'joint_B', 'joint_T']","(0, 0, 3, -1, -1, -91133, 0)","(0.0, 0.0, 0.0026, -0.0008, 0.0008, -89.997, 0.0)","(0.0, 0.0, 0.0, 0.0, 0.0, 0.0, 0.0)","(0.001423, -0.003313, 0.001101, 0.003756, -7.2e-05, -0.002378, -0.001341)"
2020/05/26/02:05:11.746662,1356,1590426311,691255092,,"['joint_S', 'joint_L', 'joint_E', 'joint_U', 'joint_R', 'joint_B', 'joint_T']","(0, 0, 3, -1, -1, -91134, 0)","(0.0, 0.0, 0.0026, -0.0008, 0.0008, -89.998, 0.0)","(124.8, 0.0, 0.0, 0.0, 0.0, 0.0, 0.0)","(0.001353, -0.003191, 0.001065, 0.00363, -6.8e-05, -0.002322, -0.001352)"
2020/05/26/02:05:11.802281,1357,1590426311,746665000,,"['joint_S', 'joint_L', 'joint_E', 'joint_U', 'joint_R', 'joint_B', 'joint_T']","(0, 0, 3, -2, -1, -91134, 0)","(0.0, 0.0, 0.0026, -0.0017, 0.0008, -89.998, 0.0)","(0.0, 124.8, 0.0, 0.0, 0.0, 0.0, 0.0)","(0.001364, -0.003143, 0.001033, 0.003492, -6.3e-05, -0.002289, -0.001364)"
2020/05/26/02:05:11.861395,1358,1590426311,802256107,,"['joint_S', 'joint_L', 'joint_E', 'joint_U', 'joint_R', 'joint_B', 'joint_T']","(0, 1, 3, -2, -1, -91134, -1)","(0.0, -0.0008, 0.0026, -0.0017, 0.0008, -89.998, 0.0014)","(0.0, 0.0, 0.0, 0.0, 0.0, 0.0, 0.0)","(0.001332, -0.003037, 0.001001, 0.003371, -5.9e-05, -0.00224, -0.001373)"
2020/05/26/02:05:11.918512,1359,1590426311,861164093,,"['joint_S', 'joint_L', 'joint_E', 'joint_U', 'joint_R', 'joint_B', 'joint_T']","(0, 1, 3, -2, -1, -91134, -1)","(0.0, -0.0008, 0.0026, -0.0017, 0.0008, -89.998, 0.0014)","(0.0, 0.0, 0.0, 0.0, 0.0, 0.0, 0.0)","(0.001303, -0.002967, 0.000967, 0.003259, -5.5e-05, -0.002186, -0.001383)"
2020/05/26/02:05:11.975281,1360,1590426311,918380022,,"['joint_S', 'joint_L', 'joint_E', 'joint_U', 'joint_R', 'joint_B', 'joint_T']","(0, 1, 3, -2, -1, -91134, -1)","(0.0, -0.0008, 0.0026, -0.0017, 0.0008, -89.998, 0.0014)","(0.0, 0.0, 0.0, 0.0, 0.0, 0.0, 0.0)","(0.001273, -0.002912, 0.000936, 0.003121, -5.1e-05, -0.002132, -0.001391)"
2020/05/26/02:05:12.032896,1361,1590426311,975264072,,"['joint_S', 'joint_L', 'joint_E', 'joint_U', 'joint_R', 'joint_B', 'joint_T']","(0, 1, 3, -2, -1, -91134, -1)","(0.0, -0.0008, 0.0026, -0.0017, 0.0008, -89.998, 0.0014)","(0.0, 0.0, 0.0, 0.0, 0.0, 0.0, 0.0)","(0.001244, -0.002874, 0.000902, 0.003037, -4.9e-05, -0.002078, -0.001397)"
2020/05/26/02:05:12.088792,1362,1590426312,32685041,,"['joint_S', 'joint_L', 'joint_E', 'joint_U', 'joint_R', 'joint_B', 'joint_T']","(0, 1, 3, -2, -1, -91134, -1)","(0.0, -0.0008, 0.0026, -0.0017, 0.0008, -89.998, 0.0014)","(0.0, 0.0, 0.0, 0.0, 0.0, 0.0, 0.0)","(0.001217, -0.002844, 0.000868, 0.002948, -4.5e-05, -0.002024, -0.001404)"
2020/05/26/02:05:12.146151,1363,1590426312,88777065,,"['joint_S', 'joint_L', 'joint_E', 'joint_U', 'joint_R', 'joint_B', 'joint_T']","(0, 1, 3, -2, -1, -91134, -1)","(0.0, -0.0008, 0.0026, -0.0017, 0.0008, -89.998, 0.0014)","(0.0, 0.0, 0.0, 0.0, 0.0, 0.0, 0.0)","(0.001187, -0.002815, 0.000836, 0.002856, -4.1e-05, -0.001962, -0.001408)"
2020/05/26/02:05:12.203091,1364,1590426312,146089076,,"['joint_S', 'joint_L', 'joint_E', 'joint_U', 'joint_R', 'joint_B', 'joint_T']","(0, 1, 3, -3, -1, -91134, -1)","(0.0, -0.0008, 0.0026, -0.0026, 0.0008, -89.998, 0.0014)","(0.0, 124.8, 0.0, 0.0, 0.0, 0.0, 0.0)","(0.001158, -0.002831, 0.000813, 0.0028, -3.7e-05, -0.001916, -0.00141)"
2020/05/26/02:05:12.261442,1365,1590426312,203044891,,"['joint_S', 'joint_L', 'joint_E', 'joint_U', 'joint_R', 'joint_B', 'joint_T']","(0, 1, 3, -3, -1, -91134, -1)","(0.0, -0.0008, 0.0026, -0.0026, 0.0008, -89.998, 0.0014)","(0.0, 0.0, 0.0, 0.0, 0.0, 0.0, 0.0)","(0.001128, -0.002781, 0.000782, 0.002728, -3.2e-05, -0.00186, -0.001412)"
2020/05/26/02:05:12.317798,1366,1590426312,261398077,,"['joint_S', 'joint_L', 'joint_E', 'joint_U', 'joint_R', 'joint_B', 'joint_T']","(0, 1, 3, -3, -1, -91134, -1)","(0.0, -0.0008, 0.0026, -0.0026, 0.0008, -89.998, 0.0014)","(0.0, 0.0, 0.0, 0.0, 0.0, 0.0, 0.0)","(0.001099, -0.002785, 0.000752, 0.00267, -2.8e-05, -0.001808, -0.001414)"
2020/05/26/02:05:12.373762,1367,1590426312,317553043,,"['joint_S', 'joint_L', 'joint_E', 'joint_U', 'joint_R', 'joint_B', 'joint_T']","(0, 1, 3, -3, -1, -91134, -1)","(0.0, -0.0008, 0.0026, -0.0026, 0.0008, -89.998, 0.0014)","(0.0, 0.0, 0.0, 0.0, 0.0, 0.0, 0.0)","(0.001069, -0.00276, 0.000723, 0.002631, -2.4e-05, -0.001756, -0.001414)"
2020/05/26/02:05:12.431581,1368,1590426312,373725891,,"['joint_S', 'joint_L', 'joint_E', 'joint_U', 'joint_R', 'joint_B', 'joint_T']","(0, 1, 3, -3, -1, -91134, -1)","(0.0, -0.0008, 0.0026, -0.0026, 0.0008, -89.998, 0.0014)","(0.0, 0.0, 0.0, 0.0, 0.0, 0.0, -124.8)","(0.00104, -0.002758, 0.000702, 0.002565, -2e-05, -0.001702, -0.001406)"
2020/05/26/02:05:12.488235,1369,1590426312,431385993,,"['joint_S', 'joint_L', 'joint_E', 'joint_U', 'joint_R', 'joint_B', 'joint_T']","(0, 1, 3, -3, -1, -91134, -1)","(0.0, -0.0008, 0.0026, -0.0026, 0.0008, -89.998, 0.0014)","(0.0, 0.0, 0.0, 0.0, 0.0, 0.0, 0.0)","(0.00101, -0.002756, 0.000675, 0.00253, -1.6e-05, -0.00165, -0.001412)"
2020/05/26/02:05:12.545241,1370,1590426312,488141059,,"['joint_S', 'joint_L', 'joint_E', 'joint_U', 'joint_R', 'joint_B', 'joint_T']","(0, 1, 3, -3, -1, -91134, -1)","(0.0, -0.0008, 0.0026, -0.0026, 0.0008, -89.998, 0.0014)","(0.0, 0.0, 0.0, 0.0, 0.0, 0.0, 0.0)","(0.000981, -0.002758, 0.00065, 0.002489, -1.2e-05, -0.001599, -0.00141)"
2020/05/26/02:05:12.602055,1371,1590426312,545248031,,"['joint_S', 'joint_L', 'joint_E', 'joint_U', 'joint_R', 'joint_B', 'joint_T']","(0, 1, 3, -3, -1, -91134, -1)","(0.0, -0.0008, 0.0026, -0.0026, 0.0008, -89.998, 0.0014)","(0.0, 0.0, 0.0, 0.0, 0.0, 0.0, 0.0)","(0.000954, -0.002758, 0.00063, 0.00246, -8e-06, -0.001547, -0.001408)"
2020/05/26/02:05:12.657528,1372,1590426312,601881980,,"['joint_S', 'joint_L', 'joint_E', 'joint_U', 'joint_R', 'joint_B', 'joint_T']","(0, 1, 3, -3, -1, -91134, -1)","(0.0, -0.0008, 0.0026, -0.0026, 0.0008, -89.998, 0.0014)","(0.0, 0.0, 0.0, 0.0, 0.0, 0.0, 0.0)","(0.000929, -0.002758, 0.000605, 0.002437, -4e-06, -0.001497, -0.001404)"
2020/05/26/02:05:12.714620,1373,1590426312,657397031,,"['joint_S', 'joint_L', 'joint_E', 'joint_U', 'joint_R', 'joint_B', 'joint_T']","(0, 1, 3, -3, -1, -91134, -1)","(0.0, -0.0008, 0.0026, -0.0026, 0.0008, -89.998, 0.0014)","(0.0, 0.0, 0.0, 0.0, 0.0, 0.0, 0.0)","(0.000512, -0.00228, 0.000219, 0.002563, 4e-06, -0.00136, -0.001327)"
2020/05/26/02:05:12.772410,1374,1590426312,714535951,,"['joint_S', 'joint_L', 'joint_E', 'joint_U', 'joint_R', 'joint_B', 'joint_T']","(-3, 10, -4, -2, -2, -91134, -1)","(-0.0026, -0.0087, -0.0034, -0.0017, 0.0017, -89.998, 0.0014)","(-249.6, 748.8, -374.4, 124.8, 0.0, 0.0, 0.0)","(-0.002667, -4.9e-05, -0.002046, 0.004411, -0.000972, -0.000846, -0.000242)"
2020/05/26/02:05:12.828667,1375,1590426312,772291898,,"['joint_S', 'joint_L', 'joint_E', 'joint_U', 'joint_R', 'joint_B', 'joint_T']","(-76, 96, -74, 30, -14, -91133, 14)","(-0.0661, -0.0835, -0.0643, 0.0261, 0.0121, -89.997, -0.0208)","(-1996.8, 2108.0, -1747.2, 1747.2, -496.0, 0.0, 2371.2)","(-0.002074, -0.00101, -0.001679, 0.006517, -0.003459, 0.000703, 0.002997)"
2020/05/26/02:05:12.885585,1376,1590426312,828442096,,"['joint_S', 'joint_L', 'joint_E', 'joint_U', 'joint_R', 'joint_B', 'joint_T']","(-236, 261, -225, 164, -72, -91127, 229)","(-0.2053, -0.2271, -0.1957, 0.1427, 0.0626, -89.9911, -0.3411)","(-3596.0, 3993.6, -3619.2, 2745.6, -1248.0, 748.8, 4742.4)","(-0.002028, -0.001069, -0.001582, 0.005817, -0.002297, 0.003223, 0.002405)"
2020/05/26/02:05:12.941122,1377,1590426312,885561943,,"['joint_S', 'joint_L', 'joint_E', 'joint_U', 'joint_R', 'joint_B', 'joint_T']","(-488, 531, -466, 360, -154, -91040, 527)","(-0.4246, -0.462, -0.4055, 0.3132, 0.134, -89.9052, -0.785)","(-5241.6, 5865.6, -5116.8, 4340.0, -1622.4, 1622.4, 6364.8)","(-0.002123, -0.000936, -0.001539, 0.00545, -0.00213, 0.00237, 0.002717)"
2020/05/26/02:05:12.996855,1378,1590426312,940953969,,"['joint_S', 'joint_L', 'joint_E', 'joint_U', 'joint_R', 'joint_B', 'joint_T']","(-838, 908, -802, 626, -265, -90935, 937)","(-0.7292, -0.7901, -0.6979, 0.5447, 0.2306, -89.8015, -1.3958)","(-6864.0, 7488.0, -6739.2, 5241.6, -2232.0, 1622.4, 7737.6)","(-0.002074, -0.001137, -0.001516, 0.00533, -0.002011, 0.002372, 0.002596)"
2020/05/26/02:05:13.055916,1379,1590426312,996660947,,"['joint_S', 'joint_L', 'joint_E', 'joint_U', 'joint_R', 'joint_B', 'joint_T']","(-1263, 1368, -1211, 944, -400, -90820, 1423)","(-1.099, -1.1904, -1.0538, 0.8214, 0.348, -89.6879, -2.1198)","(-8361.6, 8860.8, -7987.2, 6364.8, -2620.8, 2496.0, 9484.8)","(-0.002194, -0.000748, -0.001516, 0.005429, -0.001953, 0.002188, 0.002503)"
2020/05/26/02:05:13.113627,1380,1590426313,55979013,,"['joint_S', 'joint_L', 'joint_E', 'joint_U', 'joint_R', 'joint_B', 'joint_T']","(-1804, 1954, -1731, 1351, -571, -90676, 2039)","(-1.5698, -1.7003, -1.5063, 1.1756, 0.4968, -89.5457, -3.0374)","(-10233.6, 10982.4, -9920.0, 7612.8, -3244.8, 2745.6, 11606.4)","(-0.002239, -0.000915, -0.001765, 0.005429, -0.002004, 0.002356, 0.002418)"
2020/05/26/02:05:13.170049,1381,1590426313,113357067,,"['joint_S', 'joint_L', 'joint_E', 'joint_U', 'joint_R', 'joint_B', 'joint_T']","(-2455, 2657, -2356, 1839, -778, -90510, 2771)","(-2.1363, -2.3121, -2.0502, 1.6003, 0.677, -89.3818, -4.1278)","(-12480.0, 13516.0, -11980.8, 9235.2, -3868.8, 3120.0, 13852.8)","(-0.00228, -0.000804, -0.001777, 0.005458, -0.001885, 0.0023, 0.002499)"
2020/05/26/02:05:13.226553,1382,1590426313,170000076,,"['joint_S', 'joint_L', 'joint_E', 'joint_U', 'joint_R', 'joint_B', 'joint_T']","(-3235, 3502, -3106, 2425, -1027, -90315, 3649)","(-2.8151, -3.0474, -2.7028, 2.1102, 0.8936, -89.1892, -5.4358)","(-14851.2, 15974.4, -14227.2, 11232.0, -4712.0, 3868.8, 16848.0)","(-0.002395, -0.000784, -0.001933, 0.005555, -0.001807, 0.002208, 0.002901)"
2020/05/26/02:05:13.283311,1383,1590426313,226522922,,"['joint_S', 'joint_L', 'joint_E', 'joint_U', 'joint_R', 'joint_B', 'joint_T']","(-4126, 4466, -3964, 3097, -1311, -90093, 4661)","(-3.5904, -3.8863, -3.4494, 2.695, 1.1408, -88.97, -6.9433)","(-16244.0, 17596.8, -15624.0, 12230.4, -5241.6, 3993.6, 18345.6)","(-0.002221, -0.000947, -0.001493, 0.005639, -0.001969, 0.002364, 0.003082)"
2020/05/26/02:05:13.339965,1384,1590426313,283114910,,"['joint_S', 'joint_L', 'joint_E', 'joint_U', 'joint_R', 'joint_B', 'joint_T']","(-5077, 5495, -4879, 3814, -1615, -89853, 5745)","(-4.418, -4.7817, -4.2457, 3.3189, 1.4053, -88.7329, -8.5581)","(-16864.0, 18220.8, -16368.0, 12854.4, -5366.4, 4368.0, 19219.2)","(-0.002307, -0.001083, -0.00172, 0.005306, -0.00192, 0.00203, 0.002841)"
2020/05/26/02:05:13.397423,1385,1590426313,339812994,,"['joint_S', 'joint_L', 'joint_E', 'joint_U', 'joint_R', 'joint_B', 'joint_T']","(-6049, 6546, -5814, 4546, -1925, -89611, 6851)","(-5.2638, -5.6963, -5.0593, 3.9559, 1.6751, -88.494, -10.2057)","(-16972.8, 18470.4, -16348.8, 12979.2, -5366.4, 4368.0, 19344.0)","(-0.002162, -0.001058, -0.001579, 0.005258, -0.001928, 0.00219, 0.002677)"
2020/05/26/02:05:13.456812,1386,1590426313,397392988,,"['joint_S', 'joint_L', 'joint_E', 'joint_U', 'joint_R', 'joint_B', 'joint_T']","(-7017, 7594, -6744, 5273, -2232, -89367, 7940)","(-6.1062, -6.6083, -5.8686, 4.5885, 1.9422, -88.253, -11.8279)","(-16972.8, 18096.0, -16224.0, 12604.8, -5241.6, 4368.0, 18969.6)","(-0.002021, -0.001165, -0.00165, 0.005584, -0.001856, 0.002192, 0.003088)"
2020/05/26/02:05:13.514771,1387,1590426313,456804037,,"['joint_S', 'joint_L', 'joint_E', 'joint_U', 'joint_R', 'joint_B', 'joint_T']","(-8018, 8676, -7707, 6026, -2550, -89113, 9075)","(-6.9772, -7.5498, -6.7066, 5.2438, 2.219, -88.0022, -13.5187)","(-16864.0, 18470.4, -16348.8, 12729.6, -5366.4, 4368.0, 19219.2)","(-0.002062, -0.001244, -0.001688, 0.005304, -0.00191, 0.002169, 0.00305)"
2020/05/26/02:05:13.571569,1388,1590426313,514472007,,"['joint_S', 'joint_L', 'joint_E', 'joint_U', 'joint_R', 'joint_B', 'joint_T']","(-8969, 9706, -8622, 6741, -2853, -88872, 10160)","(-7.8048, -8.4462, -7.5029, 5.866, 2.4826, -87.7642, -15.135)","(-16972.8, 18470.4, -16348.8, 12729.6, -5491.2, 4118.4, 19468.8)","(-0.001931, -0.001382, -0.001536, 0.005495, -0.001737, 0.002065, 0.002625)"
2020/05/26/02:05:13.628064,1389,1590426313,571366071,,"['joint_S', 'joint_L', 'joint_E', 'joint_U', 'joint_R', 'joint_B', 'joint_T']","(-9973, 10792, -9588, 7496, -3172, -88621, 11293)","(-8.6785, -9.3912, -8.3435, 6.523, 2.7602, -87.5163, -16.8228)","(-17097.6, 18220.8, -16348.8, 12854.4, -5366.4, 4368.0, 18844.8)","(-0.001935, -0.001192, -0.001543, 0.005392, -0.001817, 0.002154, 0.002876)"
2020/05/26/02:05:13.683001,1390,1590426313,627827882,,"['joint_S', 'joint_L', 'joint_E', 'joint_U', 'joint_R', 'joint_B', 'joint_T']","(-10925, 11823, -10503, 8213, -3475, -88381, 12366)","(-9.5069, -10.2884, -9.1397, 7.1469, 3.0239, -87.2793, -18.4212)","(-16988.0, 18470.4, -16348.8, 12604.8, -5491.2, 4118.4, 19094.4)","(-0.002037, -0.001471, -0.001645, 0.005555, -0.001644, 0.002198, 0.00304)"
2020/05/26/02:05:13.741035,1391,1590426313,682971954,,"['joint_S', 'joint_L', 'joint_E', 'joint_U', 'joint_R', 'joint_B', 'joint_T']","(-11875, 12849, -11415, 8927, -3777, -88139, 13444)","(-10.3336, -11.1812, -9.9333, 7.7683, 3.2867, -87.0403, -20.0271)","(-16740.0, 18220.8, -16244.0, 12648.0, -5491.2, 4243.2, 19219.2)","(-0.002078, -0.001375, -0.001704, 0.005576, -0.001786, 0.002092, 0.002882)"
2020/05/26/02:05:13.797816,1392,1590426313,740946054,,"['joint_S', 'joint_L', 'joint_E', 'joint_U', 'joint_R', 'joint_B', 'joint_T']","(-12857, 13912, -12361, 9665, -4089, -87893, 14562)","(-11.1882, -12.1062, -10.7565, 8.4105, 3.5582, -86.7974, -21.6925)","(-16972.8, 18220.8, -16224.0, 12729.6, -5366.4, 4118.4, 19219.2)","(-0.002132, -0.001423, -0.001611, 0.005462, -0.001759, 0.002325, 0.002706)"
2020/05/26/02:05:13.854856,1393,1590426313,797760963,,"['joint_S', 'joint_L', 'joint_E', 'joint_U', 'joint_R', 'joint_B', 'joint_T']","(-13809, 14941, -13275, 10380, -4391, -87654, 15632)","(-12.0166, -13.0017, -11.5519, 9.0327, 3.821, -86.5614, -23.2865)","(-16972.8, 18345.6, -16348.8, 12729.6, -5366.4, 4243.2, 19094.4)","(-0.001962, -0.001482, -0.001763, 0.005442, -0.001836, 0.002237, 0.003011)"
2020/05/26/02:05:13.911474,1394,1590426313,854702949,,"['joint_S', 'joint_L', 'joint_E', 'joint_U', 'joint_R', 'joint_B', 'joint_T']","(-14763, 15976, -14194, 11098, -4695, -87412, 16714)","(-12.8468, -13.9023, -12.3516, 9.6575, 4.0856, -86.3224, -24.8983)","(-17097.6, 18476.0, -16348.8, 12854.4, -5491.2, 4118.4, 19219.2)","(-0.002135, -0.001414, -0.001656, 0.005505, -0.001821, 0.002264, 0.002974)"
2020/05/26/02:05:13.967554,1395,1590426313,911417007,,"['joint_S', 'joint_L', 'joint_E', 'joint_U', 'joint_R', 'joint_B', 'joint_T']","(-15737, 17028, -15130, 11831, -5005, -87169, 17820)","(-13.6944, -14.8178, -13.1661, 10.2953, 4.3553, -86.0824, -26.5459)","(-16864.0, 18220.8, -16224.0, 12729.6, -5241.6, 4118.4, 19468.8)","(-0.002083, -0.001536, -0.001722, 0.005442, -0.002035, 0.002111, 0.00282)"
2020/05/26/02:05:14.024293,1396,1590426313,967533111,,"['joint_S', 'joint_L', 'joint_E', 'joint_U', 'joint_R', 'joint_B', 'joint_T']","(-16680, 18052, -16039, 12544, -5308, -86935, 18897)","(-14.515, -15.7089, -13.9572, 10.9158, 4.619, -85.8513, -28.1503)","(-16099.2, 17596.8, -15475.2, 12230.4, -5084.0, 3744.0, 18096.0)","(-0.002026, -0.001822, -0.001541, 0.005314, -0.001823, 0.002318, 0.002679)"
2020/05/26/02:05:14.082388,1397,1590426314,24113893,,"['joint_S', 'joint_L', 'joint_E', 'joint_U', 'joint_R', 'joint_B', 'joint_T']","(-17576, 19020, -16901, 13220, -5595, -86711, 19907)","(-15.2947, -16.5512, -14.7073, 11.5041, 4.8687, -85.6301, -29.6548)","(-14508.0, 15724.8, -13852.8, 11107.2, -4617.6, 3494.4, 16348.8)","(-0.001632, -0.002006, -0.00145, 0.00533, -0.00178, 0.002186, 0.002696)"
2020/05/26/02:05:14.138980,1398,1590426314,82331895,,"['joint_S', 'joint_L', 'joint_E', 'joint_U', 'joint_R', 'joint_B', 'joint_T']","(-18341, 19850, -17638, 13797, -5839, -86517, 20780)","(-15.9604, -17.2735, -15.3486, 12.0062, 5.0811, -85.4385, -30.9553)","(-12355.2, 13228.8, -11856.0, 9360.0, -3993.6, 3120.0, 13852.8)","(-0.001643, -0.002123, -0.001396, 0.005246, -0.001805, 0.002101, 0.002476)"
