time,.header.seq,.header.stamp.secs,.header.stamp.nsecs,.header.frame_id,.wrench.force.x,.wrench.force.y,.wrench.force.z,.wrench.torque.x,.wrench.torque.y,.wrench.torque.z
2020/05/26/01:50:21.435735,3409,1590425421,435527134,robotiq_ft_frame_id,-10.9499998093,239.190002441,3.66000008583,5.21899986267,2.12700009346,1.33200001717
2020/05/26/01:50:21.452137,3410,1590425421,451890412,robotiq_ft_frame_id,-10.970000267,239.25,3.59999990463,5.21999979019,2.1289999485,1.33200001717
2020/05/26/01:50:21.464362,3411,1590425421,464199195,robotiq_ft_frame_id,-10.8900003433,239.179992676,3.6099998951,5.21899986267,2.125,1.33299994469
2020/05/26/01:50:21.480758,3412,1590425421,480554987,robotiq_ft_frame_id,-10.8599996567,239.229995728,3.63000011444,5.21899986267,2.12599992752,1.33299994469
2020/05/26/01:50:21.497156,3413,1590425421,496928228,robotiq_ft_frame_id,-10.8599996567,239.320007324,3.55999994278,5.22200012207,2.12599992752,1.33299994469
2020/05/26/01:50:21.513610,3414,1590425421,513290090,robotiq_ft_frame_id,-10.8800001144,239.220001221,3.70000004768,5.21700000763,2.12199997902,1.33299994469
2020/05/26/01:50:21.529774,3415,1590425421,529600973,robotiq_ft_frame_id,-10.8800001144,239.149993896,3.6400001049,5.21899986267,2.12299990654,1.33299994469
2020/05/26/01:50:21.546060,3416,1590425421,545889407,robotiq_ft_frame_id,-10.8500003815,239.130004883,3.53999996185,5.21799993515,2.12599992752,1.33200001717
2020/05/26/01:50:21.562456,3417,1590425421,562208197,robotiq_ft_frame_id,-10.9099998474,239.13999939,3.75,5.21799993515,2.125,1.33399999142
2020/05/26/01:50:21.578723,3418,1590425421,578516171,robotiq_ft_frame_id,-10.9399995804,239.130004883,3.73000001907,5.21600008011,2.12400007248,1.33299994469
2020/05/26/01:50:21.594976,3419,1590425421,594822323,robotiq_ft_frame_id,-10.8199996948,239.220001221,3.58999991417,5.22100019455,2.12700009346,1.33500003815
2020/05/26/01:50:21.611337,3420,1590425421,611107967,robotiq_ft_frame_id,-10.8100004196,239.169998169,3.70000004768,5.21799993515,2.125,1.33599996567
2020/05/26/01:50:21.627590,3421,1590425421,627400918,robotiq_ft_frame_id,-10.7899999619,239.179992676,3.63000011444,5.21799993515,2.125,1.33500003815
2020/05/26/01:50:21.643983,3422,1590425421,643723684,robotiq_ft_frame_id,-10.8500003815,239.220001221,3.58999991417,5.21899986267,2.12400007248,1.33299994469
2020/05/26/01:50:21.656132,3423,1590425421,655975042,robotiq_ft_frame_id,-10.8699998856,239.179992676,3.6400001049,5.21700000763,2.12299990654,1.33399999142
2020/05/26/01:50:21.672448,3424,1590425421,672259851,robotiq_ft_frame_id,-10.8900003433,239.190002441,3.65000009537,5.21700000763,2.125,1.33399999142
2020/05/26/01:50:21.688775,3425,1590425421,688550480,robotiq_ft_frame_id,-10.8999996185,239.199996948,3.6400001049,5.21600008011,2.12599992752,1.33399999142
2020/05/26/01:50:21.705037,3426,1590425421,704857270,robotiq_ft_frame_id,-10.9300003052,239.259994507,3.61999988556,5.22100019455,2.12599992752,1.33399999142
2020/05/26/01:50:21.721398,3427,1590425421,721166817,robotiq_ft_frame_id,-10.9300003052,239.279998779,3.57999992371,5.22200012207,2.12700009346,1.33399999142
2020/05/26/01:50:21.737732,3428,1590425421,737534794,robotiq_ft_frame_id,-10.8999996185,239.25,3.59999990463,5.22100019455,2.12700009346,1.33399999142
2020/05/26/01:50:21.754209,3429,1590425421,753943103,robotiq_ft_frame_id,-10.8500003815,239.179992676,3.6400001049,5.21899986267,2.12599992752,1.33299994469
2020/05/26/01:50:21.770655,3430,1590425421,770386609,robotiq_ft_frame_id,-10.8400001526,239.160003662,3.58999991417,5.21799993515,2.12700009346,1.33200001717
2020/05/26/01:50:21.786962,3431,1590425421,786732630,robotiq_ft_frame_id,-10.9200000763,239.279998779,3.69000005722,5.22100019455,2.12700009346,1.33200001717
2020/05/26/01:50:21.803319,3432,1590425421,803124566,robotiq_ft_frame_id,-10.8800001144,239.270004272,3.71000003815,5.21999979019,2.12599992752,1.33399999142
2020/05/26/01:50:21.815595,3433,1590425421,815426155,robotiq_ft_frame_id,-10.8900003433,239.179992676,3.55999994278,5.22200012207,2.1289999485,1.33399999142
2020/05/26/01:50:21.831954,3434,1590425421,831774597,robotiq_ft_frame_id,-10.8699998856,239.169998169,3.72000002861,5.21700000763,2.12299990654,1.33399999142
2020/05/26/01:50:21.848276,3435,1590425421,848105178,robotiq_ft_frame_id,-10.8699998856,239.179992676,3.6099998951,5.21899986267,2.12400007248,1.33399999142
2020/05/26/01:50:21.864628,3436,1590425421,864494787,robotiq_ft_frame_id,-10.9099998474,239.210006714,3.57999992371,5.21700000763,2.12800002098,1.33500003815
2020/05/26/01:50:21.881083,3437,1590425421,880870964,robotiq_ft_frame_id,-10.8900003433,239.190002441,3.71000003815,5.21600008011,2.12400007248,1.33500003815
2020/05/26/01:50:21.897548,3438,1590425421,897284704,robotiq_ft_frame_id,-10.8400001526,239.169998169,3.63000011444,5.21899986267,2.125,1.33299994469
2020/05/26/01:50:21.913808,3439,1590425421,913638766,robotiq_ft_frame_id,-10.8299999237,239.160003662,3.6400001049,5.21999979019,2.125,1.33299994469
2020/05/26/01:50:21.930250,3440,1590425421,930036686,robotiq_ft_frame_id,-10.8299999237,239.190002441,3.73000001907,5.22100019455,2.12299990654,1.33299994469
2020/05/26/01:50:21.946669,3441,1590425421,946442584,robotiq_ft_frame_id,-10.8699998856,239.220001221,3.6099998951,5.21999979019,2.12599992752,1.33200001717
2020/05/26/01:50:21.963112,3442,1590425421,962855489,robotiq_ft_frame_id,-10.8599996567,239.169998169,3.55999994278,5.21999979019,2.12700009346,1.33200001717
2020/05/26/01:50:21.975491,3443,1590425421,975208923,robotiq_ft_frame_id,-10.8400001526,239.169998169,3.75,5.21500015259,2.12199997902,1.33200001717
2020/05/26/01:50:21.991738,3444,1590425421,991582699,robotiq_ft_frame_id,-10.8599996567,239.210006714,3.58999991417,5.21899986267,2.125,1.33299994469
2020/05/26/01:50:22.008097,3445,1590425422,7956808,robotiq_ft_frame_id,-10.8500003815,239.220001221,3.66000008583,5.21899986267,2.12400007248,1.33399999142
2020/05/26/01:50:22.024467,3446,1590425422,24260147,robotiq_ft_frame_id,-10.7899999619,239.149993896,3.74000000954,5.21600008011,2.1210000515,1.33299994469
2020/05/26/01:50:22.040957,3447,1590425422,40685781,robotiq_ft_frame_id,-10.8500003815,239.160003662,3.77999997139,5.21500015259,2.12199997902,1.33299994469
2020/05/26/01:50:22.057293,3448,1590425422,57087066,robotiq_ft_frame_id,-10.8699998856,239.220001221,3.65000009537,5.21899986267,2.125,1.33500003815
2020/05/26/01:50:22.073581,3449,1590425422,73413936,robotiq_ft_frame_id,-10.8400001526,239.190002441,3.65000009537,5.21899986267,2.125,1.33399999142
2020/05/26/01:50:22.089897,3450,1590425422,89714000,robotiq_ft_frame_id,-10.8500003815,239.130004883,3.59999990463,5.21799993515,2.12599992752,1.33399999142
2020/05/26/01:50:22.106152,3451,1590425422,106013898,robotiq_ft_frame_id,-10.8800001144,239.179992676,3.6400001049,5.21899986267,2.125,1.33500003815
2020/05/26/01:50:22.122527,3452,1590425422,122336276,robotiq_ft_frame_id,-10.8500003815,239.240005493,3.66000008583,5.21799993515,2.12400007248,1.33299994469
2020/05/26/01:50:22.138828,3453,1590425422,138702198,robotiq_ft_frame_id,-10.8500003815,239.270004272,3.72000002861,5.21700000763,2.12400007248,1.33299994469
2020/05/26/01:50:22.151147,3454,1590425422,150966049,robotiq_ft_frame_id,-10.8999996185,239.199996948,3.75,5.21500015259,2.125,1.33399999142
2020/05/26/01:50:22.167556,3455,1590425422,167330201,robotiq_ft_frame_id,-10.9200000763,239.179992676,3.67000007629,5.21600008011,2.12599992752,1.33399999142
2020/05/26/01:50:22.183868,3456,1590425422,183723484,robotiq_ft_frame_id,-10.9399995804,239.179992676,3.56999993324,5.21700000763,2.12800002098,1.33200001717
2020/05/26/01:50:22.200306,3457,1590425422,200109735,robotiq_ft_frame_id,-10.9200000763,239.179992676,3.67000007629,5.21700000763,2.12599992752,1.33200001717
2020/05/26/01:50:22.216662,3458,1590425422,216447973,robotiq_ft_frame_id,-10.9600000381,239.169998169,3.50999999046,5.21999979019,2.1289999485,1.33399999142
2020/05/26/01:50:22.233068,3459,1590425422,232859386,robotiq_ft_frame_id,-10.9300003052,239.229995728,3.63000011444,5.21799993515,2.12599992752,1.33399999142
2020/05/26/01:50:22.249498,3460,1590425422,249294063,robotiq_ft_frame_id,-10.8699998856,239.179992676,3.66000008583,5.21899986267,2.12400007248,1.33500003815
2020/05/26/01:50:22.265833,3461,1590425422,265696458,robotiq_ft_frame_id,-10.9799995422,239.270004272,3.52999997139,5.21999979019,2.13100004196,1.33399999142
2020/05/26/01:50:22.282171,3462,1590425422,282048497,robotiq_ft_frame_id,-10.9799995422,239.179992676,3.57999992371,5.22100019455,2.13100004196,1.33299994469
2020/05/26/01:50:22.298613,3463,1590425422,298433206,robotiq_ft_frame_id,-10.8999996185,239.13999939,3.66000008583,5.21899986267,2.125,1.33200001717
2020/05/26/01:50:22.310920,3464,1590425422,310735995,robotiq_ft_frame_id,-10.8999996185,239.220001221,3.53999996185,5.21999979019,2.1289999485,1.33200001717
2020/05/26/01:50:22.327223,3465,1590425422,327081215,robotiq_ft_frame_id,-10.8699998856,239.210006714,3.67000007629,5.21799993515,2.125,1.33299994469
2020/05/26/01:50:22.343520,3466,1590425422,343364839,robotiq_ft_frame_id,-10.8599996567,239.25,3.73000001907,5.21700000763,2.12400007248,1.33200001717
2020/05/26/01:50:22.359816,3467,1590425422,359650641,robotiq_ft_frame_id,-10.8599996567,239.300003052,3.55999994278,5.22100019455,2.12700009346,1.33200001717
2020/05/26/01:50:22.376199,3468,1590425422,375980500,robotiq_ft_frame_id,-10.9499998093,239.199996948,3.66000008583,5.21899986267,2.12700009346,1.33200001717
2020/05/26/01:50:22.392482,3469,1590425422,392329079,robotiq_ft_frame_id,-10.8299999237,239.240005493,3.6099998951,5.22200012207,2.12599992752,1.33399999142
2020/05/26/01:50:22.408826,3470,1590425422,408655102,robotiq_ft_frame_id,-10.8400001526,239.259994507,3.56999993324,5.22200012207,2.12700009346,1.33500003815
2020/05/26/01:50:22.425274,3471,1590425422,425072926,robotiq_ft_frame_id,-10.8100004196,239.220001221,3.72000002861,5.22200012207,2.12400007248,1.3370000124
2020/05/26/01:50:22.441696,3472,1590425422,441460839,robotiq_ft_frame_id,-10.8400001526,239.199996948,3.72000002861,5.22100019455,2.12400007248,1.3370000124
2020/05/26/01:50:22.458050,3473,1590425422,457847874,robotiq_ft_frame_id,-10.8800001144,239.179992676,3.63000011444,5.22100019455,2.12700009346,1.33500003815
2020/05/26/01:50:22.474330,3474,1590425422,474153009,robotiq_ft_frame_id,-10.8599996567,239.199996948,3.65000009537,5.22100019455,2.12599992752,1.33399999142
2020/05/26/01:50:22.486480,3475,1590425422,486361137,robotiq_ft_frame_id,-10.8599996567,239.220001221,3.66000008583,5.21899986267,2.125,1.33299994469
2020/05/26/01:50:22.502848,3476,1590425422,502679811,robotiq_ft_frame_id,-10.8800001144,239.210006714,3.6400001049,5.21899986267,2.12599992752,1.33399999142
2020/05/26/01:50:22.519319,3477,1590425422,519079617,robotiq_ft_frame_id,-10.8800001144,239.259994507,3.72000002861,5.21899986267,2.125,1.33399999142
2020/05/26/01:50:22.535588,3478,1590425422,535411852,robotiq_ft_frame_id,-10.9200000763,239.240005493,3.57999992371,5.22100019455,2.12700009346,1.33299994469
2020/05/26/01:50:22.551877,3479,1590425422,551712187,robotiq_ft_frame_id,-10.8900003433,239.179992676,3.61999988556,5.21999979019,2.12599992752,1.33399999142
2020/05/26/01:50:22.568322,3480,1590425422,568061197,robotiq_ft_frame_id,-10.8299999237,239.119995117,3.66000008583,5.21700000763,2.12400007248,1.33299994469
2020/05/26/01:50:22.584539,3481,1590425422,584373389,robotiq_ft_frame_id,-10.8800001144,239.240005493,3.55999994278,5.21799993515,2.12599992752,1.33200001717
2020/05/26/01:50:22.600941,3482,1590425422,600752956,robotiq_ft_frame_id,-10.8599996567,239.25,3.65000009537,5.21799993515,2.125,1.33299994469
2020/05/26/01:50:22.617294,3483,1590425422,617096352,robotiq_ft_frame_id,-10.8599996567,239.259994507,3.61999988556,5.21899986267,2.12400007248,1.33399999142
2020/05/26/01:50:22.633734,3484,1590425422,633491056,robotiq_ft_frame_id,-10.9200000763,239.300003052,3.58999991417,5.21999979019,2.12700009346,1.33299994469
2020/05/26/01:50:22.650131,3485,1590425422,649875334,robotiq_ft_frame_id,-10.8599996567,239.190002441,3.63000011444,5.22100019455,2.125,1.33599996567
2020/05/26/01:50:22.662322,3486,1590425422,662186162,robotiq_ft_frame_id,-10.7700004578,239.100006104,3.61999988556,5.21600008011,2.12299990654,1.33299994469
2020/05/26/01:50:22.678680,3487,1590425422,678531167,robotiq_ft_frame_id,-10.8599996567,239.059997559,3.51999998093,5.21700000763,2.12700009346,1.33299994469
2020/05/26/01:50:22.695195,3488,1590425422,694938048,robotiq_ft_frame_id,-10.9399995804,239.259994507,3.69000005722,5.21700000763,2.12599992752,1.33299994469
2020/05/26/01:50:22.711494,3489,1590425422,711310888,robotiq_ft_frame_id,-10.8999996185,239.210006714,3.67000007629,5.21600008011,2.12599992752,1.33399999142
2020/05/26/01:50:22.727763,3490,1590425422,727667239,robotiq_ft_frame_id,-10.9200000763,239.220001221,3.46000003815,5.21899986267,2.13000011444,1.33000004292
2020/05/26/01:50:22.744176,3491,1590425422,743990906,robotiq_ft_frame_id,-10.8699998856,239.130004883,3.72000002861,5.21999979019,2.12299990654,1.33299994469
2020/05/26/01:50:22.760500,3492,1590425422,760295452,robotiq_ft_frame_id,-10.8400001526,239.179992676,3.67000007629,5.22100019455,2.12400007248,1.33299994469
2020/05/26/01:50:22.776882,3493,1590425422,776693999,robotiq_ft_frame_id,-10.9499998093,239.190002441,3.56999993324,5.21799993515,2.1289999485,1.33099997044
2020/05/26/01:50:22.793227,3494,1590425422,793027305,robotiq_ft_frame_id,-10.970000267,239.220001221,3.65000009537,5.21999979019,2.12800002098,1.33200001717
2020/05/26/01:50:22.809567,3495,1590425422,809377461,robotiq_ft_frame_id,-10.9099998474,239.210006714,3.65000009537,5.21700000763,2.12599992752,1.33200001717
2020/05/26/01:50:22.825937,3496,1590425422,825756206,robotiq_ft_frame_id,-10.8400001526,239.130004883,3.6099998951,5.21899986267,2.12599992752,1.33200001717
2020/05/26/01:50:22.838307,3497,1590425422,838067381,robotiq_ft_frame_id,-10.8500003815,239.119995117,3.70000004768,5.21600008011,2.12400007248,1.33299994469
2020/05/26/01:50:22.854668,3498,1590425422,854456637,robotiq_ft_frame_id,-10.8800001144,239.179992676,3.6400001049,5.22200012207,2.12800002098,1.33399999142
2020/05/26/01:50:22.871011,3499,1590425422,870839000,robotiq_ft_frame_id,-10.8999996185,239.220001221,3.58999991417,5.21999979019,2.1289999485,1.33200001717
2020/05/26/01:50:22.887478,3500,1590425422,887247873,robotiq_ft_frame_id,-10.8699998856,239.210006714,3.68000006676,5.21899986267,2.12599992752,1.33299994469
2020/05/26/01:50:22.903849,3501,1590425422,903600400,robotiq_ft_frame_id,-10.8699998856,239.220001221,3.58999991417,5.21999979019,2.12599992752,1.33099997044
2020/05/26/01:50:22.920196,3502,1590425422,920040517,robotiq_ft_frame_id,-10.8599996567,239.220001221,3.61999988556,5.21899986267,2.125,1.33200001717
2020/05/26/01:50:22.936555,3503,1590425422,936380913,robotiq_ft_frame_id,-10.8400001526,239.169998169,3.65000009537,5.22100019455,2.12400007248,1.33299994469
2020/05/26/01:50:22.952991,3504,1590425422,952755774,robotiq_ft_frame_id,-10.8000001907,239.13999939,3.6400001049,5.21899986267,2.12400007248,1.33200001717
2020/05/26/01:50:22.969294,3505,1590425422,969111499,robotiq_ft_frame_id,-10.8199996948,239.220001221,3.77999997139,5.21799993515,2.12199997902,1.33299994469
2020/05/26/01:50:22.985737,3506,1590425422,985508246,robotiq_ft_frame_id,-10.8699998856,239.25,3.68000006676,5.21799993515,2.125,1.33200001717
2020/05/26/01:50:22.998008,3507,1590425422,997837827,robotiq_ft_frame_id,-10.8599996567,239.220001221,3.65000009537,5.21799993515,2.12599992752,1.33200001717
2020/05/26/01:50:23.014376,3508,1590425423,14186564,robotiq_ft_frame_id,-10.8000001907,239.179992676,3.69000005722,5.21799993515,2.12299990654,1.33299994469
2020/05/26/01:50:23.030787,3509,1590425423,30582136,robotiq_ft_frame_id,-10.8599996567,239.220001221,3.68000006676,5.21899986267,2.125,1.33299994469
2020/05/26/01:50:23.047141,3510,1590425423,46974552,robotiq_ft_frame_id,-10.8900003433,239.190002441,3.6400001049,5.21999979019,2.12599992752,1.33399999142
2020/05/26/01:50:23.063568,3511,1590425423,63395005,robotiq_ft_frame_id,-10.8199996948,239.149993896,3.78999996185,5.21400022507,2.12199997902,1.33200001717
2020/05/26/01:50:23.079891,3512,1590425423,79754475,robotiq_ft_frame_id,-10.8299999237,239.13999939,3.57999992371,5.21799993515,2.12599992752,1.33200001717
2020/05/26/01:50:23.096293,3513,1590425423,96103659,robotiq_ft_frame_id,-10.8599996567,239.11000061,3.57999992371,5.21500015259,2.125,1.33299994469
2020/05/26/01:50:23.112813,3514,1590425423,112494140,robotiq_ft_frame_id,-10.8299999237,239.089996338,3.67000007629,5.21700000763,2.12400007248,1.33399999142
2020/05/26/01:50:23.129045,3515,1590425423,128847682,robotiq_ft_frame_id,-10.8500003815,239.240005493,3.57999992371,5.21899986267,2.125,1.33299994469
2020/05/26/01:50:23.145327,3516,1590425423,145148486,robotiq_ft_frame_id,-10.9200000763,239.169998169,3.54999995232,5.21899986267,2.12700009346,1.33299994469
2020/05/26/01:50:23.157557,3517,1590425423,157366038,robotiq_ft_frame_id,-10.9200000763,239.270004272,3.84999990463,5.21799993515,2.12299990654,1.33299994469
2020/05/26/01:50:23.173877,3518,1590425423,173680383,robotiq_ft_frame_id,-10.8599996567,239.160003662,3.5,5.21700000763,2.1289999485,1.33099997044
2020/05/26/01:50:23.190237,3519,1590425423,190006853,robotiq_ft_frame_id,-10.8199996948,239.119995117,3.52999997139,5.21999979019,2.12599992752,1.33200001717
2020/05/26/01:50:23.206462,3520,1590425423,206317241,robotiq_ft_frame_id,-10.9399995804,239.210006714,3.65000009537,5.21999979019,2.12599992752,1.33200001717
2020/05/26/01:50:23.222798,3521,1590425423,222620950,robotiq_ft_frame_id,-10.9099998474,239.270004272,3.51999998093,5.22200012207,2.12599992752,1.33399999142
2020/05/26/01:50:23.239286,3522,1590425423,239041040,robotiq_ft_frame_id,-10.8599996567,239.259994507,3.53999996185,5.21799993515,2.12599992752,1.33200001717
2020/05/26/01:50:23.255584,3523,1590425423,255406088,robotiq_ft_frame_id,-10.8100004196,239.220001221,3.75,5.21999979019,2.1210000515,1.33500003815
2020/05/26/01:50:23.271913,3524,1590425423,271771611,robotiq_ft_frame_id,-10.8599996567,239.279998779,3.67000007629,5.21700000763,2.125,1.33200001717
2020/05/26/01:50:23.288290,3525,1590425423,288116470,robotiq_ft_frame_id,-10.7899999619,239.270004272,3.61999988556,5.22200012207,2.12299990654,1.33299994469
2020/05/26/01:50:23.304711,3526,1590425423,304462482,robotiq_ft_frame_id,-10.8500003815,239.199996948,3.6099998951,5.22200012207,2.125,1.33399999142
2020/05/26/01:50:23.321037,3527,1590425423,320857842,robotiq_ft_frame_id,-10.9200000763,239.149993896,3.59999990463,5.21899986267,2.12800002098,1.33399999142
2020/05/26/01:50:23.333300,3528,1590425423,333140071,robotiq_ft_frame_id,-10.8800001144,239.160003662,3.69000005722,5.21799993515,2.12400007248,1.33399999142
2020/05/26/01:50:23.349736,3529,1590425423,349523189,robotiq_ft_frame_id,-10.9200000763,239.199996948,3.63000011444,5.21600008011,2.12700009346,1.33200001717
2020/05/26/01:50:23.366133,3530,1590425423,365927093,robotiq_ft_frame_id,-10.8800001144,239.169998169,3.75999999046,5.21700000763,2.12299990654,1.33200001717
2020/05/26/01:50:23.382597,3531,1590425423,382280610,robotiq_ft_frame_id,-10.8500003815,239.210006714,3.75,5.21999979019,2.12400007248,1.33299994469
2020/05/26/01:50:23.398883,3532,1590425423,398682842,robotiq_ft_frame_id,-10.9499998093,239.160003662,3.58999991417,5.21899986267,2.13000011444,1.33299994469
2020/05/26/01:50:23.415207,3533,1590425423,415021417,robotiq_ft_frame_id,-10.8999996185,239.169998169,3.67000007629,5.21700000763,2.125,1.33399999142
2020/05/26/01:50:23.431629,3534,1590425423,431406361,robotiq_ft_frame_id,-10.9099998474,239.190002441,3.65000009537,5.21600008011,2.12599992752,1.33399999142
2020/05/26/01:50:23.448165,3535,1590425423,447870854,robotiq_ft_frame_id,-10.9399995804,239.259994507,3.51999998093,5.22200012207,2.1289999485,1.33299994469
2020/05/26/01:50:23.464394,3536,1590425423,464209600,robotiq_ft_frame_id,-10.8999996185,239.320007324,3.67000007629,5.21899986267,2.12400007248,1.33299994469
2020/05/26/01:50:23.480643,3537,1590425423,480482373,robotiq_ft_frame_id,-10.9099998474,239.25,3.73000001907,5.22300004959,2.12599992752,1.33500003815
2020/05/26/01:50:23.492884,3538,1590425423,492691458,robotiq_ft_frame_id,-10.8800001144,239.100006104,3.54999995232,5.21700000763,2.12800002098,1.33200001717
2020/05/26/01:50:23.509243,3539,1590425423,508995596,robotiq_ft_frame_id,-10.8500003815,239.059997559,3.58999991417,5.21899986267,2.125,1.33399999142
2020/05/26/01:50:23.525550,3540,1590425423,525386278,robotiq_ft_frame_id,-10.7899999619,239.179992676,3.69000005722,5.21700000763,2.12299990654,1.33200001717
2020/05/26/01:50:23.541886,3541,1590425423,541720714,robotiq_ft_frame_id,-10.8100004196,239.160003662,3.50999999046,5.21799993515,2.125,1.33299994469
2020/05/26/01:50:23.558262,3542,1590425423,558017537,robotiq_ft_frame_id,-10.8699998856,239.179992676,3.69000005722,5.21700000763,2.12299990654,1.33299994469
2020/05/26/01:50:23.574516,3543,1590425423,574336422,robotiq_ft_frame_id,-10.8699998856,239.169998169,3.69000005722,5.21999979019,2.12599992752,1.33500003815
2020/05/26/01:50:23.590885,3544,1590425423,590708509,robotiq_ft_frame_id,-10.9399995804,239.270004272,3.59999990463,5.21999979019,2.1289999485,1.33200001717
2020/05/26/01:50:23.607301,3545,1590425423,607099560,robotiq_ft_frame_id,-10.8599996567,239.229995728,3.69000005722,5.21999979019,2.125,1.33500003815
2020/05/26/01:50:23.623744,3546,1590425423,623477572,robotiq_ft_frame_id,-10.8900003433,239.160003662,3.65000009537,5.21799993515,2.12400007248,1.33500003815
2020/05/26/01:50:23.640069,3547,1590425423,639850809,robotiq_ft_frame_id,-10.8900003433,239.220001221,3.61999988556,5.21799993515,2.12700009346,1.33299994469
2020/05/26/01:50:23.656339,3548,1590425423,656163699,robotiq_ft_frame_id,-10.8699998856,239.179992676,3.58999991417,5.21799993515,2.12400007248,1.33299994469
2020/05/26/01:50:23.668604,3549,1590425423,668438490,robotiq_ft_frame_id,-10.8900003433,239.169998169,3.59999990463,5.21700000763,2.125,1.33399999142
2020/05/26/01:50:23.685034,3550,1590425423,684821933,robotiq_ft_frame_id,-10.8599996567,239.080001831,3.58999991417,5.21799993515,2.12599992752,1.33200001717
2020/05/26/01:50:23.701352,3551,1590425423,701134579,robotiq_ft_frame_id,-10.8299999237,239.089996338,3.70000004768,5.21700000763,2.12299990654,1.33099997044
2020/05/26/01:50:23.717673,3552,1590425423,717435281,robotiq_ft_frame_id,-10.970000267,239.259994507,3.55999994278,5.21799993515,2.12800002098,1.33399999142
2020/05/26/01:50:23.733942,3553,1590425423,733734391,robotiq_ft_frame_id,-10.8999996185,239.160003662,3.67000007629,5.21899986267,2.125,1.33399999142
2020/05/26/01:50:23.750243,3554,1590425423,750032987,robotiq_ft_frame_id,-10.8999996185,239.179992676,3.6099998951,5.21799993515,2.12599992752,1.33099997044
2020/05/26/01:50:23.766684,3555,1590425423,766415931,robotiq_ft_frame_id,-10.9399995804,239.240005493,3.57999992371,5.22300004959,2.1289999485,1.33399999142
2020/05/26/01:50:23.783145,3556,1590425423,782886319,robotiq_ft_frame_id,-10.8699998856,239.309997559,3.81999993324,5.21899986267,2.12199997902,1.33399999142
2020/05/26/01:50:23.799441,3557,1590425423,799269973,robotiq_ft_frame_id,-10.8199996948,239.179992676,3.84999990463,5.21799993515,2.11899995804,1.33200001717
2020/05/26/01:50:23.815776,3558,1590425423,815615606,robotiq_ft_frame_id,-10.7600002289,239.11000061,3.95000004768,5.21600008011,2.117000103,1.33299994469
2020/05/26/01:50:23.832185,3559,1590425423,831981381,robotiq_ft_frame_id,-10.8299999237,239.199996948,3.91000008583,5.21500015259,2.11899995804,1.33200001717
2020/05/26/01:50:23.844476,3560,1590425423,844248138,robotiq_ft_frame_id,-10.8299999237,239.300003052,3.55999994278,5.22100019455,2.12599992752,1.33099997044
2020/05/26/01:50:23.860846,3561,1590425423,860604000,robotiq_ft_frame_id,-10.9300003052,239.179992676,3.50999999046,5.21899986267,2.1289999485,1.33099997044
2020/05/26/01:50:23.877172,3562,1590425423,876960596,robotiq_ft_frame_id,-10.9300003052,239.13999939,3.80999994278,5.21500015259,2.12400007248,1.33200001717
2020/05/26/01:50:23.893503,3563,1590425423,893315356,robotiq_ft_frame_id,-10.8699998856,239.130004883,3.57999992371,5.21799993515,2.1289999485,1.33000004292
2020/05/26/01:50:23.909958,3564,1590425423,909699902,robotiq_ft_frame_id,-10.8999996185,239.179992676,3.57999992371,5.22100019455,2.1289999485,1.33099997044
2020/05/26/01:50:23.926277,3565,1590425423,926104678,robotiq_ft_frame_id,-10.8400001526,239.13999939,3.68000006676,5.21500015259,2.12299990654,1.33399999142
2020/05/26/01:50:23.942651,3566,1590425423,942470985,robotiq_ft_frame_id,-10.8900003433,239.080001831,3.53999996185,5.21799993515,2.12700009346,1.33399999142
2020/05/26/01:50:23.959064,3567,1590425423,958856279,robotiq_ft_frame_id,-10.8900003433,239.259994507,3.63000011444,5.21700000763,2.12700009346,1.33200001717
2020/05/26/01:50:23.975482,3568,1590425423,975262450,robotiq_ft_frame_id,-10.8900003433,239.289993286,3.72000002861,5.21999979019,2.12400007248,1.33200001717
2020/05/26/01:50:23.991874,3569,1590425423,991673865,robotiq_ft_frame_id,-11.029999733,239.179992676,3.61999988556,5.21799993515,2.1289999485,1.33099997044
2020/05/26/01:50:24.004092,3570,1590425424,3907642,robotiq_ft_frame_id,-10.8999996185,239.169998169,3.66000008583,5.21799993515,2.12400007248,1.33200001717
2020/05/26/01:50:24.020475,3571,1590425424,20231998,robotiq_ft_frame_id,-10.8800001144,239.169998169,3.66000008583,5.21799993515,2.12400007248,1.33200001717
2020/05/26/01:50:24.036787,3572,1590425424,36547769,robotiq_ft_frame_id,-10.8299999237,239.130004883,3.55999994278,5.21899986267,2.12599992752,1.33399999142
2020/05/26/01:50:24.053092,3573,1590425424,52920538,robotiq_ft_frame_id,-10.8800001144,239.190002441,3.56999993324,5.21999979019,2.12800002098,1.33299994469
2020/05/26/01:50:24.069436,3574,1590425424,69259966,robotiq_ft_frame_id,-10.8500003815,239.259994507,3.6400001049,5.21799993515,2.12400007248,1.33099997044
2020/05/26/01:50:24.085765,3575,1590425424,85622126,robotiq_ft_frame_id,-10.8299999237,239.289993286,3.70000004768,5.21600008011,2.12299990654,1.33099997044
2020/05/26/01:50:24.102254,3576,1590425424,102057276,robotiq_ft_frame_id,-10.9200000763,239.210006714,3.68000006676,5.21700000763,2.12700009346,1.33099997044
2020/05/26/01:50:24.118667,3577,1590425424,118440256,robotiq_ft_frame_id,-10.8100004196,239.119995117,3.61999988556,5.21899986267,2.12400007248,1.33399999142
2020/05/26/01:50:24.134927,3578,1590425424,134775133,robotiq_ft_frame_id,-10.8599996567,239.199996948,3.56999993324,5.21999979019,2.12599992752,1.33299994469
2020/05/26/01:50:24.151349,3579,1590425424,151138554,robotiq_ft_frame_id,-10.7899999619,239.169998169,3.70000004768,5.21799993515,2.12199997902,1.33099997044
2020/05/26/01:50:24.167796,3580,1590425424,167506454,robotiq_ft_frame_id,-10.8299999237,239.169998169,3.54999995232,5.21700000763,2.12700009346,1.33299994469
2020/05/26/01:50:24.179963,3581,1590425424,179788584,robotiq_ft_frame_id,-10.8500003815,239.160003662,3.71000003815,5.21400022507,2.125,1.33200001717
2020/05/26/01:50:24.196309,3582,1590425424,196120867,robotiq_ft_frame_id,-10.8699998856,239.179992676,3.72000002861,5.21700000763,2.12299990654,1.33299994469
2020/05/26/01:50:24.212726,3583,1590425424,212525910,robotiq_ft_frame_id,-10.8900003433,239.190002441,3.71000003815,5.21600008011,2.125,1.33299994469
2020/05/26/01:50:24.229130,3584,1590425424,228921299,robotiq_ft_frame_id,-10.8900003433,239.179992676,3.52999997139,5.22200012207,2.12800002098,1.33299994469
2020/05/26/01:50:24.245672,3585,1590425424,245353599,robotiq_ft_frame_id,-10.8900003433,239.320007324,3.66000008583,5.21799993515,2.125,1.33099997044
2020/05/26/01:50:24.261956,3586,1590425424,261724746,robotiq_ft_frame_id,-10.9899997711,239.240005493,3.50999999046,5.21999979019,2.13000011444,1.33099997044
2020/05/26/01:50:24.278253,3587,1590425424,278072753,robotiq_ft_frame_id,-10.9099998474,239.199996948,3.68000006676,5.21600008011,2.12599992752,1.33299994469
2020/05/26/01:50:24.294676,3588,1590425424,294455862,robotiq_ft_frame_id,-10.8000001907,239.11000061,3.76999998093,5.21700000763,2.11999988556,1.33399999142
2020/05/26/01:50:24.311179,3589,1590425424,310902952,robotiq_ft_frame_id,-10.8299999237,239.149993896,3.54999995232,5.21799993515,2.12599992752,1.33099997044
2020/05/26/01:50:24.323519,3590,1590425424,323255582,robotiq_ft_frame_id,-10.8800001144,239.160003662,3.58999991417,5.21700000763,2.12400007248,1.33299994469
2020/05/26/01:50:24.339794,3591,1590425424,339624083,robotiq_ft_frame_id,-10.8199996948,239.25,3.59999990463,5.22100019455,2.12400007248,1.33299994469
2020/05/26/01:50:24.356236,3592,1590425424,355991263,robotiq_ft_frame_id,-10.8900003433,239.240005493,3.50999999046,5.21999979019,2.12800002098,1.33000004292
2020/05/26/01:50:24.372556,3593,1590425424,372333277,robotiq_ft_frame_id,-10.9300003052,239.25,3.55999994278,5.22200012207,2.12800002098,1.33200001717
2020/05/26/01:50:24.388904,3594,1590425424,388660014,robotiq_ft_frame_id,-10.8900003433,239.240005493,3.78999996185,5.21500015259,2.12299990654,1.33000004292
2020/05/26/01:50:24.405270,3595,1590425424,405055336,robotiq_ft_frame_id,-10.8299999237,239.149993896,3.51999998093,5.21999979019,2.12599992752,1.33399999142
2020/05/26/01:50:24.421706,3596,1590425424,421411669,robotiq_ft_frame_id,-10.8199996948,239.130004883,3.66000008583,5.21600008011,2.12199997902,1.33399999142
2020/05/26/01:50:24.438053,3597,1590425424,437787273,robotiq_ft_frame_id,-10.8800001144,239.080001831,3.57999992371,5.21799993515,2.12700009346,1.33299994469
2020/05/26/01:50:24.454307,3598,1590425424,454212165,robotiq_ft_frame_id,-10.9399995804,239.149993896,3.52999997139,5.21899986267,2.1289999485,1.33200001717
2020/05/26/01:50:24.470710,3599,1590425424,470580821,robotiq_ft_frame_id,-10.8500003815,239.130004883,3.73000001907,5.21500015259,2.12299990654,1.33099997044
2020/05/26/01:50:24.487077,3600,1590425424,486891566,robotiq_ft_frame_id,-10.8400001526,239.130004883,3.56999993324,5.21999979019,2.12800002098,1.33399999142
2020/05/26/01:50:24.499302,3601,1590425424,499143328,robotiq_ft_frame_id,-10.8599996567,239.089996338,3.6099998951,5.21700000763,2.12599992752,1.33399999142
2020/05/26/01:50:24.515673,3602,1590425424,515521983,robotiq_ft_frame_id,-10.7899999619,239.119995117,3.58999991417,5.21999979019,2.12299990654,1.33200001717
2020/05/26/01:50:24.532149,3603,1590425424,531893120,robotiq_ft_frame_id,-10.8100004196,239.149993896,3.53999996185,5.21899986267,2.125,1.33200001717
2020/05/26/01:50:24.548327,3604,1590425424,548158692,robotiq_ft_frame_id,-10.8599996567,239.160003662,3.55999994278,5.21799993515,2.12299990654,1.33200001717
2020/05/26/01:50:24.564702,3605,1590425424,564508357,robotiq_ft_frame_id,-10.8800001144,239.149993896,3.63000011444,5.21500015259,2.12599992752,1.32899999619
2020/05/26/01:50:24.581090,3606,1590425424,580856486,robotiq_ft_frame_id,-10.8699998856,239.169998169,3.53999996185,5.21700000763,2.12800002098,1.33000004292
2020/05/26/01:50:24.597394,3607,1590425424,597206096,robotiq_ft_frame_id,-10.8400001526,239.100006104,3.73000001907,5.21600008011,2.125,1.33399999142
2020/05/26/01:50:24.613677,3608,1590425424,613488255,robotiq_ft_frame_id,-10.8500003815,239.11000061,3.67000007629,5.21500015259,2.125,1.33200001717
2020/05/26/01:50:24.629962,3609,1590425424,629780693,robotiq_ft_frame_id,-10.7899999619,239.210006714,3.54999995232,5.21999979019,2.12700009346,1.33299994469
2020/05/26/01:50:24.646559,3610,1590425424,646225804,robotiq_ft_frame_id,-10.8299999237,239.100006104,3.96000003815,5.21500015259,2.117000103,1.33399999142
2020/05/26/01:50:24.662878,3611,1590425424,662674705,robotiq_ft_frame_id,-10.8599996567,239.070007324,3.74000000954,5.22100019455,2.1210000515,1.33399999142
2020/05/26/01:50:24.675078,3612,1590425424,674976926,robotiq_ft_frame_id,-10.8900003433,239.220001221,3.56999993324,5.21899986267,2.12800002098,1.33099997044
2020/05/26/01:50:24.691568,3613,1590425424,691313541,robotiq_ft_frame_id,-10.8500003815,239.190002441,3.67000007629,5.22100019455,2.125,1.33299994469
2020/05/26/01:50:24.708036,3614,1590425424,707715895,robotiq_ft_frame_id,-10.8699998856,239.11000061,3.66000008583,5.21600008011,2.12599992752,1.33200001717
2020/05/26/01:50:24.724334,3615,1590425424,724062383,robotiq_ft_frame_id,-10.8699998856,239.100006104,3.56999993324,5.21600008011,2.12599992752,1.33200001717
2020/05/26/01:50:24.740627,3616,1590425424,740443382,robotiq_ft_frame_id,-10.8800001144,239.160003662,3.74000000954,5.21799993515,2.12400007248,1.33299994469
2020/05/26/01:50:24.757063,3617,1590425424,756824724,robotiq_ft_frame_id,-10.8400001526,239.13999939,3.54999995232,5.21899986267,2.12700009346,1.33299994469
2020/05/26/01:50:24.773424,3618,1590425424,773208272,robotiq_ft_frame_id,-10.8699998856,239.179992676,3.55999994278,5.22200012207,2.12700009346,1.33099997044
2020/05/26/01:50:24.789811,3619,1590425424,789605391,robotiq_ft_frame_id,-10.8599996567,239.220001221,3.71000003815,5.21899986267,2.125,1.33200001717
2020/05/26/01:50:24.806104,3620,1590425424,805981182,robotiq_ft_frame_id,-10.8699998856,239.210006714,3.61999988556,5.21999979019,2.12599992752,1.33299994469
2020/05/26/01:50:24.822558,3621,1590425424,822353743,robotiq_ft_frame_id,-10.8599996567,239.229995728,3.67000007629,5.21899986267,2.125,1.33299994469
2020/05/26/01:50:24.834893,3622,1590425424,834638773,robotiq_ft_frame_id,-10.8299999237,239.11000061,3.59999990463,5.21700000763,2.12299990654,1.33099997044
2020/05/26/01:50:24.851282,3623,1590425424,851052098,robotiq_ft_frame_id,-10.8500003815,239.100006104,3.56999993324,5.21600008011,2.12400007248,1.33099997044
2020/05/26/01:50:24.867652,3624,1590425424,867447709,robotiq_ft_frame_id,-10.8500003815,239.13999939,3.67000007629,5.21799993515,2.1210000515,1.33200001717
2020/05/26/01:50:24.884035,3625,1590425424,883822728,robotiq_ft_frame_id,-10.8900003433,239.070007324,3.59999990463,5.21400022507,2.11899995804,1.33299994469
2020/05/26/01:50:24.900413,3626,1590425424,900178924,robotiq_ft_frame_id,-12.1199998856,239.160003662,3.63000011444,5.19500017166,2.01699995995,1.33200001717
2020/05/26/01:50:24.916724,3627,1590425424,916556310,robotiq_ft_frame_id,-11.4499998093,239.699996948,3.55999994278,5.27099990845,2.08200001717,1.3370000124
2020/05/26/01:50:24.933146,3628,1590425424,932964690,robotiq_ft_frame_id,-10.8900003433,238.929992676,3.54999995232,5.21099996567,2.15100002289,1.33599996567
2020/05/26/01:50:24.949403,3629,1590425424,949268186,robotiq_ft_frame_id,-11.2100000381,239.600006104,3.72000002861,5.23400020599,2.09100008011,1.33500003815
2020/05/26/01:50:24.965864,3630,1590425424,965659182,robotiq_ft_frame_id,-11.5399999619,239.470001221,3.73000001907,5.22599983215,2.06699991226,1.33299994469
2020/05/26/01:50:24.982325,3631,1590425424,982064251,robotiq_ft_frame_id,-11.4099998474,239.190002441,3.44000005722,5.22599983215,2.09100008011,1.33399999142
2020/05/26/01:50:24.994504,3632,1590425424,994372489,robotiq_ft_frame_id,-11.5500001907,238.839996338,3.79999995232,5.19799995422,2.06399989128,1.33500003815
2020/05/26/01:50:25.010988,3633,1590425425,10761573,robotiq_ft_frame_id,-11.7700004578,239.100006104,3.88000011444,5.21000003815,2.0490000248,1.33399999142
2020/05/26/01:50:25.027302,3634,1590425425,27134004,robotiq_ft_frame_id,-11.4099998474,239.059997559,3.63000011444,5.20100021362,2.07399988174,1.33599996567
2020/05/26/01:50:25.043733,3635,1590425425,43482693,robotiq_ft_frame_id,-11.2600002289,239.169998169,3.75,5.21999979019,2.10100007057,1.3370000124
2020/05/26/01:50:25.060099,3636,1590425425,59893412,robotiq_ft_frame_id,-11.4600000381,238.899993896,3.75999999046,5.20800018311,2.08200001717,1.33599996567
2020/05/26/01:50:25.076360,3637,1590425425,76200735,robotiq_ft_frame_id,-11.6300001144,239.399993896,3.70000004768,5.23999977112,2.0759999752,1.3370000124
2020/05/26/01:50:25.092779,3638,1590425425,92564395,robotiq_ft_frame_id,-11.25,238.690002441,3.83999991417,5.18400001526,2.11299991608,1.33599996567
2020/05/26/01:50:25.109158,3639,1590425425,108968088,robotiq_ft_frame_id,-10.6999998093,239.5,4.17000007629,5.24300003052,2.15300011635,1.3370000124
2020/05/26/01:50:25.125587,3640,1590425425,125368263,robotiq_ft_frame_id,-11.1300001144,238.720001221,4.05999994278,5.1810002327,2.11299991608,1.3370000124
2020/05/26/01:50:25.141950,3641,1590425425,141775884,robotiq_ft_frame_id,-11.7600002289,239.38999939,4.01000022888,5.24900007248,2.05200004578,1.34000003338
2020/05/26/01:50:25.154291,3642,1590425425,154081192,robotiq_ft_frame_id,-11.6300001144,239.149993896,3.91000008583,5.21799993515,2.07299995422,1.33899998665
2020/05/26/01:50:25.170683,3643,1590425425,170529907,robotiq_ft_frame_id,-11.7100000381,239.410003662,3.92000007629,5.2389998436,2.06200003624,1.3409999609
2020/05/26/01:50:25.187099,3644,1590425425,186917648,robotiq_ft_frame_id,-11.6000003815,238.539993286,4.13999986649,5.17999982834,2.06399989128,1.34000003338
2020/05/26/01:50:25.203474,3645,1590425425,203256919,robotiq_ft_frame_id,-10.9099998474,239.589996338,4.36000013351,5.27400016785,2.13599991798,1.34300005436
2020/05/26/01:50:25.219709,3646,1590425425,219549531,robotiq_ft_frame_id,-9.81000041962,238.559997559,4.42000007629,5.18200016022,2.26699995995,1.34000003338
2020/05/26/01:50:25.236113,3647,1590425425,235938099,robotiq_ft_frame_id,-11.6899995804,238.779998779,4.44000005722,5.16400003433,2.05800008774,1.33899998665
2020/05/26/01:50:25.252541,3648,1590425425,252275114,robotiq_ft_frame_id,-12.25,239.080001831,4.40000009537,5.19999980927,1.95399999619,1.33899998665
2020/05/26/01:50:25.268866,3649,1590425425,268655023,robotiq_ft_frame_id,-11.9399995804,238.179992676,4.23999977112,5.19600009918,2.04999995232,1.34000003338
2020/05/26/01:50:25.285214,3650,1590425425,285028573,robotiq_ft_frame_id,-11.1199998856,238.809997559,4.40000009537,5.22599983215,2.09500002861,1.34200000763
2020/05/26/01:50:25.301692,3651,1590425425,301463077,robotiq_ft_frame_id,-10.7700004578,239.220001221,4.71000003815,5.20900011063,2.15400004387,1.3409999609
2020/05/26/01:50:25.313881,3652,1590425425,313716208,robotiq_ft_frame_id,-10.1999998093,239.020004272,5.01000022888,5.23099994659,2.22199988365,1.34800004959
2020/05/26/01:50:25.330241,3653,1590425425,330074749,robotiq_ft_frame_id,-10.3199996948,239.589996338,4.96999979019,5.28299999237,2.21700000763,1.34700000286
2020/05/26/01:50:25.346673,3654,1590425425,346439020,robotiq_ft_frame_id,-12.0699996948,239.270004272,4.67999982834,5.25500011444,2.01300001144,1.34500002861
2020/05/26/01:50:25.363045,3655,1590425425,362784100,robotiq_ft_frame_id,-12.4899997711,239.410003662,4.71000003815,5.27099990845,1.97000002861,1.34399998188
2020/05/26/01:50:25.379430,3656,1590425425,379202221,robotiq_ft_frame_id,-11.2899999619,239.850006104,4.86999988556,5.29600000381,2.09200000763,1.34800004959
2020/05/26/01:50:25.395787,3657,1590425425,395595824,robotiq_ft_frame_id,-9.65999984741,239.75,5.32000017166,5.23299980164,2.28699994087,1.34599995613
2020/05/26/01:50:25.412199,3658,1590425425,411989344,robotiq_ft_frame_id,-9.56000041962,240.570007324,5.65999984741,5.30000019073,2.27699995041,1.34899997711
2020/05/26/01:50:25.428584,3659,1590425425,428358480,robotiq_ft_frame_id,-11.8400001526,239.330001831,5.28000020981,5.26000022888,2.02200007439,1.34700000286
2020/05/26/01:50:25.445104,3660,1590425425,444815141,robotiq_ft_frame_id,-12.6800003052,238.779998779,4.92000007629,5.25299978256,1.95899999142,1.34399998188
2020/05/26/01:50:25.461378,3661,1590425425,461225586,robotiq_ft_frame_id,-12.1300001144,239.309997559,5.11000013351,5.25699996948,1.9960000515,1.35000002384
2020/05/26/01:50:25.473662,3662,1590425425,473498593,robotiq_ft_frame_id,-11.5799999237,238.649993896,5.32999992371,5.1779999733,2.06500005722,1.34899997711
2020/05/26/01:50:25.490098,3663,1590425425,489869246,robotiq_ft_frame_id,-9.86999988556,239.199996948,5.71000003815,5.21700000763,2.25300002098,1.34800004959
2020/05/26/01:50:25.506553,3664,1590425425,506304617,robotiq_ft_frame_id,-10.7700004578,240.0,6.01000022888,5.30200004578,2.1779999733,1.35300004482
2020/05/26/01:50:25.522885,3665,1590425425,522710463,robotiq_ft_frame_id,-12.1800003052,238.61000061,5.69000005722,5.18699979782,2.02600002289,1.35099995136
2020/05/26/01:50:25.539188,3666,1590425425,539057494,robotiq_ft_frame_id,-13.3599996567,239.839996338,5.34000015259,5.31799983978,1.89699995518,1.34899997711
2020/05/26/01:50:25.555696,3667,1590425425,555469479,robotiq_ft_frame_id,-12.3299999237,237.770004272,5.42000007629,5.1779999733,1.99100005627,1.35000002384
2020/05/26/01:50:25.572140,3668,1590425425,571869836,robotiq_ft_frame_id,-9.11999988556,239.940002441,6.26999998093,5.26800012589,2.38000011444,1.35399997234
2020/05/26/01:50:25.588536,3669,1590425425,588245778,robotiq_ft_frame_id,-11.529999733,240.690002441,6.53999996185,5.30200004578,2.08400011063,1.35099995136
2020/05/26/01:50:25.604796,3670,1590425425,604613813,robotiq_ft_frame_id,-13.6099996567,239.710006714,6.19999980927,5.26399993896,1.88600003719,1.34899997711
2020/05/26/01:50:25.621166,3671,1590425425,620967941,robotiq_ft_frame_id,-12.6599998474,239.679992676,5.44999980927,5.36899995804,1.95700001717,1.35899996758
2020/05/26/01:50:25.633428,3672,1590425425,633249131,robotiq_ft_frame_id,-11.279999733,237.729995728,5.48999977112,5.20399999619,2.17100000381,1.35599994659
2020/05/26/01:50:25.649788,3673,1590425425,649598105,robotiq_ft_frame_id,-9.64000034332,240.460006714,7.05000019073,5.28999996185,2.29200005531,1.35699999332
2020/05/26/01:50:25.666124,3674,1590425425,665945541,robotiq_ft_frame_id,-12.1599998474,239.5,6.96999979019,5.21400022507,1.98399996758,1.35199999809
2020/05/26/01:50:25.682447,3675,1590425425,682235854,robotiq_ft_frame_id,-13.0699996948,239.529998779,6.42000007629,5.28800010681,1.9470000267,1.35500001907
2020/05/26/01:50:25.698794,3676,1590425425,698609138,robotiq_ft_frame_id,-10.5900001526,239.729995728,5.92999982834,5.38899993896,2.17100000381,1.36000001431
2020/05/26/01:50:25.715245,3677,1590425425,715017946,robotiq_ft_frame_id,-9.92000007629,239.940002441,6.42999982834,5.36299991608,2.33800005913,1.36000001431
2020/05/26/01:50:25.731611,3678,1590425425,731418528,robotiq_ft_frame_id,-11.970000267,240.190002441,7.34000015259,5.23799991608,2.00300002098,1.35399997234
2020/05/26/01:50:25.747953,3679,1590425425,747777465,robotiq_ft_frame_id,-12.6199998856,238.160003662,6.78999996185,5.1360001564,1.9470000267,1.35199999809
2020/05/26/01:50:25.764352,3680,1590425425,764099805,robotiq_ft_frame_id,-11.5900001526,239.179992676,6.55999994278,5.29699993134,2.125,1.35599994659
2020/05/26/01:50:25.780702,3681,1590425425,780465771,robotiq_ft_frame_id,-9.71000003815,237.830001831,6.98000001907,5.22800016403,2.257999897,1.35800004005
2020/05/26/01:50:25.797095,3682,1590425425,796828909,robotiq_ft_frame_id,-10.9200000763,240.149993896,7.30000019073,5.34299993515,2.21300005913,1.35899996758
2020/05/26/01:50:25.809240,3683,1590425425,809059213,robotiq_ft_frame_id,-13.0600004196,239.770004272,7.17999982834,5.17299985886,1.8789999485,1.35099995136
2020/05/26/01:50:25.825621,3684,1590425425,825412789,robotiq_ft_frame_id,-11.3199996948,237.570007324,7.09999990463,5.14099979401,2.08400011063,1.35699999332
2020/05/26/01:50:25.842166,3685,1590425425,841856497,robotiq_ft_frame_id,-9.55000019073,238.380004883,7.34999990463,5.29500007629,2.31200003624,1.36099994183
2020/05/26/01:50:25.858463,3686,1590425425,858267983,robotiq_ft_frame_id,-11.1599998474,237.710006714,7.71000003815,5.15299987793,2.13800001144,1.36600005627
2020/05/26/01:50:25.874798,3687,1590425425,874631018,robotiq_ft_frame_id,-13.0100002289,239.600006104,7.48999977112,5.25099992752,1.90199995041,1.35000002384
2020/05/26/01:50:25.891181,3688,1590425425,890969536,robotiq_ft_frame_id,-13.3000001907,238.160003662,6.92000007629,5.09499979019,1.85399997234,1.35300004482
2020/05/26/01:50:25.907652,3689,1590425425,907409170,robotiq_ft_frame_id,-10.1000003815,237.88999939,7.92000007629,5.21600008011,2.28699994087,1.35899996758
2020/05/26/01:50:25.924013,3690,1590425425,923786081,robotiq_ft_frame_id,-9.09000015259,237.059997559,8.23999977112,5.14900016785,2.33899998665,1.36199998856
2020/05/26/01:50:25.940271,3691,1590425425,940127904,robotiq_ft_frame_id,-13.1099996567,238.169998169,7.82000017166,5.15399980545,1.9960000515,1.36699998379
2020/05/26/01:50:25.956915,3692,1590425425,956685174,robotiq_ft_frame_id,-14.4399995804,238.679992676,7.17999982834,5.21299982071,1.78199994564,1.34800004959
2020/05/26/01:50:25.969129,3693,1590425425,968931111,robotiq_ft_frame_id,-12.1300001144,237.210006714,7.19999980927,5.09000015259,1.95299994946,1.36000001431
2020/05/26/01:50:25.985412,3694,1590425425,985248944,robotiq_ft_frame_id,-9.26000022888,240.339996338,8.81999969482,5.42500019073,2.45499992371,1.36600005627
2020/05/26/01:50:26.001774,3695,1590425426,1615925,robotiq_ft_frame_id,-10.6000003815,237.570007324,8.67000007629,5.10699987411,2.24099993706,1.36899995804
2020/05/26/01:50:26.018274,3696,1590425426,18032453,robotiq_ft_frame_id,-14.6300001144,240.100006104,7.40000009537,5.29199981689,1.72300004959,1.34800004959
2020/05/26/01:50:26.034690,3697,1590425426,34447917,robotiq_ft_frame_id,-14.6499996185,237.779998779,7.15000009537,5.13100004196,1.74100005627,1.35800004005
2020/05/26/01:50:26.050989,3698,1590425426,50851613,robotiq_ft_frame_id,-10.9799995422,238.020004272,8.39999961853,5.23600006104,2.24799990654,1.36199998856
2020/05/26/01:50:26.067352,3699,1590425426,67172291,robotiq_ft_frame_id,-9.86999988556,240.88999939,9.21000003815,5.36800003052,2.26799988747,1.37699997425
2020/05/26/01:50:26.083699,3700,1590425426,83479209,robotiq_ft_frame_id,-12.779999733,238.490005493,8.81999969482,5.17299985886,2.007999897,1.36300003529
2020/05/26/01:50:26.100102,3701,1590425426,99848446,robotiq_ft_frame_id,-15.1999998093,240.850006104,8.14999961853,5.38500022888,1.73800003529,1.3710000515
2020/05/26/01:50:26.116386,3702,1590425426,116193272,robotiq_ft_frame_id,-12.7299995422,237.330001831,7.98999977112,5.14200019836,1.92100000381,1.36600005627
2020/05/26/01:50:26.128561,3703,1590425426,128420342,robotiq_ft_frame_id,-9.60999965668,240.839996338,9.42000007629,5.42899990082,2.40599989891,1.37399995327
2020/05/26/01:50:26.144884,3704,1590425426,144707329,robotiq_ft_frame_id,-13.2899999619,239.75,8.86999988556,5.24100017548,1.87399995327,1.36399996281
2020/05/26/01:50:26.161196,3705,1590425426,161011347,robotiq_ft_frame_id,-14.8900003433,240.289993286,8.27999973297,5.34600019455,1.68799996376,1.35000002384
2020/05/26/01:50:26.177570,3706,1590425426,177336439,robotiq_ft_frame_id,-13.4799995422,239.839996338,8.71000003815,5.36800003052,1.97300004959,1.3789999485
2020/05/26/01:50:26.193864,3707,1590425426,193729190,robotiq_ft_frame_id,-11.25,238.350006104,9.11999988556,5.27299976349,2.23799991608,1.36600005627
2020/05/26/01:50:26.210313,3708,1590425426,210119786,robotiq_ft_frame_id,-10.4099998474,241.199996948,9.40999984741,5.33699989319,2.18700003624,1.38199996948
2020/05/26/01:50:26.226752,3709,1590425426,226523612,robotiq_ft_frame_id,-13.8400001526,238.740005493,9.32999992371,5.15600013733,1.95200002193,1.36600005627
2020/05/26/01:50:26.243170,3710,1590425426,242935578,robotiq_ft_frame_id,-15.5900001526,240.050003052,9.11999988556,5.36000013351,1.75300002098,1.38100004196
2020/05/26/01:50:26.259460,3711,1590425426,259306032,robotiq_ft_frame_id,-10.0699996948,238.0,9.03999996185,5.257999897,2.18700003624,1.36600005627
2020/05/26/01:50:26.275876,3712,1590425426,275705023,robotiq_ft_frame_id,-9.89000034332,240.789993286,9.52999973297,5.40899991989,2.32299995422,1.38399994373
2020/05/26/01:50:26.292275,3713,1590425426,292078512,robotiq_ft_frame_id,-14.0500001907,239.61000061,9.39000034332,5.26700019836,1.85300004482,1.36500000954
2020/05/26/01:50:26.304547,3714,1590425426,304364087,robotiq_ft_frame_id,-15.4899997711,240.149993896,8.85999965668,5.33500003815,1.65100002289,1.35800004005
2020/05/26/01:50:26.320912,3715,1590425426,320701512,robotiq_ft_frame_id,-13.6499996185,239.509994507,9.32999992371,5.34000015259,1.9470000267,1.37600004673
2020/05/26/01:50:26.337192,3716,1590425426,337014177,robotiq_ft_frame_id,-10.1400003433,237.710006714,9.93000030518,5.10200023651,2.28200006485,1.37199997902
2020/05/26/01:50:26.353397,3717,1590425426,353283752,robotiq_ft_frame_id,-10.9499998093,241.25,9.89000034332,5.31500005722,2.12599992752,1.38600003719
2020/05/26/01:50:26.369682,3718,1590425426,369560450,robotiq_ft_frame_id,-16.3299999237,237.729995728,9.52000045776,5.17700004578,1.70399999619,1.36500000954
2020/05/26/01:50:26.386081,3719,1590425426,385908738,robotiq_ft_frame_id,-15.75,240.130004883,9.61999988556,5.38899993896,1.6970000267,1.38399994373
2020/05/26/01:50:26.402475,3720,1590425426,402320652,robotiq_ft_frame_id,-10.4300003052,238.339996338,9.81000041962,5.24800014496,2.18000006676,1.37399995327
2020/05/26/01:50:26.418788,3721,1590425426,418633374,robotiq_ft_frame_id,-12.3699998856,238.369995117,10.1300001144,5.13399982452,2.10500001907,1.38199996948
2020/05/26/01:50:26.435153,3722,1590425426,435025609,robotiq_ft_frame_id,-14.6700000763,239.61000061,9.85000038147,5.25099992752,1.77300000191,1.37399995327
2020/05/26/01:50:26.451504,3723,1590425426,451373741,robotiq_ft_frame_id,-16.0400009155,237.789993286,9.25,5.17399978638,1.65499997139,1.37000000477
2020/05/26/01:50:26.467877,3724,1590425426,467719301,robotiq_ft_frame_id,-14.0100002289,238.820007324,9.78999996185,5.27199983597,1.88199996948,1.38100004196
2020/05/26/01:50:26.480210,3725,1590425426,479982103,robotiq_ft_frame_id,-10.9499998093,237.979995728,10.6099996567,5.10799980164,2.23600006104,1.37300002575
2020/05/26/01:50:26.496522,3726,1590425426,496309585,robotiq_ft_frame_id,-14.2299995422,239.240005493,10.1300001144,5.22499990463,1.89600002766,1.38300001621
2020/05/26/01:50:26.512932,3727,1590425426,512671597,robotiq_ft_frame_id,-16.1200008392,237.460006714,9.68999958038,5.18300008774,1.69500005245,1.37199997902
2020/05/26/01:50:26.529221,3728,1590425426,529079300,robotiq_ft_frame_id,-14.6800003052,237.529998779,9.97999954224,5.19299983978,1.80400002003,1.37699997425
2020/05/26/01:50:26.545656,3729,1590425426,545445104,robotiq_ft_frame_id,-12.279999733,238.490005493,10.3999996185,5.21500015259,2.08100008965,1.38399994373
2020/05/26/01:50:26.562021,3730,1590425426,561782804,robotiq_ft_frame_id,-11.9600000381,238.570007324,10.6700000763,5.13399982452,2.13800001144,1.3789999485
2020/05/26/01:50:26.578455,3731,1590425426,578186755,robotiq_ft_frame_id,-16.7800006866,240.070007324,10.1499996185,5.34800004959,1.60800004005,1.37999999523
2020/05/26/01:50:26.594737,3732,1590425426,594587348,robotiq_ft_frame_id,-17.2700004578,237.029998779,9.85999965668,5.1810002327,1.59899997711,1.36699998379
2020/05/26/01:50:26.611136,3733,1590425426,610917661,robotiq_ft_frame_id,-12.6499996185,239.059997559,10.7299995422,5.24700021744,2.01699995995,1.38999998569
2020/05/26/01:50:26.627520,3734,1590425426,627309350,robotiq_ft_frame_id,-11.6599998474,237.720001221,11.1800003052,5.08599996567,2.21199989319,1.38900005817
2020/05/26/01:50:26.639782,3735,1590425426,639609977,robotiq_ft_frame_id,-14.3100004196,239.149993896,10.8199996948,5.21400022507,1.89100003242,1.38499999046
2020/05/26/01:50:26.656247,3736,1590425426,656038566,robotiq_ft_frame_id,-16.5100002289,239.300003052,10.25,5.35599994659,1.56099998951,1.37699997425
2020/05/26/01:50:26.672514,3737,1590425426,672343178,robotiq_ft_frame_id,-16.0,237.449996948,10.4799995422,5.21299982071,1.75600004196,1.37600004673
2020/05/26/01:50:26.688842,3738,1590425426,688672416,robotiq_ft_frame_id,-11.0699996948,241.309997559,11.0200004578,5.3639998436,2.15300011635,1.39699995518
2020/05/26/01:50:26.705200,3739,1590425426,704993974,robotiq_ft_frame_id,-11.9399995804,238.369995117,11.0100002289,5.13000011444,2.08500003815,1.37600004673
2020/05/26/01:50:26.721532,3740,1590425426,721303886,robotiq_ft_frame_id,-17.6299991608,240.38999939,10.7700004578,5.32499980927,1.59399998188,1.39199995995
2020/05/26/01:50:26.737728,3741,1590425426,737610827,robotiq_ft_frame_id,-15.3999996185,238.809997559,10.5,5.3060002327,1.65100002289,1.38100004196
2020/05/26/01:50:26.754255,3742,1590425426,754029381,robotiq_ft_frame_id,-13.25,239.070007324,11.0600004196,5.25699996948,1.96099996567,1.39600002766
2020/05/26/01:50:26.770613,3743,1590425426,770407261,robotiq_ft_frame_id,-12.9799995422,239.970001221,11.6999998093,5.29500007629,2.11100006104,1.38999998569
2020/05/26/01:50:26.786984,3744,1590425426,786823740,robotiq_ft_frame_id,-15.0500001907,239.199996948,11.1300001144,5.21899986267,1.84000003338,1.39199995995
2020/05/26/01:50:26.803341,3745,1590425426,803171239,robotiq_ft_frame_id,-17.1499996185,239.470001221,10.6599998474,5.33400011063,1.52400004864,1.38300001621
2020/05/26/01:50:26.815587,3746,1590425426,815451447,robotiq_ft_frame_id,-14.3500003815,239.11000061,11.3500003815,5.24800014496,1.93200004101,1.40499997139
2020/05/26/01:50:26.832063,3747,1590425426,831854068,robotiq_ft_frame_id,-12.0500001907,240.929992676,11.529999733,5.34899997711,2.07699990273,1.40400004387
2020/05/26/01:50:26.848402,3748,1590425426,848188811,robotiq_ft_frame_id,-15.1499996185,239.699996948,11.3800001144,5.23699998856,1.78900003433,1.38999998569
2020/05/26/01:50:26.864716,3749,1590425426,864539012,robotiq_ft_frame_id,-18.0900001526,240.679992676,11.0500001907,5.32399988174,1.56200003624,1.40400004387
2020/05/26/01:50:26.881073,3750,1590425426,880873959,robotiq_ft_frame_id,-15.9799995422,239.149993896,10.7899999619,5.3189997673,1.57000005245,1.38199996948
2020/05/26/01:50:26.897376,3751,1590425426,897213126,robotiq_ft_frame_id,-13.4899997711,238.050003052,12.0399999619,5.07399988174,2.1400001049,1.4090000391
2020/05/26/01:50:26.913833,3752,1590425426,913576316,robotiq_ft_frame_id,-13.4799995422,239.960006714,12.1300001144,5.26599979401,2.11599993706,1.39800000191
2020/05/26/01:50:26.930113,3753,1590425426,929975452,robotiq_ft_frame_id,-16.9400005341,238.229995728,11.0500001907,5.12099981308,1.55700004101,1.39400005341
2020/05/26/01:50:26.946435,3754,1590425426,946289700,robotiq_ft_frame_id,-18.2399997711,239.869995117,11.1800003052,5.3029999733,1.47300004959,1.39699995518
2020/05/26/01:50:26.962805,3755,1590425426,962641323,robotiq_ft_frame_id,-15.7600002289,238.100006104,11.7899999619,5.22900009155,1.79700005054,1.40199995041
2020/05/26/01:50:26.979282,3756,1590425426,979021510,robotiq_ft_frame_id,-12.8400001526,238.130004883,11.8299999237,5.14400005341,2.03299999237,1.39199995995
2020/05/26/01:50:26.991524,3757,1590425426,991325354,robotiq_ft_frame_id,-14.9799995422,238.75,11.6000003815,5.15700006485,1.81200003624,1.39699995518
2020/05/26/01:50:27.007778,3758,1590425427,7651521,robotiq_ft_frame_id,-19.5300006866,237.949996948,11.1499996185,5.12300014496,1.38999998569,1.38999998569
2020/05/26/01:50:27.024241,3759,1590425427,24026132,robotiq_ft_frame_id,-18.0100002289,238.899993896,11.4200000763,5.24300003052,1.46500003338,1.39100003242
2020/05/26/01:50:27.040612,3760,1590425427,40357515,robotiq_ft_frame_id,-14.0100002289,237.580001831,12.220000267,5.04199981689,2.0529999733,1.40799999237
2020/05/26/01:50:27.056833,3761,1590425427,56679932,robotiq_ft_frame_id,-13.5100002289,240.289993286,12.4600000381,5.27899980545,2.06599998474,1.40499997139
2020/05/26/01:50:27.073206,3762,1590425427,72980461,robotiq_ft_frame_id,-17.5,238.309997559,11.3299999237,5.13899993896,1.50999999046,1.39600002766
2020/05/26/01:50:27.089519,3763,1590425427,89327371,robotiq_ft_frame_id,-18.4300003052,238.009994507,11.1899995804,5.22599983215,1.43499994278,1.40199995041
2020/05/26/01:50:27.105952,3764,1590425427,105746789,robotiq_ft_frame_id,-16.0699996948,237.410003662,11.7399997711,5.23299980164,1.65299999714,1.40699994564
2020/05/26/01:50:27.122518,3765,1590425427,122134239,robotiq_ft_frame_id,-14.25,237.820007324,12.4300003052,5.08400011063,2.06999993324,1.4129999876
2020/05/26/01:50:27.138690,3766,1590425427,138516118,robotiq_ft_frame_id,-15.1599998474,239.410003662,11.8599996567,5.132999897,1.79499995708,1.40400004387
2020/05/26/01:50:27.150959,3767,1590425427,150796015,robotiq_ft_frame_id,-19.7099990845,238.119995117,11.1099996567,5.07700014114,1.27100002766,1.38600003719
2020/05/26/01:50:27.167333,3768,1590425427,167123609,robotiq_ft_frame_id,-17.0599994659,239.690002441,12.1000003815,5.28399991989,1.70700001717,1.40100002289
2020/05/26/01:50:27.183700,3769,1590425427,183455039,robotiq_ft_frame_id,-14.3800001144,237.509994507,12.2399997711,5.0689997673,1.94500005245,1.40199995041
2020/05/26/01:50:27.200057,3770,1590425427,199825443,robotiq_ft_frame_id,-15.5100002289,240.369995117,12.1499996185,5.27600002289,1.75899994373,1.40600001812
2020/05/26/01:50:27.216305,3771,1590425427,216101851,robotiq_ft_frame_id,-18.6900005341,237.779998779,11.6499996185,5.14499998093,1.5,1.39699995518
2020/05/26/01:50:27.232633,3772,1590425427,232433692,robotiq_ft_frame_id,-19.1800003052,238.149993896,11.3299999237,5.22100019455,1.34300005436,1.41199994087
2020/05/26/01:50:27.249136,3773,1590425427,248825576,robotiq_ft_frame_id,-15.0799999237,240.130004883,12.5,5.40600013733,1.88399994373,1.4090000391
2020/05/26/01:50:27.265402,3774,1590425427,265213990,robotiq_ft_frame_id,-15.1700000763,238.559997559,12.470000267,5.12699985504,1.99000000954,1.41400003433
2020/05/26/01:50:27.281713,3775,1590425427,281575468,robotiq_ft_frame_id,-18.2900009155,241.279998779,11.5500001907,5.29300022125,1.40799999237,1.39100003242
2020/05/26/01:50:27.298242,3776,1590425427,297985788,robotiq_ft_frame_id,-20.2999992371,238.220001221,11.3400001526,5.04199981689,1.2009999752,1.39100003242
2020/05/26/01:50:27.314634,3777,1590425427,314351641,robotiq_ft_frame_id,-18.0599994659,239.820007324,12.2299995422,5.27500009537,1.59399998188,1.40400004387
2020/05/26/01:50:27.326770,3778,1590425427,326617562,robotiq_ft_frame_id,-14.0,241.039993286,12.5799999237,5.27699995041,1.87999999523,1.41799998283
2020/05/26/01:50:27.343114,3779,1590425427,342932471,robotiq_ft_frame_id,-16.1700000763,240.460006714,12.3900003433,5.25199985504,1.72300004959,1.41400003433
2020/05/26/01:50:27.359560,3780,1590425427,359325668,robotiq_ft_frame_id,-20.5100002289,240.070007324,11.7299995422,5.34499979019,1.26300001144,1.41700005531
2020/05/26/01:50:27.376009,3781,1590425427,375737779,robotiq_ft_frame_id,-20.1800003052,238.240005493,11.4600000381,5.20699977875,1.2539999485,1.42100000381
2020/05/26/01:50:27.392269,3782,1590425427,392094058,robotiq_ft_frame_id,-16.2800006866,240.789993286,12.5200004578,5.45599985123,1.72500002384,1.4129999876
2020/05/26/01:50:27.408715,3783,1590425427,408497661,robotiq_ft_frame_id,-15.9099998474,239.160003662,12.2899999619,5.08599996567,1.76499998569,1.41600000858
2020/05/26/01:50:27.425075,3784,1590425427,424877785,robotiq_ft_frame_id,-18.2299995422,242.229995728,12.0100002289,5.35500001907,1.4509999752,1.40600001812
2020/05/26/01:50:27.441596,3785,1590425427,441271337,robotiq_ft_frame_id,-21.4500007629,238.919998169,12.0399999619,5.1360001564,1.16100001335,1.4090000391
2020/05/26/01:50:27.457839,3786,1590425427,457708708,robotiq_ft_frame_id,-19.6599998474,240.649993896,12.3900003433,5.32000017166,1.39400005341,1.41100001335
2020/05/26/01:50:27.474271,3787,1590425427,474095371,robotiq_ft_frame_id,-14.720000267,241.039993286,12.7700004578,5.28200006485,1.8029999733,1.41700005531
2020/05/26/01:50:27.486513,3788,1590425427,486326544,robotiq_ft_frame_id,-19.2299995422,237.38999939,12.0600004196,5.04400014877,1.52999997139,1.41499996185
2020/05/26/01:50:27.502908,3789,1590425427,502654407,robotiq_ft_frame_id,-20.8799991608,240.690002441,11.6400003433,5.382999897,1.21099996567,1.41400003433
2020/05/26/01:50:27.519208,3790,1590425427,519028767,robotiq_ft_frame_id,-19.9899997711,237.630004883,11.6999998093,5.13399982452,1.26900005341,1.42200005054
2020/05/26/01:50:27.535554,3791,1590425427,535345455,robotiq_ft_frame_id,-17.7999992371,240.770004272,12.5200004578,5.4359998703,1.61699998379,1.41799998283
