time,.header.seq,.header.stamp.secs,.header.stamp.nsecs,.header.frame_id,.wrench.force.x,.wrench.force.y,.wrench.force.z,.wrench.torque.x,.wrench.torque.y,.wrench.torque.z
2020/05/26/02:02:25.269031,35796,1590426145,268928533,robotiq_ft_frame_id,-10.8299999237,239.309997559,4.07999992371,5.22700023651,2.125,1.33800005913
2020/05/26/02:02:25.285466,35797,1590426145,285234314,robotiq_ft_frame_id,-10.8699998856,239.36000061,4.07999992371,5.22700023651,2.12599992752,1.3370000124
2020/05/26/02:02:25.301809,35798,1590426145,301572269,robotiq_ft_frame_id,-10.9200000763,239.330001831,4.19000005722,5.22499990463,2.125,1.33599996567
2020/05/26/02:02:25.318133,35799,1590426145,317886272,robotiq_ft_frame_id,-10.9099998474,239.339996338,4.11000013351,5.22700023651,2.12700009346,1.33800005913
2020/05/26/02:02:25.334389,35800,1590426145,334257198,robotiq_ft_frame_id,-10.8500003815,239.289993286,4.05999994278,5.22700023651,2.12599992752,1.33800005913
2020/05/26/02:02:25.350772,35801,1590426145,350622275,robotiq_ft_frame_id,-10.8100004196,239.350006104,4.11000013351,5.22599983215,2.12599992752,1.33800005913
2020/05/26/02:02:25.367089,35802,1590426145,366905421,robotiq_ft_frame_id,-10.7899999619,239.369995117,4.11999988556,5.22700023651,2.12400007248,1.33899998665
2020/05/26/02:02:25.383390,35803,1590426145,383209532,robotiq_ft_frame_id,-10.8400001526,239.300003052,4.11999988556,5.22599983215,2.125,1.33800005913
2020/05/26/02:02:25.399905,35804,1590426145,399563109,robotiq_ft_frame_id,-10.8199996948,239.320007324,4.17000007629,5.22499990463,2.12299990654,1.33800005913
2020/05/26/02:02:25.416063,35805,1590426145,415875084,robotiq_ft_frame_id,-10.9600000381,239.449996948,4.07000017166,5.22800016403,2.12800002098,1.33800005913
2020/05/26/02:02:25.432368,35806,1590426145,432166898,robotiq_ft_frame_id,-10.7700004578,239.220001221,4.07000017166,5.22599983215,2.12299990654,1.33800005913
2020/05/26/02:02:25.448713,35807,1590426145,448538335,robotiq_ft_frame_id,-10.8100004196,239.259994507,4.07000017166,5.22599983215,2.125,1.34000003338
2020/05/26/02:02:25.461007,35808,1590426145,460813477,robotiq_ft_frame_id,-10.8299999237,239.300003052,4.11999988556,5.22499990463,2.125,1.34000003338
2020/05/26/02:02:25.477381,35809,1590426145,477215043,robotiq_ft_frame_id,-10.8299999237,239.320007324,4.13999986649,5.22599983215,2.12599992752,1.33899998665
2020/05/26/02:02:25.493778,35810,1590426145,493602638,robotiq_ft_frame_id,-10.8599996567,239.410003662,4.15000009537,5.22800016403,2.125,1.33599996567
2020/05/26/02:02:25.510165,35811,1590426145,509954302,robotiq_ft_frame_id,-10.779999733,239.259994507,4.19000005722,5.22300004959,2.12400007248,1.33800005913
2020/05/26/02:02:25.526508,35812,1590426145,526305117,robotiq_ft_frame_id,-10.8100004196,239.279998779,4.15000009537,5.22499990463,2.125,1.3370000124
2020/05/26/02:02:25.542860,35813,1590426145,542684945,robotiq_ft_frame_id,-10.779999733,239.270004272,4.05000019073,5.22499990463,2.12299990654,1.33800005913
2020/05/26/02:02:25.559245,35814,1590426145,559060761,robotiq_ft_frame_id,-10.75,239.270004272,4.05999994278,5.22599983215,2.12400007248,1.3370000124
2020/05/26/02:02:25.575703,35815,1590426145,575422548,robotiq_ft_frame_id,-10.8199996948,239.330001831,4.11999988556,5.22599983215,2.12599992752,1.3370000124
2020/05/26/02:02:25.591912,35816,1590426145,591752612,robotiq_ft_frame_id,-10.9300003052,239.36000061,4.17999982834,5.22399997711,2.12700009346,1.33800005913
2020/05/26/02:02:25.608263,35817,1590426145,608102188,robotiq_ft_frame_id,-10.8699998856,239.259994507,4.21000003815,5.22200012207,2.12599992752,1.33800005913
2020/05/26/02:02:25.620604,35818,1590426145,620400145,robotiq_ft_frame_id,-10.8400001526,239.270004272,4.07999992371,5.22499990463,2.12700009346,1.33800005913
2020/05/26/02:02:25.636878,35819,1590426145,636692407,robotiq_ft_frame_id,-10.8100004196,239.339996338,4.05999994278,5.22599983215,2.125,1.33800005913
2020/05/26/02:02:25.653198,35820,1590426145,652989054,robotiq_ft_frame_id,-10.8299999237,239.410003662,4.13000011444,5.22900009155,2.125,1.33899998665
2020/05/26/02:02:25.669474,35821,1590426145,669321268,robotiq_ft_frame_id,-10.7600002289,239.179992676,4.07999992371,5.22200012207,2.12599992752,1.33800005913
2020/05/26/02:02:25.685819,35822,1590426145,685648279,robotiq_ft_frame_id,-10.8599996567,239.210006714,4.07999992371,5.22200012207,2.12700009346,1.33800005913
2020/05/26/02:02:25.702070,35823,1590426145,701930478,robotiq_ft_frame_id,-10.8500003815,239.320007324,4.17000007629,5.22499990463,2.12599992752,1.3370000124
2020/05/26/02:02:25.718404,35824,1590426145,718213819,robotiq_ft_frame_id,-10.8699998856,239.279998779,4.11999988556,5.22499990463,2.12700009346,1.33599996567
2020/05/26/02:02:25.734809,35825,1590426145,734618036,robotiq_ft_frame_id,-10.9499998093,239.309997559,4.05999994278,5.22599983215,2.12800002098,1.3370000124
2020/05/26/02:02:25.751230,35826,1590426145,751038997,robotiq_ft_frame_id,-10.9399995804,239.369995117,4.07000017166,5.22599983215,2.1289999485,1.33599996567
2020/05/26/02:02:25.767620,35827,1590426145,767402701,robotiq_ft_frame_id,-10.8900003433,239.350006104,4.07000017166,5.22599983215,2.12800002098,1.3370000124
2020/05/26/02:02:25.784086,35828,1590426145,783823113,robotiq_ft_frame_id,-10.8800001144,239.309997559,4.03999996185,5.22499990463,2.1289999485,1.33599996567
2020/05/26/02:02:25.796412,35829,1590426145,796128328,robotiq_ft_frame_id,-10.8800001144,239.309997559,4.03999996185,5.22499990463,2.1289999485,1.33599996567
2020/05/26/02:02:25.812701,35830,1590426145,812552990,robotiq_ft_frame_id,-10.8400001526,239.279998779,4.09999990463,5.22800016403,2.125,1.3370000124
2020/05/26/02:02:25.829113,35831,1590426145,828939286,robotiq_ft_frame_id,-10.9099998474,239.380004883,4.05000019073,5.22700023651,2.12800002098,1.3370000124
2020/05/26/02:02:25.845543,35832,1590426145,845292280,robotiq_ft_frame_id,-10.8800001144,239.339996338,4.05999994278,5.22599983215,2.12700009346,1.33800005913
2020/05/26/02:02:25.861887,35833,1590426145,861658815,robotiq_ft_frame_id,-10.8699998856,239.309997559,4.11999988556,5.22599983215,2.12700009346,1.33800005913
2020/05/26/02:02:25.878180,35834,1590426145,878003399,robotiq_ft_frame_id,-10.8999996185,239.270004272,4.07000017166,5.22599983215,2.12800002098,1.33899998665
2020/05/26/02:02:25.894487,35835,1590426145,894324292,robotiq_ft_frame_id,-10.8599996567,239.279998779,4.09000015259,5.22599983215,2.12599992752,1.33800005913
2020/05/26/02:02:25.910923,35836,1590426145,910712314,robotiq_ft_frame_id,-10.8199996948,239.289993286,4.15000009537,5.22700023651,2.12400007248,1.3370000124
2020/05/26/02:02:25.927186,35837,1590426145,927038684,robotiq_ft_frame_id,-10.7700004578,239.36000061,4.13000011444,5.22700023651,2.12299990654,1.33599996567
2020/05/26/02:02:25.943488,35838,1590426145,943368526,robotiq_ft_frame_id,-10.8299999237,239.309997559,4.11000013351,5.22599983215,2.125,1.33800005913
2020/05/26/02:02:25.960021,35839,1590426145,959756908,robotiq_ft_frame_id,-10.8299999237,239.309997559,4.11000013351,5.22599983215,2.125,1.33800005913
2020/05/26/02:02:25.972250,35840,1590426145,972050636,robotiq_ft_frame_id,-10.8299999237,239.309997559,4.09000015259,5.22599983215,2.125,1.33599996567
2020/05/26/02:02:25.988654,35841,1590426145,988408775,robotiq_ft_frame_id,-10.8199996948,239.259994507,4.11000013351,5.22599983215,2.12599992752,1.3370000124
2020/05/26/02:02:26.004936,35842,1590426146,4755557,robotiq_ft_frame_id,-10.8800001144,239.179992676,4.09000015259,5.22499990463,2.12800002098,1.33899998665
2020/05/26/02:02:26.021263,35843,1590426146,21103317,robotiq_ft_frame_id,-10.8599996567,239.279998779,4.11999988556,5.22499990463,2.12700009346,1.33899998665
2020/05/26/02:02:26.037665,35844,1590426146,37482497,robotiq_ft_frame_id,-10.8400001526,239.300003052,4.09999990463,5.22499990463,2.12599992752,1.33899998665
2020/05/26/02:02:26.053914,35845,1590426146,53771331,robotiq_ft_frame_id,-10.8299999237,239.330001831,4.07000017166,5.22499990463,2.125,1.33800005913
2020/05/26/02:02:26.070306,35846,1590426146,70124623,robotiq_ft_frame_id,-10.8500003815,239.36000061,4.13000011444,5.22499990463,2.125,1.33800005913
2020/05/26/02:02:26.086661,35847,1590426146,86504146,robotiq_ft_frame_id,-10.9399995804,239.270004272,4.09000015259,5.22499990463,2.1289999485,1.3370000124
2020/05/26/02:02:26.103004,35848,1590426146,102870170,robotiq_ft_frame_id,-10.9099998474,239.240005493,4.05000019073,5.22499990463,2.1289999485,1.33800005913
2020/05/26/02:02:26.119344,35849,1590426146,119197331,robotiq_ft_frame_id,-10.8800001144,239.259994507,4.05999994278,5.22499990463,2.12700009346,1.3370000124
2020/05/26/02:02:26.135683,35850,1590426146,135522717,robotiq_ft_frame_id,-10.779999733,239.270004272,4.07999992371,5.22399997711,2.12599992752,1.33899998665
2020/05/26/02:02:26.147855,35851,1590426146,147734782,robotiq_ft_frame_id,-10.779999733,239.339996338,4.09999990463,5.22499990463,2.12599992752,1.33800005913
2020/05/26/02:02:26.164181,35852,1590426146,164023171,robotiq_ft_frame_id,-10.8699998856,239.320007324,4.13999986649,5.22499990463,2.12800002098,1.3370000124
2020/05/26/02:02:26.180613,35853,1590426146,180389561,robotiq_ft_frame_id,-10.9099998474,239.240005493,4.05000019073,5.22499990463,2.1289999485,1.33800005913
2020/05/26/02:02:26.196995,35854,1590426146,196804478,robotiq_ft_frame_id,-10.9099998474,239.229995728,4.03000020981,5.22499990463,2.12800002098,1.33800005913
2020/05/26/02:02:26.213320,35855,1590426146,213155826,robotiq_ft_frame_id,-10.8699998856,239.270004272,4.11999988556,5.22499990463,2.12700009346,1.3370000124
2020/05/26/02:02:26.229754,35856,1590426146,229502581,robotiq_ft_frame_id,-10.8100004196,239.289993286,4.15999984741,5.22399997711,2.125,1.3370000124
2020/05/26/02:02:26.246150,35857,1590426146,245896204,robotiq_ft_frame_id,-10.9099998474,239.259994507,4.05000019073,5.22399997711,2.1289999485,1.3370000124
2020/05/26/02:02:26.262295,35858,1590426146,262199919,robotiq_ft_frame_id,-10.9200000763,239.380004883,4.05000019073,5.22700023651,2.1289999485,1.33800005913
2020/05/26/02:02:26.278640,35859,1590426146,278501766,robotiq_ft_frame_id,-10.9099998474,239.380004883,4.05000019073,5.22800016403,2.12800002098,1.33800005913
2020/05/26/02:02:26.295053,35860,1590426146,294808383,robotiq_ft_frame_id,-10.9300003052,239.38999939,4.03000020981,5.22700023651,2.1289999485,1.33800005913
2020/05/26/02:02:26.311324,35861,1590426146,311113298,robotiq_ft_frame_id,-10.8900003433,239.350006104,4.05000019073,5.22700023651,2.12800002098,1.33800005913
2020/05/26/02:02:26.323582,35862,1590426146,323354333,robotiq_ft_frame_id,-10.8900003433,239.350006104,4.19999980927,5.22599983215,2.12700009346,1.33899998665
2020/05/26/02:02:26.339780,35863,1590426146,339667368,robotiq_ft_frame_id,-10.8999996185,239.330001831,4.09999990463,5.22700023651,2.1289999485,1.33800005913
2020/05/26/02:02:26.356160,35864,1590426146,355962832,robotiq_ft_frame_id,-10.8699998856,239.300003052,4.09999990463,5.22599983215,2.12800002098,1.3370000124
2020/05/26/02:02:26.372420,35865,1590426146,372255866,robotiq_ft_frame_id,-10.8500003815,239.289993286,4.11999988556,5.22700023651,2.12599992752,1.3370000124
2020/05/26/02:02:26.388713,35866,1590426146,388546176,robotiq_ft_frame_id,-10.8599996567,239.300003052,4.09000015259,5.22599983215,2.12700009346,1.3370000124
2020/05/26/02:02:26.405081,35867,1590426146,404906518,robotiq_ft_frame_id,-10.8699998856,239.289993286,4.07000017166,5.22700023651,2.1289999485,1.33599996567
2020/05/26/02:02:26.421475,35868,1590426146,421247712,robotiq_ft_frame_id,-10.8599996567,239.350006104,4.13999986649,5.22499990463,2.12599992752,1.3370000124
2020/05/26/02:02:26.437716,35869,1590426146,437552538,robotiq_ft_frame_id,-10.9099998474,239.399993896,4.11000013351,5.22599983215,2.12800002098,1.33599996567
2020/05/26/02:02:26.454154,35870,1590426146,453875573,robotiq_ft_frame_id,-10.8500003815,239.309997559,4.07999992371,5.22599983215,2.12599992752,1.33599996567
2020/05/26/02:02:26.470407,35871,1590426146,470243150,robotiq_ft_frame_id,-10.8599996567,239.330001831,4.07000017166,5.22599983215,2.12700009346,1.33599996567
2020/05/26/02:02:26.486778,35872,1590426146,486607870,robotiq_ft_frame_id,-10.8800001144,239.380004883,4.05999994278,5.22599983215,2.12599992752,1.33800005913
2020/05/26/02:02:26.503148,35873,1590426146,502950365,robotiq_ft_frame_id,-10.8699998856,239.339996338,4.01999998093,5.22700023651,2.12599992752,1.3370000124
2020/05/26/02:02:26.515433,35874,1590426146,515269672,robotiq_ft_frame_id,-10.8500003815,239.300003052,4.09999990463,5.22499990463,2.125,1.3370000124
2020/05/26/02:02:26.531838,35875,1590426146,531633720,robotiq_ft_frame_id,-10.9099998474,239.350006104,4.17999982834,5.22499990463,2.12599992752,1.33800005913
2020/05/26/02:02:26.548105,35876,1590426146,547948455,robotiq_ft_frame_id,-10.8699998856,239.350006104,4.09999990463,5.22599983215,2.125,1.33899998665
2020/05/26/02:02:26.564484,35877,1590426146,564264747,robotiq_ft_frame_id,-10.8599996567,239.309997559,4.13000011444,5.22599983215,2.12599992752,1.33800005913
2020/05/26/02:02:26.580829,35878,1590426146,580668755,robotiq_ft_frame_id,-10.8299999237,239.399993896,4.05000019073,5.22800016403,2.12599992752,1.33800005913
2020/05/26/02:02:26.597213,35879,1590426146,597034953,robotiq_ft_frame_id,-10.8000001907,239.339996338,4.03999996185,5.22700023651,2.12400007248,1.3370000124
2020/05/26/02:02:26.613630,35880,1590426146,613450940,robotiq_ft_frame_id,-10.779999733,239.240005493,4.13999986649,5.22300004959,2.12400007248,1.33800005913
2020/05/26/02:02:26.630087,35881,1590426146,629786217,robotiq_ft_frame_id,-10.8000001907,239.279998779,4.19999980927,5.22300004959,2.125,1.3370000124
2020/05/26/02:02:26.646461,35882,1590426146,646204443,robotiq_ft_frame_id,-10.8999996185,239.259994507,4.09999990463,5.22399997711,2.12700009346,1.33800005913
2020/05/26/02:02:26.662868,35883,1590426146,662629897,robotiq_ft_frame_id,-10.8800001144,239.259994507,4.09999990463,5.22499990463,2.12700009346,1.3370000124
2020/05/26/02:02:26.675031,35884,1590426146,674908543,robotiq_ft_frame_id,-10.9399995804,239.339996338,4.07000017166,5.22599983215,2.13000011444,1.33800005913
2020/05/26/02:02:26.691515,35885,1590426146,691302401,robotiq_ft_frame_id,-10.8800001144,239.270004272,4.0,5.22499990463,2.12700009346,1.33800005913
2020/05/26/02:02:26.707909,35886,1590426146,707667150,robotiq_ft_frame_id,-10.8400001526,239.289993286,4.01999998093,5.22499990463,2.12700009346,1.33899998665
2020/05/26/02:02:26.724130,35887,1590426146,723975770,robotiq_ft_frame_id,-10.8100004196,239.270004272,4.05999994278,5.22499990463,2.12599992752,1.33800005913
2020/05/26/02:02:26.740457,35888,1590426146,740282045,robotiq_ft_frame_id,-10.8400001526,239.270004272,4.11999988556,5.22599983215,2.12599992752,1.33800005913
2020/05/26/02:02:26.756784,35889,1590426146,756587992,robotiq_ft_frame_id,-10.8800001144,239.279998779,4.05999994278,5.22499990463,2.12700009346,1.33899998665
2020/05/26/02:02:26.773093,35890,1590426146,772893226,robotiq_ft_frame_id,-10.9399995804,239.36000061,4.05000019073,5.22599983215,2.1289999485,1.33800005913
2020/05/26/02:02:26.789490,35891,1590426146,789283371,robotiq_ft_frame_id,-10.9399995804,239.309997559,4.07999992371,5.22499990463,2.12800002098,1.3370000124
2020/05/26/02:02:26.805860,35892,1590426146,805692577,robotiq_ft_frame_id,-10.8100004196,239.36000061,4.07000017166,5.22700023651,2.12599992752,1.33599996567
2020/05/26/02:02:26.822187,35893,1590426146,822052127,robotiq_ft_frame_id,-10.8299999237,239.339996338,4.09000015259,5.22700023651,2.12700009346,1.33800005913
2020/05/26/02:02:26.838594,35894,1590426146,838429758,robotiq_ft_frame_id,-10.8699998856,239.289993286,4.09999990463,5.22599983215,2.12800002098,1.3370000124
2020/05/26/02:02:26.851033,35895,1590426146,850759619,robotiq_ft_frame_id,-10.8800001144,239.369995117,4.07999992371,5.22900009155,2.12700009346,1.33899998665
2020/05/26/02:02:26.867346,35896,1590426146,867168241,robotiq_ft_frame_id,-10.8299999237,239.399993896,4.07000017166,5.22900009155,2.12599992752,1.33899998665
2020/05/26/02:02:26.883732,35897,1590426146,883573903,robotiq_ft_frame_id,-10.8299999237,239.339996338,4.15999984741,5.22499990463,2.125,1.33800005913
2020/05/26/02:02:26.900190,35898,1590426146,900003414,robotiq_ft_frame_id,-10.8699998856,239.369995117,4.15000009537,5.22700023651,2.125,1.33899998665
2020/05/26/02:02:26.916662,35899,1590426146,916405623,robotiq_ft_frame_id,-10.8500003815,239.320007324,4.11999988556,5.22599983215,2.12700009346,1.3370000124
2020/05/26/02:02:26.932937,35900,1590426146,932760779,robotiq_ft_frame_id,-10.8100004196,239.330001831,4.13999986649,5.22800016403,2.12599992752,1.33899998665
2020/05/26/02:02:26.949316,35901,1590426146,949141301,robotiq_ft_frame_id,-10.8199996948,239.300003052,4.13000011444,5.22700023651,2.125,1.33899998665
2020/05/26/02:02:26.965715,35902,1590426146,965479852,robotiq_ft_frame_id,-10.8000001907,239.270004272,4.05999994278,5.22700023651,2.12400007248,1.3370000124
2020/05/26/02:02:26.982055,35903,1590426146,981871071,robotiq_ft_frame_id,-10.7700004578,239.229995728,4.07000017166,5.22499990463,2.12400007248,1.3370000124
2020/05/26/02:02:26.994414,35904,1590426146,994216297,robotiq_ft_frame_id,-10.8299999237,239.279998779,4.11999988556,5.22599983215,2.125,1.33599996567
2020/05/26/02:02:27.010761,35905,1590426147,10572013,robotiq_ft_frame_id,-10.8999996185,239.36000061,4.11999988556,5.22800016403,2.12800002098,1.3370000124
2020/05/26/02:02:27.027158,35906,1590426147,26962508,robotiq_ft_frame_id,-10.8400001526,239.399993896,4.09999990463,5.22900009155,2.12700009346,1.33899998665
2020/05/26/02:02:27.043599,35907,1590426147,43382391,robotiq_ft_frame_id,-10.7600002289,239.330001831,4.15999984741,5.22800016403,2.12299990654,1.33899998665
2020/05/26/02:02:27.060011,35908,1590426147,59799429,robotiq_ft_frame_id,-10.75,239.289993286,4.15999984741,5.22499990463,2.12400007248,1.33800005913
2020/05/26/02:02:27.076306,35909,1590426147,76130437,robotiq_ft_frame_id,-10.8000001907,239.25,4.13000011444,5.22300004959,2.12599992752,1.33800005913
2020/05/26/02:02:27.092698,35910,1590426147,92490033,robotiq_ft_frame_id,-10.8699998856,239.36000061,4.15000009537,5.22599983215,2.125,1.33800005913
2020/05/26/02:02:27.109176,35911,1590426147,108928686,robotiq_ft_frame_id,-10.8699998856,239.36000061,4.09000015259,5.22599983215,2.125,1.33800005913
2020/05/26/02:02:27.125576,35912,1590426147,125368557,robotiq_ft_frame_id,-10.8699998856,239.300003052,4.07000017166,5.22499990463,2.12800002098,1.3370000124
2020/05/26/02:02:27.141960,35913,1590426147,141745295,robotiq_ft_frame_id,-10.8599996567,239.289993286,4.13000011444,5.22499990463,2.12700009346,1.33599996567
2020/05/26/02:02:27.154230,35914,1590426147,154059679,robotiq_ft_frame_id,-10.7600002289,239.179992676,4.32999992371,5.22300004959,2.11899995804,1.3370000124
2020/05/26/02:02:27.170657,35915,1590426147,170466276,robotiq_ft_frame_id,-10.7700004578,239.210006714,4.25,5.22200012207,2.1210000515,1.33899998665
2020/05/26/02:02:27.187085,35916,1590426147,186885317,robotiq_ft_frame_id,-10.779999733,239.25,4.13999986649,5.22499990463,2.12400007248,1.33899998665
2020/05/26/02:02:27.203429,35917,1590426147,203283810,robotiq_ft_frame_id,-10.8599996567,239.309997559,4.03999996185,5.22499990463,2.12700009346,1.3370000124
2020/05/26/02:02:27.219742,35918,1590426147,219591699,robotiq_ft_frame_id,-10.8500003815,239.289993286,4.05999994278,5.22599983215,2.12700009346,1.33599996567
2020/05/26/02:02:27.236108,35919,1590426147,235916444,robotiq_ft_frame_id,-10.8299999237,239.259994507,4.11000013351,5.22300004959,2.12800002098,1.33599996567
2020/05/26/02:02:27.252427,35920,1590426147,252252047,robotiq_ft_frame_id,-10.8100004196,239.270004272,4.13999986649,5.22300004959,2.12599992752,1.3370000124
2020/05/26/02:02:27.268764,35921,1590426147,268575329,robotiq_ft_frame_id,-10.8199996948,239.270004272,4.03999996185,5.22399997711,2.12700009346,1.33800005913
2020/05/26/02:02:27.285040,35922,1590426147,284892571,robotiq_ft_frame_id,-10.8599996567,239.320007324,4.03000020981,5.22599983215,2.12800002098,1.3370000124
2020/05/26/02:02:27.301565,35923,1590426147,301253196,robotiq_ft_frame_id,-10.8599996567,239.309997559,4.07000017166,5.22599983215,2.12700009346,1.33899998665
2020/05/26/02:02:27.317853,35924,1590426147,317627251,robotiq_ft_frame_id,-10.8800001144,239.309997559,4.05000019073,5.22599983215,2.1289999485,1.33899998665
2020/05/26/02:02:27.330041,35925,1590426147,329880396,robotiq_ft_frame_id,-10.8599996567,239.320007324,4.07999992371,5.22599983215,2.12800002098,1.33800005913
2020/05/26/02:02:27.346436,35926,1590426147,346271079,robotiq_ft_frame_id,-10.8299999237,239.380004883,4.13999986649,5.22300004959,2.12400007248,1.33800005913
2020/05/26/02:02:27.362864,35927,1590426147,362677187,robotiq_ft_frame_id,-10.8900003433,239.490005493,4.05999994278,5.23099994659,2.12700009346,1.33800005913
2020/05/26/02:02:27.379245,35928,1590426147,378988020,robotiq_ft_frame_id,-10.8299999237,239.399993896,4.05000019073,5.22700023651,2.12700009346,1.33899998665
2020/05/26/02:02:27.395543,35929,1590426147,395358859,robotiq_ft_frame_id,-10.8500003815,239.429992676,4.03999996185,5.23000001907,2.12599992752,1.3370000124
2020/05/26/02:02:27.411868,35930,1590426147,411702351,robotiq_ft_frame_id,-10.8500003815,239.429992676,4.03999996185,5.23000001907,2.12599992752,1.33599996567
2020/05/26/02:02:27.428237,35931,1590426147,428060308,robotiq_ft_frame_id,-10.8299999237,239.190002441,4.09999990463,5.22300004959,2.12599992752,1.3370000124
2020/05/26/02:02:27.444616,35932,1590426147,444390211,robotiq_ft_frame_id,-10.8199996948,239.279998779,4.17000007629,5.22700023651,2.12400007248,1.33599996567
2020/05/26/02:02:27.460852,35933,1590426147,460749043,robotiq_ft_frame_id,-10.8699998856,239.350006104,4.19999980927,5.22800016403,2.125,1.3370000124
2020/05/26/02:02:27.477274,35934,1590426147,477109388,robotiq_ft_frame_id,-10.8000001907,239.25,4.05000019073,5.22399997711,2.125,1.33800005913
2020/05/26/02:02:27.489631,35935,1590426147,489457175,robotiq_ft_frame_id,-10.7899999619,239.229995728,4.11000013351,5.22399997711,2.125,1.3370000124
2020/05/26/02:02:27.506053,35936,1590426147,505828916,robotiq_ft_frame_id,-10.7700004578,239.220001221,4.07000017166,5.22499990463,2.12400007248,1.3370000124
2020/05/26/02:02:27.522499,35937,1590426147,522244226,robotiq_ft_frame_id,-10.8299999237,239.339996338,4.09000015259,5.22800016403,2.12800002098,1.33899998665
2020/05/26/02:02:27.538809,35938,1590426147,538668964,robotiq_ft_frame_id,-10.8299999237,239.369995117,4.03999996185,5.22800016403,2.1289999485,1.33599996567
2020/05/26/02:02:27.555137,35939,1590426147,555003396,robotiq_ft_frame_id,-10.8199996948,239.330001831,4.17999982834,5.22399997711,2.12400007248,1.33500003815
2020/05/26/02:02:27.571519,35940,1590426147,571353185,robotiq_ft_frame_id,-10.8800001144,239.259994507,4.11000013351,5.22399997711,2.12599992752,1.3370000124
2020/05/26/02:02:27.587963,35941,1590426147,587772785,robotiq_ft_frame_id,-10.7700004578,239.279998779,4.01000022888,5.22599983215,2.12599992752,1.3370000124
2020/05/26/02:02:27.604290,35942,1590426147,604109843,robotiq_ft_frame_id,-10.8199996948,239.300003052,4.03999996185,5.22599983215,2.125,1.33500003815
2020/05/26/02:02:27.620517,35943,1590426147,620391081,robotiq_ft_frame_id,-10.8599996567,239.320007324,3.99000000954,5.22499990463,2.12700009346,1.33599996567
2020/05/26/02:02:27.636923,35944,1590426147,636693405,robotiq_ft_frame_id,-10.8400001526,239.320007324,4.07999992371,5.22499990463,2.12599992752,1.33599996567
2020/05/26/02:02:27.653255,35945,1590426147,653009121,robotiq_ft_frame_id,-10.8299999237,239.330001831,4.11999988556,5.22499990463,2.125,1.33599996567
2020/05/26/02:02:27.665406,35946,1590426147,665231907,robotiq_ft_frame_id,-10.8400001526,239.289993286,4.07999992371,5.22700023651,2.12599992752,1.33500003815
2020/05/26/02:02:27.681690,35947,1590426147,681549888,robotiq_ft_frame_id,-10.8000001907,239.369995117,4.01000022888,5.22700023651,2.125,1.33599996567
2020/05/26/02:02:27.698152,35948,1590426147,697922175,robotiq_ft_frame_id,-10.8100004196,239.380004883,4.01000022888,5.22599983215,2.12700009346,1.33800005913
2020/05/26/02:02:27.714508,35949,1590426147,714301049,robotiq_ft_frame_id,-10.7399997711,239.339996338,4.03999996185,5.22399997711,2.12400007248,1.3370000124
2020/05/26/02:02:27.730865,35950,1590426147,730606322,robotiq_ft_frame_id,-10.8100004196,239.259994507,4.05000019073,5.22399997711,2.12700009346,1.33599996567
2020/05/26/02:02:27.747279,35951,1590426147,746983005,robotiq_ft_frame_id,-10.8699998856,239.320007324,4.0,5.22499990463,2.12800002098,1.3370000124
2020/05/26/02:02:27.763540,35952,1590426147,763332974,robotiq_ft_frame_id,-10.9200000763,239.36000061,4.09000015259,5.22900009155,2.1289999485,1.3370000124
2020/05/26/02:02:27.779954,35953,1590426147,779688634,robotiq_ft_frame_id,-10.8800001144,239.320007324,4.03999996185,5.22700023651,2.1289999485,1.3370000124
2020/05/26/02:02:27.796163,35954,1590426147,796051000,robotiq_ft_frame_id,-10.7899999619,239.380004883,4.07000017166,5.22700023651,2.125,1.33599996567
2020/05/26/02:02:27.812564,35955,1590426147,812396603,robotiq_ft_frame_id,-10.8400001526,239.320007324,4.11999988556,5.22599983215,2.12700009346,1.33599996567
2020/05/26/02:02:27.828848,35956,1590426147,828698916,robotiq_ft_frame_id,-10.8699998856,239.309997559,4.05999994278,5.22499990463,2.12800002098,1.3370000124
2020/05/26/02:02:27.845164,35957,1590426147,845000181,robotiq_ft_frame_id,-10.8999996185,239.380004883,4.09000015259,5.22700023651,2.12700009346,1.33500003815
2020/05/26/02:02:27.857454,35958,1590426147,857292454,robotiq_ft_frame_id,-10.8999996185,239.36000061,4.13999986649,5.22800016403,2.12700009346,1.33800005913
2020/05/26/02:02:27.873786,35959,1590426147,873643042,robotiq_ft_frame_id,-10.8699998856,239.300003052,4.05000019073,5.22700023651,2.12700009346,1.3370000124
2020/05/26/02:02:27.890052,35960,1590426147,889943235,robotiq_ft_frame_id,-10.8000001907,239.36000061,4.07000017166,5.22700023651,2.12599992752,1.3370000124
2020/05/26/02:02:27.906446,35961,1590426147,906294586,robotiq_ft_frame_id,-10.8500003815,239.320007324,4.19999980927,5.22399997711,2.12700009346,1.33800005913
2020/05/26/02:02:27.922867,35962,1590426147,922658146,robotiq_ft_frame_id,-10.8400001526,239.309997559,4.15000009537,5.22499990463,2.12599992752,1.33800005913
2020/05/26/02:02:27.939137,35963,1590426147,938997597,robotiq_ft_frame_id,-10.8400001526,239.309997559,4.11999988556,5.22499990463,2.12599992752,1.3370000124
2020/05/26/02:02:27.955491,35964,1590426147,955308242,robotiq_ft_frame_id,-10.8500003815,239.289993286,4.07000017166,5.22499990463,2.12700009346,1.34000003338
2020/05/26/02:02:27.971847,35965,1590426147,971676496,robotiq_ft_frame_id,-10.9099998474,239.229995728,4.11000013351,5.22499990463,2.1289999485,1.33899998665
2020/05/26/02:02:27.988241,35966,1590426147,987978933,robotiq_ft_frame_id,-10.8100004196,239.350006104,4.03999996185,5.22599983215,2.12599992752,1.33599996567
2020/05/26/02:02:28.004505,35967,1590426148,4302813,robotiq_ft_frame_id,-10.7100000381,239.309997559,4.09999990463,5.22499990463,2.12199997902,1.33800005913
2020/05/26/02:02:28.020833,35968,1590426148,20651327,robotiq_ft_frame_id,-10.779999733,239.38999939,4.09000015259,5.22499990463,2.125,1.3370000124
2020/05/26/02:02:28.033109,35969,1590426148,32929762,robotiq_ft_frame_id,-10.8900003433,239.300003052,4.05999994278,5.22599983215,2.13000011444,1.33599996567
2020/05/26/02:02:28.049472,35970,1590426148,49263698,robotiq_ft_frame_id,-10.9099998474,239.259994507,4.05000019073,5.22399997711,2.1289999485,1.3370000124
2020/05/26/02:02:28.065740,35971,1590426148,65563813,robotiq_ft_frame_id,-10.7399997711,239.270004272,4.05999994278,5.22599983215,2.12299990654,1.33800005913
2020/05/26/02:02:28.082111,35972,1590426148,81902030,robotiq_ft_frame_id,-10.8800001144,239.259994507,4.01999998093,5.22499990463,2.12700009346,1.3370000124
2020/05/26/02:02:28.098396,35973,1590426148,98241591,robotiq_ft_frame_id,-10.8400001526,239.169998169,4.01000022888,5.22399997711,2.125,1.33800005913
2020/05/26/02:02:28.114672,35974,1590426148,114529545,robotiq_ft_frame_id,-10.8900003433,239.259994507,4.15000009537,5.22300004959,2.12599992752,1.33899998665
2020/05/26/02:02:28.131067,35975,1590426148,130846848,robotiq_ft_frame_id,-10.9099998474,239.229995728,4.05000019073,5.21899986267,2.125,1.33899998665
2020/05/26/02:02:28.147375,35976,1590426148,147231482,robotiq_ft_frame_id,-11.7600002289,239.229995728,3.95000004768,5.19899988174,2.03800010681,1.33500003815
2020/05/26/02:02:28.163716,35977,1590426148,163523795,robotiq_ft_frame_id,-11.3599996567,240.089996338,4.03000020981,5.28499984741,2.08100008965,1.33899998665
2020/05/26/02:02:28.180088,35978,1590426148,179858559,robotiq_ft_frame_id,-10.8599996567,239.179992676,4.09000015259,5.21700000763,2.132999897,1.33800005913
2020/05/26/02:02:28.196369,35979,1590426148,196230875,robotiq_ft_frame_id,-11.0600004196,239.479995728,4.21999979019,5.22900009155,2.11500000954,1.33899998665
2020/05/26/02:02:28.208653,35980,1590426148,208505821,robotiq_ft_frame_id,-11.2700004578,239.179992676,4.19000005722,5.20100021362,2.09200000763,1.33800005913
2020/05/26/02:02:28.225045,35981,1590426148,224886298,robotiq_ft_frame_id,-11.5600004196,239.449996948,3.95000004768,5.23799991608,2.06599998474,1.33899998665
2020/05/26/02:02:28.241413,35982,1590426148,241216655,robotiq_ft_frame_id,-11.4799995422,239.229995728,3.91000008583,5.22499990463,2.07299995422,1.34000003338
2020/05/26/02:02:28.257747,35983,1590426148,257530935,robotiq_ft_frame_id,-11.5100002289,239.589996338,4.17000007629,5.23999977112,2.08599996567,1.33899998665
2020/05/26/02:02:28.274005,35984,1590426148,273833431,robotiq_ft_frame_id,-11.5399999619,239.070007324,4.25,5.19000005722,2.05399990082,1.3370000124
2020/05/26/02:02:28.290246,35985,1590426148,290104311,robotiq_ft_frame_id,-11.4099998474,239.429992676,4.13000011444,5.23699998856,2.08899998665,1.33899998665
2020/05/26/02:02:28.306645,35986,1590426148,306421168,robotiq_ft_frame_id,-11.3599996567,238.940002441,4.28000020981,5.20599985123,2.08999991417,1.3409999609
2020/05/26/02:02:28.322924,35987,1590426148,322713114,robotiq_ft_frame_id,-11.5900001526,239.350006104,4.23000001907,5.23199987411,2.07500004768,1.34000003338
2020/05/26/02:02:28.339183,35988,1590426148,339014206,robotiq_ft_frame_id,-11.4499998093,239.470001221,4.30000019073,5.23400020599,2.10299992561,1.33899998665
2020/05/26/02:02:28.355600,35989,1590426148,355369500,robotiq_ft_frame_id,-10.8599996567,239.309997559,4.36000013351,5.21799993515,2.13000011444,1.3409999609
2020/05/26/02:02:28.372010,35990,1590426148,371752724,robotiq_ft_frame_id,-10.9200000763,239.100006104,4.53000020981,5.21199989319,2.13700008392,1.34000003338
2020/05/26/02:02:28.388248,35991,1590426148,388046339,robotiq_ft_frame_id,-11.3100004196,238.949996948,4.42999982834,5.20800018311,2.08999991417,1.3409999609
2020/05/26/02:02:28.400467,35992,1590426148,400282461,robotiq_ft_frame_id,-11.6300001144,239.380004883,4.38999986649,5.23600006104,2.06999993324,1.34200000763
2020/05/26/02:02:28.416862,35993,1590426148,416669409,robotiq_ft_frame_id,-11.7899999619,239.160003662,4.38000011444,5.21500015259,2.05200004578,1.34200000763
2020/05/26/02:02:28.433330,35994,1590426148,433110787,robotiq_ft_frame_id,-11.5,239.029998779,4.55000019073,5.21400022507,2.0529999733,1.34500002861
2020/05/26/02:02:28.449725,35995,1590426148,449514229,robotiq_ft_frame_id,-11.2700004578,239.559997559,4.63000011444,5.27699995041,2.09800004959,1.34700000286
2020/05/26/02:02:28.466034,35996,1590426148,465900911,robotiq_ft_frame_id,-10.1000003815,239.669998169,4.84999990463,5.26300001144,2.2009999752,1.34800004959
2020/05/26/02:02:28.482341,35997,1590426148,482169096,robotiq_ft_frame_id,-9.93000030518,239.479995728,4.86999988556,5.22399997711,2.2460000515,1.34399998188
2020/05/26/02:02:28.498646,35998,1590426148,498469271,robotiq_ft_frame_id,-11.4799995422,240.009994507,4.98999977112,5.30100011826,2.06599998474,1.34500002861
2020/05/26/02:02:28.514937,35999,1590426148,514763625,robotiq_ft_frame_id,-12.5900001526,238.490005493,4.73000001907,5.18699979782,1.96800005436,1.34200000763
2020/05/26/02:02:28.531330,36000,1590426148,531140178,robotiq_ft_frame_id,-11.8999996185,239.86000061,4.73999977112,5.29699993134,2.03500008583,1.34300005436
2020/05/26/02:02:28.547695,36001,1590426148,547545747,robotiq_ft_frame_id,-10.9200000763,239.649993896,5.11000013351,5.23600006104,2.1400001049,1.34700000286
2020/05/26/02:02:28.560021,36002,1590426148,559808233,robotiq_ft_frame_id,-10.720000267,239.550003052,5.34999990463,5.22800016403,2.15000009537,1.34599995613
2020/05/26/02:02:28.576265,36003,1590426148,576104767,robotiq_ft_frame_id,-10.1199998856,238.949996948,5.42000007629,5.20100021362,2.21399998665,1.34500002861
2020/05/26/02:02:28.592705,36004,1590426148,592481897,robotiq_ft_frame_id,-11.029999733,240.259994507,5.32999992371,5.33799982071,2.14599990845,1.34800004959
2020/05/26/02:02:28.609031,36005,1590426148,608818236,robotiq_ft_frame_id,-12.0799999237,238.570007324,5.11999988556,5.18800020218,2.01999998093,1.34399998188
2020/05/26/02:02:28.625433,36006,1590426148,625253626,robotiq_ft_frame_id,-12.2100000381,240.029998779,5.36999988556,5.29699993134,1.99000000954,1.34700000286
2020/05/26/02:02:28.641834,36007,1590426148,641610777,robotiq_ft_frame_id,-11.3000001907,238.169998169,5.28999996185,5.14400005341,2.08800005913,1.34599995613
2020/05/26/02:02:28.658149,36008,1590426148,658004184,robotiq_ft_frame_id,-9.39999961853,238.679992676,5.73999977112,5.19299983978,2.29500007629,1.34899997711
2020/05/26/02:02:28.674518,36009,1590426148,674342040,robotiq_ft_frame_id,-10.8400001526,240.539993286,6.13999986649,5.35500001907,2.16499996185,1.35399997234
2020/05/26/02:02:28.690915,36010,1590426148,690688729,robotiq_ft_frame_id,-12.1800003052,238.550003052,5.92999982834,5.17399978638,2.00300002098,1.35000002384
2020/05/26/02:02:28.707189,36011,1590426148,707014039,robotiq_ft_frame_id,-12.6899995804,240.070007324,5.34999990463,5.32100009918,1.97099995613,1.34800004959
2020/05/26/02:02:28.723556,36012,1590426148,723316804,robotiq_ft_frame_id,-12.0600004196,238.759994507,5.40999984741,5.22300004959,2.04399991035,1.34800004959
2020/05/26/02:02:28.735755,36013,1590426148,735579897,robotiq_ft_frame_id,-10.9099998474,238.429992676,6.19000005722,5.17399978638,2.16300010681,1.35000002384
2020/05/26/02:02:28.752118,36014,1590426148,751906012,robotiq_ft_frame_id,-9.80000019073,240.199996948,6.34000015259,5.26700019836,2.27800011635,1.35099995136
2020/05/26/02:02:28.768466,36015,1590426148,768229490,robotiq_ft_frame_id,-10.9200000763,238.0,6.17000007629,5.08799982071,2.1819999218,1.34700000286
2020/05/26/02:02:28.784836,36016,1590426148,784611655,robotiq_ft_frame_id,-13.5799999237,238.919998169,5.94000005722,5.24399995804,1.88900005817,1.35399997234
2020/05/26/02:02:28.801198,36017,1590426148,801017070,robotiq_ft_frame_id,-13.3299999237,237.630004883,5.69999980927,5.17500019073,1.87800002098,1.35099995136
2020/05/26/02:02:28.817619,36018,1590426148,817435095,robotiq_ft_frame_id,-10.4499998093,236.789993286,6.15000009537,5.07399988174,2.2650001049,1.35199999809
2020/05/26/02:02:28.834064,36019,1590426148,833878237,robotiq_ft_frame_id,-9.59000015259,241.869995117,7.21999979019,5.40100002289,2.30500006676,1.35800004005
2020/05/26/02:02:28.850576,36020,1590426148,850346452,robotiq_ft_frame_id,-12.1700000763,237.830001831,6.94999980927,5.05900001526,2.04099988937,1.35000002384
2020/05/26/02:02:28.866865,36021,1590426148,866747116,robotiq_ft_frame_id,-13.8800001144,240.190002441,6.09999990463,5.382999897,1.85099995136,1.35500001907
2020/05/26/02:02:28.883313,36022,1590426148,883139043,robotiq_ft_frame_id,-12.5500001907,237.199996948,5.86999988556,5.17700004578,1.99000000954,1.35599994659
2020/05/26/02:02:28.895620,36023,1590426148,895451993,robotiq_ft_frame_id,-9.52000045776,239.38999939,6.92999982834,5.25199985504,2.36899995804,1.35800004005
2020/05/26/02:02:28.912091,36024,1590426148,911856511,robotiq_ft_frame_id,-11.3100004196,240.979995728,7.59000015259,5.29400014877,2.09599995613,1.35399997234
2020/05/26/02:02:28.928398,36025,1590426148,928224357,robotiq_ft_frame_id,-13.029999733,239.309997559,7.28000020981,5.19000005722,1.96700000763,1.35000002384
2020/05/26/02:02:28.944777,36026,1590426148,944598821,robotiq_ft_frame_id,-12.0399999619,239.990005493,6.46000003815,5.39599990845,2.03699994087,1.36000001431
2020/05/26/02:02:28.961248,36027,1590426148,961016104,robotiq_ft_frame_id,-10.5200004578,236.919998169,6.34000015259,5.15600013733,2.23900008202,1.35699999332
2020/05/26/02:02:28.977699,36028,1590426148,977428221,robotiq_ft_frame_id,-10.6800003052,241.479995728,7.92999982834,5.41200017929,2.24099993706,1.36399996281
2020/05/26/02:02:28.993995,36029,1590426148,993845625,robotiq_ft_frame_id,-12.3800001144,238.940002441,7.94999980927,5.11999988556,1.98800003529,1.35500001907
2020/05/26/02:02:29.010386,36030,1590426149,10224792,robotiq_ft_frame_id,-13.0399999619,240.710006714,7.11000013351,5.35200023651,1.99199998379,1.35899996758
2020/05/26/02:02:29.026803,36031,1590426149,26610877,robotiq_ft_frame_id,-9.76000022888,238.830001831,7.28000020981,5.33300018311,2.24000000954,1.36099994183
2020/05/26/02:02:29.043168,36032,1590426149,42997953,robotiq_ft_frame_id,-10.0200004578,239.449996948,7.75,5.34000015259,2.31299996376,1.36699998379
2020/05/26/02:02:29.055545,36033,1590426149,55317054,robotiq_ft_frame_id,-12.6899995804,240.630004883,8.07999992371,5.30000019073,2.01699995995,1.35599994659
2020/05/26/02:02:29.071868,36034,1590426149,71702650,robotiq_ft_frame_id,-13.5900001526,240.050003052,7.80000019073,5.20300006866,1.88100004196,1.35800004005
2020/05/26/02:02:29.088227,36035,1590426149,88034094,robotiq_ft_frame_id,-11.25,240.770004272,7.76999998093,5.42600011826,2.16100001335,1.36300003529
2020/05/26/02:02:29.104668,36036,1590426149,104422477,robotiq_ft_frame_id,-9.11999988556,236.880004883,8.05000019073,5.1139998436,2.30999994278,1.36000001431
2020/05/26/02:02:29.121134,36037,1590426149,120880430,robotiq_ft_frame_id,-11.4300003052,241.419998169,8.40999984741,5.43499994278,2.11800003052,1.3789999485
2020/05/26/02:02:29.137438,36038,1590426149,137282940,robotiq_ft_frame_id,-14.4499998093,238.809997559,7.73999977112,5.20599985123,1.82000005245,1.34599995613
2020/05/26/02:02:29.153801,36039,1590426149,153600996,robotiq_ft_frame_id,-13.1700000763,241.289993286,7.51999998093,5.36800003052,1.88300001621,1.36199998856
2020/05/26/02:02:29.170168,36040,1590426149,169987276,robotiq_ft_frame_id,-9.43999958038,239.169998169,8.40999984741,5.29600000381,2.31999993324,1.35500001907
2020/05/26/02:02:29.186649,36041,1590426149,186434218,robotiq_ft_frame_id,-11.0200004578,237.130004883,8.59000015259,5.05399990082,2.16799998283,1.36500000954
2020/05/26/02:02:29.198967,36042,1590426149,198777127,robotiq_ft_frame_id,-12.9200000763,240.699996948,8.22000026703,5.34499979019,1.89900004864,1.36399996281
2020/05/26/02:02:29.215338,36043,1590426149,215150996,robotiq_ft_frame_id,-14.2100000381,237.229995728,7.88999986649,5.09600019455,1.82400000095,1.36300003529
2020/05/26/02:02:29.231637,36044,1590426149,231505285,robotiq_ft_frame_id,-11.9200000763,241.649993896,8.64000034332,5.49800014496,2.1210000515,1.37999999523
2020/05/26/02:02:29.247998,36045,1590426149,247822138,robotiq_ft_frame_id,-8.76000022888,236.979995728,9.14000034332,5.05499982834,2.36999988556,1.36199998856
2020/05/26/02:02:29.264344,36046,1590426149,264172432,robotiq_ft_frame_id,-14.1000003815,238.710006714,8.5,5.16300010681,1.86199998856,1.35399997234
2020/05/26/02:02:29.280686,36047,1590426149,280525137,robotiq_ft_frame_id,-15.3900003433,238.5,8.15999984741,5.16499996185,1.72099995613,1.36399996281
2020/05/26/02:02:29.297005,36048,1590426149,296825702,robotiq_ft_frame_id,-12.1999998093,236.580001831,8.56000041962,5.13199996948,2.03399991989,1.35500001907
2020/05/26/02:02:29.313432,36049,1590426149,313186650,robotiq_ft_frame_id,-9.22999954224,239.259994507,9.02000045776,5.33799982071,2.25500011444,1.36800003052
2020/05/26/02:02:29.329799,36050,1590426149,329636696,robotiq_ft_frame_id,-11.1999998093,237.210006714,9.31999969482,5.02899980545,2.23699998856,1.36800003052
2020/05/26/02:02:29.346091,36051,1590426149,345940935,robotiq_ft_frame_id,-15.0799999237,239.509994507,8.31999969482,5.28599977493,1.69000005722,1.35399997234
2020/05/26/02:02:29.362448,36052,1590426149,362273219,robotiq_ft_frame_id,-14.6899995804,236.559997559,8.31999969482,5.05900001526,1.74100005627,1.36899995804
2020/05/26/02:02:29.374825,36053,1590426149,374575532,robotiq_ft_frame_id,-10.2399997711,238.25,9.36999988556,5.24800014496,2.40499997139,1.36300003529
2020/05/26/02:02:29.391147,36054,1590426149,390980643,robotiq_ft_frame_id,-9.18000030518,237.039993286,9.63000011444,5.01700019836,2.35800004005,1.36600005627
2020/05/26/02:02:29.407521,36055,1590426149,407330374,robotiq_ft_frame_id,-14.8100004196,238.080001831,9.47000026703,5.15199995041,1.83899998665,1.36099994183
2020/05/26/02:02:29.423844,36056,1590426149,423689116,robotiq_ft_frame_id,-14.9600000381,240.600006104,8.98999977112,5.41800022125,1.78199994564,1.38600003719
2020/05/26/02:02:29.440335,36057,1590426149,440068778,robotiq_ft_frame_id,-12.2100000381,236.710006714,8.92000007629,5.13100004196,1.99899995327,1.36300003529
2020/05/26/02:02:29.456589,36058,1590426149,456450531,robotiq_ft_frame_id,-9.94999980927,241.11000061,10.1999998093,5.37300014496,2.36299991608,1.38399994373
2020/05/26/02:02:29.472912,36059,1590426149,472759625,robotiq_ft_frame_id,-12.1800003052,237.5,9.93999958038,5.03700017929,2.19099998474,1.37999999523
2020/05/26/02:02:29.489287,36060,1590426149,489100908,robotiq_ft_frame_id,-14.9799995422,240.009994507,8.97999954224,5.32700014114,1.65600001812,1.35599994659
2020/05/26/02:02:29.505747,36061,1590426149,505500799,robotiq_ft_frame_id,-12.4600000381,240.820007324,9.69999980927,5.45800018311,2.04800009727,1.37600004673
2020/05/26/02:02:29.522195,36062,1590426149,521957429,robotiq_ft_frame_id,-10.7899999619,238.630004883,10.0200004578,5.25299978256,2.35199999809,1.36800003052
2020/05/26/02:02:29.534476,36063,1590426149,534279865,robotiq_ft_frame_id,-11.5699996948,241.550003052,10.1700000763,5.35699987411,2.02500009537,1.38800001144
2020/05/26/02:02:29.550803,36064,1590426149,550644640,robotiq_ft_frame_id,-15.1000003815,237.809997559,9.90999984741,5.15500020981,1.79799997807,1.36500000954
2020/05/26/02:02:29.567189,36065,1590426149,567005997,robotiq_ft_frame_id,-15.0799999237,240.5,9.64999961853,5.41400003433,1.77699995041,1.38699996471
2020/05/26/02:02:29.583635,36066,1590426149,583416889,robotiq_ft_frame_id,-10.1400003433,239.220001221,10.029999733,5.29699993134,2.18799996376,1.3710000515
2020/05/26/02:02:29.600007,36067,1590426149,599811892,robotiq_ft_frame_id,-10.4099998474,240.940002441,10.470000267,5.3639998436,2.27099990845,1.38800001144
2020/05/26/02:02:29.616310,36068,1590426149,616098857,robotiq_ft_frame_id,-14.3100004196,240.410003662,9.78999996185,5.35599994659,1.8370000124,1.36600005627
2020/05/26/02:02:29.632580,36069,1590426149,632393297,robotiq_ft_frame_id,-15.4200000763,239.919998169,9.52000045776,5.30000019073,1.64900004864,1.36000001431
2020/05/26/02:02:29.648815,36070,1590426149,648670348,robotiq_ft_frame_id,-12.8599996567,240.800003052,10.4399995804,5.4439997673,2.00699996948,1.37800002098
2020/05/26/02:02:29.665206,36071,1590426149,665002643,robotiq_ft_frame_id,-10.6800003052,236.990005493,10.6099996567,4.98999977112,2.27699995041,1.37999999523
2020/05/26/02:02:29.681611,36072,1590426149,681410913,robotiq_ft_frame_id,-12.2100000381,241.509994507,10.4899997711,5.37099981308,1.98000001907,1.38800001144
2020/05/26/02:02:29.697943,36073,1590426149,697788237,robotiq_ft_frame_id,-16.7199993134,237.520004272,9.98999977112,5.22900009155,1.62600004673,1.36300003529
2020/05/26/02:02:29.710324,36074,1590426149,710120467,robotiq_ft_frame_id,-15.1400003433,240.600006104,10.1700000763,5.44000005722,1.68200004101,1.37999999523
2020/05/26/02:02:29.726660,36075,1590426149,726492718,robotiq_ft_frame_id,-10.9399995804,239.839996338,10.9799995422,5.28200006485,2.18700003624,1.3789999485
2020/05/26/02:02:29.743054,36076,1590426149,742880672,robotiq_ft_frame_id,-12.720000267,237.880004883,10.8199996948,5.07600021362,2.09800004959,1.38399994373
2020/05/26/02:02:29.759363,36077,1590426149,759198436,robotiq_ft_frame_id,-14.529999733,239.979995728,10.3400001526,5.30999994278,1.78600001335,1.3789999485
2020/05/26/02:02:29.775784,36078,1590426149,775561892,robotiq_ft_frame_id,-16.0799999237,237.160003662,10.25,5.16300010681,1.68400001526,1.36899995804
2020/05/26/02:02:29.792186,36079,1590426149,791985638,robotiq_ft_frame_id,-13.4499998093,240.75,10.7299995422,5.40399980545,1.88100004196,1.38499999046
2020/05/26/02:02:29.808495,36080,1590426149,808334557,robotiq_ft_frame_id,-11.1099996567,237.119995117,11.3000001907,5.03599977493,2.26399993896,1.38199996948
2020/05/26/02:02:29.824842,36081,1590426149,824643923,robotiq_ft_frame_id,-12.6800003052,240.820007324,11.3000001907,5.37599992752,2.05200004578,1.38900005817
2020/05/26/02:02:29.841317,36082,1590426149,841035975,robotiq_ft_frame_id,-17.0699996948,237.210006714,10.1599998474,5.1810002327,1.54100000858,1.37800002098
2020/05/26/02:02:29.857555,36083,1590426149,857411536,robotiq_ft_frame_id,-14.6099996567,237.779998779,11.0100002289,5.14699983597,1.89400005341,1.38499999046
2020/05/26/02:02:29.873873,36084,1590426149,873707940,robotiq_ft_frame_id,-12.3299999237,239.86000061,11.4899997711,5.242000103,2.14100003242,1.39999997616
2020/05/26/02:02:29.886067,36085,1590426149,885939091,robotiq_ft_frame_id,-12.4399995804,237.869995117,11.1499996185,5.12400007248,2.02399992943,1.37199997902
2020/05/26/02:02:29.902566,36086,1590426149,902347734,robotiq_ft_frame_id,-14.8500003815,240.25,11.0600004196,5.32100009918,1.79499995708,1.38900005817
2020/05/26/02:02:29.918939,36087,1590426149,918742717,robotiq_ft_frame_id,-16.4099998474,237.520004272,10.7299995422,5.17999982834,1.62000000477,1.3710000515
2020/05/26/02:02:29.935258,36088,1590426149,935107350,robotiq_ft_frame_id,-12.3500003815,238.630004883,11.4099998474,5.14400005341,2.04299998283,1.39699995518
2020/05/26/02:02:29.951658,36089,1590426149,951465546,robotiq_ft_frame_id,-12.220000267,237.419998169,11.8500003815,5.07399988174,2.22399997711,1.39100003242
2020/05/26/02:02:29.968134,36090,1590426149,967875792,robotiq_ft_frame_id,-15.720000267,237.570007324,11.2700004578,5.11999988556,1.73800003529,1.39199995995
2020/05/26/02:02:29.984441,36091,1590426149,984208895,robotiq_ft_frame_id,-17.1800003052,238.009994507,10.6999998093,5.17299985886,1.47500002384,1.38699996471
2020/05/26/02:02:30.000756,36092,1590426150,582798,robotiq_ft_frame_id,-15.75,237.309997559,11.4300003052,5.14900016785,1.82299995422,1.38999998569
2020/05/26/02:02:30.017207,36093,1590426150,16979332,robotiq_ft_frame_id,-11.4600000381,240.600006104,11.9600000381,5.34200000763,2.13199996948,1.39800000191
2020/05/26/02:02:30.033588,36094,1590426150,33361788,robotiq_ft_frame_id,-12.8500003815,237.039993286,11.5900001526,5.07399988174,1.98300004005,1.38199996948
2020/05/26/02:02:30.045895,36095,1590426150,45675608,robotiq_ft_frame_id,-17.5499992371,239.270004272,11.3999996185,5.25299978256,1.58599996567,1.39100003242
2020/05/26/02:02:30.062212,36096,1590426150,62028773,robotiq_ft_frame_id,-17.2900009155,237.339996338,11.25,5.14200019836,1.55499994755,1.37600004673
2020/05/26/02:02:30.078957,36097,1590426150,78384905,robotiq_ft_frame_id,-13.220000267,238.800003052,11.8900003433,5.132999897,1.98599994183,1.40199995041
2020/05/26/02:02:30.094947,36098,1590426150,94753641,robotiq_ft_frame_id,-13.8599996567,240.960006714,12.220000267,5.41099977493,2.01900005341,1.39400005341
2020/05/26/02:02:30.111300,36099,1590426150,111083963,robotiq_ft_frame_id,-16.0900001526,238.0,11.6300001144,5.13999986649,1.67100000381,1.39499998093
2020/05/26/02:02:30.127601,36100,1590426150,127423657,robotiq_ft_frame_id,-17.5799999237,240.529998779,11.2600002289,5.40999984741,1.49199998379,1.39499998093
2020/05/26/02:02:30.143905,36101,1590426150,143736948,robotiq_ft_frame_id,-15.8500003815,237.289993286,11.5799999237,5.17899990082,1.71800005436,1.39800000191
2020/05/26/02:02:30.160271,36102,1590426150,160039578,robotiq_ft_frame_id,-13.0399999619,239.789993286,12.5600004196,5.30700016022,2.09400010109,1.40999996662
2020/05/26/02:02:30.176617,36103,1590426150,176357389,robotiq_ft_frame_id,-15.6099996567,240.130004883,11.7700004578,5.28000020981,1.72599995136,1.38699996471
2020/05/26/02:02:30.192839,36104,1590426150,192663856,robotiq_ft_frame_id,-17.25,239.320007324,11.3400001526,5.21999979019,1.51600003242,1.3789999485
2020/05/26/02:02:30.209116,36105,1590426150,208967850,robotiq_ft_frame_id,-16.8400001526,241.009994507,12.0200004578,5.38399982452,1.62399995327,1.39100003242
2020/05/26/02:02:30.221299,36106,1590426150,221182982,robotiq_ft_frame_id,-15.0500001907,238.520004272,12.4600000381,5.17600011826,1.88300001621,1.39199995995
2020/05/26/02:02:30.237784,36107,1590426150,237530137,robotiq_ft_frame_id,-13.1899995804,241.309997559,12.4099998474,5.36100006104,1.98399996758,1.40400004387
2020/05/26/02:02:30.254184,36108,1590426150,253963030,robotiq_ft_frame_id,-18.4400005341,238.36000061,11.6499996185,5.19999980927,1.45000004768,1.39600002766
2020/05/26/02:02:30.270436,36109,1590426150,270292632,robotiq_ft_frame_id,-18.9099998474,240.520004272,11.6199998856,5.40500020981,1.39499998093,1.40699994564
2020/05/26/02:02:30.286847,36110,1590426150,286643055,robotiq_ft_frame_id,-14.3199996948,238.759994507,12.0500001907,5.33400011063,1.78600001335,1.39800000191
2020/05/26/02:02:30.303281,36111,1590426150,303052665,robotiq_ft_frame_id,-13.7299995422,239.809997559,12.6599998474,5.3220000267,2.04299998283,1.41199994087
2020/05/26/02:02:30.319726,36112,1590426150,319489493,robotiq_ft_frame_id,-15.8299999237,240.080001831,12.1800003052,5.24399995804,1.75300002098,1.39100003242
2020/05/26/02:02:30.336120,36113,1590426150,335912613,robotiq_ft_frame_id,-18.1599998474,239.309997559,11.5799999237,5.14599990845,1.3710000515,1.39499998093
2020/05/26/02:02:30.352490,36114,1590426150,352274757,robotiq_ft_frame_id,-18.0699996948,240.88999939,12.1099996567,5.34000015259,1.48899996281,1.39699995518
2020/05/26/02:02:30.368908,36115,1590426150,368709177,robotiq_ft_frame_id,-13.7100000381,238.449996948,12.4799995422,5.1360001564,1.98000001907,1.40600001812
2020/05/26/02:02:30.381224,36116,1590426150,381043261,robotiq_ft_frame_id,-13.1199998856,241.669998169,12.4600000381,5.39200019836,1.95599997044,1.41700005531
2020/05/26/02:02:30.397632,36117,1590426150,397449783,robotiq_ft_frame_id,-18.9599990845,238.649993896,12.0900001526,5.21199989319,1.4090000391,1.40100002289
2020/05/26/02:02:30.413981,36118,1590426150,413817111,robotiq_ft_frame_id,-17.9500007629,237.630004883,11.8699998856,5.1779999733,1.41700005531,1.40600001812
2020/05/26/02:02:30.430496,36119,1590426150,430308429,robotiq_ft_frame_id,-15.220000267,238.910003662,12.3299999237,5.34299993515,1.68799996376,1.40299999714
2020/05/26/02:02:30.446912,36120,1590426150,446718908,robotiq_ft_frame_id,-14.8800001144,237.929992676,12.9499998093,5.06599998474,1.96500003338,1.41799998283
2020/05/26/02:02:30.463250,36121,1590426150,463107206,robotiq_ft_frame_id,-16.0599994659,240.429992676,12.3599996567,5.25199985504,1.71000003815,1.39800000191
2020/05/26/02:02:30.479684,36122,1590426150,479522756,robotiq_ft_frame_id,-19.2299995422,239.050003052,11.9099998474,5.12200021744,1.29499995708,1.39800000191
2020/05/26/02:02:30.496126,36123,1590426150,495920386,robotiq_ft_frame_id,-17.1100006104,237.759994507,12.6899995804,5.09999990463,1.65100002289,1.38999998569
2020/05/26/02:02:30.512505,36124,1590426150,512278331,robotiq_ft_frame_id,-14.3900003433,238.300003052,12.7299995422,5.12099981308,1.89199995995,1.40400004387
2020/05/26/02:02:30.528927,36125,1590426150,528663804,robotiq_ft_frame_id,-16.6200008392,237.720001221,12.5500001907,5.09700012207,1.67499995232,1.40799999237
2020/05/26/02:02:30.541067,36126,1590426150,540919253,robotiq_ft_frame_id,-19.6000003815,238.669998169,12.3100004196,5.21999979019,1.35399997234,1.40799999237
2020/05/26/02:02:30.557367,36127,1590426150,557204331,robotiq_ft_frame_id,-18.8400001526,237.869995117,11.9200000763,5.17199993134,1.31400001049,1.41499996185
2020/05/26/02:02:30.573712,36128,1590426150,573535986,robotiq_ft_frame_id,-16.2999992371,239.339996338,12.3599996567,5.34600019455,1.59899997711,1.40600001812
2020/05/26/02:02:30.590123,36129,1590426150,589945747,robotiq_ft_frame_id,-15.4399995804,237.789993286,13.2100000381,5.04199981689,1.92599999905,1.42100000381
2020/05/26/02:02:30.606500,36130,1590426150,606326253,robotiq_ft_frame_id,-18.5699996948,239.399993896,12.1099996567,5.15100002289,1.36300003529,1.38900005817
2020/05/26/02:02:30.622763,36131,1590426150,622633741,robotiq_ft_frame_id,-20.2399997711,239.009994507,12.1300001144,5.09600019455,1.18799996376,1.40400004387
2020/05/26/02:02:30.639239,36132,1590426150,639011366,robotiq_ft_frame_id,-18.2199993134,237.869995117,12.8699998856,5.10799980164,1.56200003624,1.39999997616
2020/05/26/02:02:30.655644,36133,1590426150,655424398,robotiq_ft_frame_id,-15.1999998093,238.580001831,12.8800001144,5.13999986649,1.81599998474,1.40799999237
2020/05/26/02:02:30.671872,36134,1590426150,671732093,robotiq_ft_frame_id,-17.3999996185,237.830001831,12.8699998856,5.07700014114,1.6629999876,1.41600000858
2020/05/26/02:02:30.688262,36135,1590426150,688033968,robotiq_ft_frame_id,-21.3700008392,241.039993286,12.0900001526,5.40299987793,1.11300003529,1.41999995708
2020/05/26/02:02:30.704565,36136,1590426150,704376795,robotiq_ft_frame_id,-20.3099994659,238.320007324,11.9099998474,5.17199993134,1.16199994087,1.42299997807
2020/05/26/02:02:30.716935,36137,1590426150,716668107,robotiq_ft_frame_id,-16.3299999237,239.399993896,13.1700000763,5.31599998474,1.80799996853,1.41700005531
2020/05/26/02:02:30.733240,36138,1590426150,733060469,robotiq_ft_frame_id,-15.6000003815,237.539993286,13.3500003815,5.04899978638,1.89300000668,1.42299997807
2020/05/26/02:02:30.749635,36139,1590426150,749416574,robotiq_ft_frame_id,-19.0499992371,239.929992676,12.4300003052,5.17700004578,1.35399997234,1.39999997616
2020/05/26/02:02:30.766094,36140,1590426150,765850553,robotiq_ft_frame_id,-21.5599994659,240.960006714,12.7100000381,5.29300022125,1.15600001812,1.42100000381
2020/05/26/02:02:30.782501,36141,1590426150,782221102,robotiq_ft_frame_id,-19.4599990845,238.669998169,12.970000267,5.15299987793,1.40999996662,1.41199994087
2020/05/26/02:02:30.798788,36142,1590426150,798642052,robotiq_ft_frame_id,-15.3800001144,241.559997559,13.3299999237,5.33199977875,1.81400001049,1.42700004578
2020/05/26/02:02:30.815164,36143,1590426150,814996796,robotiq_ft_frame_id,-17.7800006866,239.020004272,13.1099996567,5.11299991608,1.66400003433,1.42599999905
2020/05/26/02:02:30.831558,36144,1590426150,831362722,robotiq_ft_frame_id,-22.1399993896,241.399993896,12.029999733,5.40600013733,1.01999998093,1.42499995232
2020/05/26/02:02:30.848053,36145,1590426150,847794486,robotiq_ft_frame_id,-19.2600002289,239.020004272,12.5900001526,5.27899980545,1.34500002861,1.42100000381
2020/05/26/02:02:30.864378,36146,1590426150,864190920,robotiq_ft_frame_id,-17.4400005341,239.070007324,13.25,5.28900003433,1.71899998188,1.42200005054
2020/05/26/02:02:30.876698,36147,1590426150,876512640,robotiq_ft_frame_id,-16.8400001526,240.5,13.1599998474,5.21000003815,1.6210000515,1.42599999905
2020/05/26/02:02:30.892999,36148,1590426150,892854477,robotiq_ft_frame_id,-19.5900001526,239.910003662,13.1800003052,5.13500022888,1.26300001144,1.40799999237
2020/05/26/02:02:30.909449,36149,1590426150,909272059,robotiq_ft_frame_id,-22.4799995422,241.539993286,13.2700004578,5.3029999733,1.01699995995,1.42599999905
2020/05/26/02:02:30.925790,36150,1590426150,925624949,robotiq_ft_frame_id,-16.9699993134,238.350006104,13.279999733,5.11199998856,1.6210000515,1.41400003433
2020/05/26/02:02:30.942090,36151,1590426150,941929092,robotiq_ft_frame_id,-16.0799999237,241.779998779,13.5399999619,5.34200000763,1.75800001621,1.43099999428
2020/05/26/02:02:30.958428,36152,1590426150,958222276,robotiq_ft_frame_id,-21.5699996948,239.539993286,12.9499998093,5.20100021362,1.19299995899,1.42299997807
2020/05/26/02:02:30.974746,36153,1590426150,974557908,robotiq_ft_frame_id,-23.4200000763,241.520004272,12.1199998856,5.41499996185,0.885999977589,1.4240000248
2020/05/26/02:02:30.991224,36154,1590426150,990961394,robotiq_ft_frame_id,-19.8600006104,238.160003662,12.5900001526,5.22900009155,1.31400001049,1.42700004578
2020/05/26/02:02:31.007612,36155,1590426151,7433032,robotiq_ft_frame_id,-16.7700004578,237.070007324,13.4600000381,4.98600006104,1.79100000858,1.4279999733
2020/05/26/02:02:31.023882,36156,1590426151,23772422,robotiq_ft_frame_id,-17.9400005341,240.660003662,12.9399995804,5.1890001297,1.49000000954,1.42900002003
2020/05/26/02:02:31.036329,36157,1590426151,36063444,robotiq_ft_frame_id,-24.6399993896,236.960006714,10.7100000381,4.97399997711,0.898000001907,1.40199995041
2020/05/26/02:02:31.052681,36158,1590426151,52458372,robotiq_ft_frame_id,-23.6700000763,240.869995117,11.9600000381,5.29600000381,1.01499998569,1.42499995232
2020/05/26/02:02:31.069006,36159,1590426151,68825261,robotiq_ft_frame_id,-16.5499992371,236.710006714,13.2700004578,4.97800016403,1.70799994469,1.41700005531
2020/05/26/02:02:31.085334,36160,1590426151,85121777,robotiq_ft_frame_id,-20.4099998474,238.759994507,12.9099998474,5.08599996567,1.38900005817,1.4279999733
2020/05/26/02:02:31.101743,36161,1590426151,101536935,robotiq_ft_frame_id,-23.8799991608,237.869995117,12.1199998856,5.07000017166,0.913999974728,1.41499996185
2020/05/26/02:02:31.118099,36162,1590426151,117871459,robotiq_ft_frame_id,-22.0900001526,238.839996338,12.6400003433,5.17999982834,1.01400005817,1.43799996376
2020/05/26/02:02:31.134336,36163,1590426151,134191036,robotiq_ft_frame_id,-18.9300003052,238.0,13.5,5.15500020981,1.49300003052,1.44599997997
2020/05/26/02:02:31.150748,36164,1590426151,150575490,robotiq_ft_frame_id,-18.3999996185,238.729995728,13.5200004578,5.0609998703,1.66700005531,1.43200004101
2020/05/26/02:02:31.167260,36165,1590426151,166996663,robotiq_ft_frame_id,-22.4599990845,241.479995728,12.1099996567,5.27400016785,0.972999989986,1.41400003433
2020/05/26/02:02:31.183776,36166,1590426151,183507915,robotiq_ft_frame_id,-24.4799995422,238.119995117,11.9799995422,5.04799985886,0.879999995232,1.40400004387
2020/05/26/02:02:31.196057,36167,1590426151,195862377,robotiq_ft_frame_id,-20.5599994659,240.820007324,13.2600002289,5.25099992752,1.33399999142,1.43400001526
2020/05/26/02:02:31.212374,36168,1590426151,212181771,robotiq_ft_frame_id,-18.5300006866,237.88999939,13.2600002289,5.02400016785,1.54799997807,1.4240000248
2020/05/26/02:02:31.228780,36169,1590426151,228580049,robotiq_ft_frame_id,-20.3500003815,240.410003662,13.3199996948,5.20800018311,1.2840000391,1.42900002003
2020/05/26/02:02:31.245218,36170,1590426151,245003692,robotiq_ft_frame_id,-23.3099994659,241.020004272,12.7899999619,5.24900007248,0.879999995232,1.42599999905
2020/05/26/02:02:31.261656,36171,1590426151,261453036,robotiq_ft_frame_id,-23.2600002289,239.759994507,12.5200004578,5.21199989319,1.01499998569,1.42599999905
2020/05/26/02:02:31.278039,36172,1590426151,277868715,robotiq_ft_frame_id,-20.7299995422,240.36000061,13.1400003433,5.257999897,1.31799995899,1.43799996376
2020/05/26/02:02:31.294353,36173,1590426151,294173663,robotiq_ft_frame_id,-20.6399993896,239.789993286,12.7700004578,5.20100021362,1.28999996185,1.42100000381
2020/05/26/02:02:31.310681,36174,1590426151,310468473,robotiq_ft_frame_id,-22.0200004578,240.0,12.7399997711,5.19899988174,1.18799996376,1.43799996376
2020/05/26/02:02:31.327085,36175,1590426151,326817609,robotiq_ft_frame_id,-22.0100002289,239.339996338,12.5900001526,5.17999982834,1.21099996567,1.42900002003
