time,.header.seq,.header.stamp.secs,.header.stamp.nsecs,.header.frame_id,.name,.pulse,.position,.velocity,.torque
2020/05/26/02:03:43.636752,612,1590426223,582103967,,"['joint_S', 'joint_L', 'joint_E', 'joint_U', 'joint_R', 'joint_B', 'joint_T']","(0, -3, -3, -1, 0, -3, 2)","(0.0, 0.0026, -0.0026, -0.0008, 0.0, -0.0029, -0.0029)","(0.0, 0.0, 0.0, 0.0, 0.0, 0.0, 0.0)","(-4.5e-05, -0.003708, 0.000122, 0.004656, 0.00062, 0.002086, 7e-05)"
2020/05/26/02:03:43.692461,613,1590426223,636660099,,"['joint_S', 'joint_L', 'joint_E', 'joint_U', 'joint_R', 'joint_B', 'joint_T']","(0, -3, -3, -1, 0, -3, 2)","(0.0, 0.0026, -0.0026, -0.0008, 0.0, -0.0029, -0.0029)","(0.0, 0.0, 0.0, 0.0, 0.0, 0.0, 0.0)","(-4.5e-05, -0.003708, 0.000122, 0.004654, 0.00062, 0.002088, 7e-05)"
2020/05/26/02:03:43.747918,614,1590426223,692404985,,"['joint_S', 'joint_L', 'joint_E', 'joint_U', 'joint_R', 'joint_B', 'joint_T']","(0, -3, -3, -1, 0, -3, 2)","(0.0, 0.0026, -0.0026, -0.0008, 0.0, -0.0029, -0.0029)","(0.0, 0.0, 0.0, 0.0, 0.0, 0.0, 0.0)","(-4.5e-05, -0.003708, 0.000122, 0.004679, 0.00062, 0.002088, 6.8e-05)"
2020/05/26/02:03:43.803489,615,1590426223,747912883,,"['joint_S', 'joint_L', 'joint_E', 'joint_U', 'joint_R', 'joint_B', 'joint_T']","(0, -3, -3, -1, 0, -3, 2)","(0.0, 0.0026, -0.0026, -0.0008, 0.0, -0.0029, -0.0029)","(0.0, 0.0, 0.0, 0.0, 0.0, 0.0, 0.0)","(-4.5e-05, -0.003708, 0.000122, 0.004652, 0.00062, 0.00209, 6.6e-05)"
2020/05/26/02:03:43.857533,616,1590426223,803401947,,"['joint_S', 'joint_L', 'joint_E', 'joint_U', 'joint_R', 'joint_B', 'joint_T']","(0, -3, -3, -1, 0, -3, 2)","(0.0, 0.0026, -0.0026, -0.0008, 0.0, -0.0029, -0.0029)","(0.0, 0.0, 0.0, 0.0, 0.0, 0.0, 0.0)","(-4.5e-05, -0.003708, 0.000122, 0.004659, 0.00062, 0.002092, 6.4e-05)"
2020/05/26/02:03:43.911875,617,1590426223,857346057,,"['joint_S', 'joint_L', 'joint_E', 'joint_U', 'joint_R', 'joint_B', 'joint_T']","(0, -3, -3, -1, 0, -3, 2)","(0.0, 0.0026, -0.0026, -0.0008, 0.0, -0.0029, -0.0029)","(0.0, 0.0, 0.0, 0.0, 0.0, 0.0, 0.0)","(-4.5e-05, -0.003708, 0.000122, 0.004659, 0.00062, 0.002092, 6.4e-05)"
2020/05/26/02:03:43.966844,618,1590426223,911861896,,"['joint_S', 'joint_L', 'joint_E', 'joint_U', 'joint_R', 'joint_B', 'joint_T']","(0, -3, -3, -1, 0, -3, 2)","(0.0, 0.0026, -0.0026, -0.0008, 0.0, -0.0029, -0.0029)","(0.0, 0.0, 0.0, 0.0, 0.0, 0.0, 0.0)","(-4.5e-05, -0.003708, 0.000122, 0.004656, 0.00062, 0.002094, 6.2e-05)"
2020/05/26/02:03:44.022786,619,1590426223,966701984,,"['joint_S', 'joint_L', 'joint_E', 'joint_U', 'joint_R', 'joint_B', 'joint_T']","(0, -3, -3, -1, 0, -3, 2)","(0.0, 0.0026, -0.0026, -0.0008, 0.0, -0.0029, -0.0029)","(0.0, 0.0, 0.0, 0.0, 0.0, 0.0, 0.0)","(-4.5e-05, -0.003708, 0.000124, 0.004656, 0.00062, 0.002096, 6.2e-05)"
2020/05/26/02:03:44.077848,620,1590426224,22720098,,"['joint_S', 'joint_L', 'joint_E', 'joint_U', 'joint_R', 'joint_B', 'joint_T']","(0, -3, -3, -1, 0, -3, 2)","(0.0, 0.0026, -0.0026, -0.0008, 0.0, -0.0029, -0.0029)","(0.0, 0.0, 0.0, 0.0, 0.0, 0.0, 0.0)","(-4.5e-05, -0.003708, 0.000124, 0.00465, 0.00062, 0.002105, 6e-05)"
2020/05/26/02:03:44.132419,621,1590426224,77806949,,"['joint_S', 'joint_L', 'joint_E', 'joint_U', 'joint_R', 'joint_B', 'joint_T']","(0, -3, -3, -1, 0, -3, 2)","(0.0, 0.0026, -0.0026, -0.0008, 0.0, -0.0029, -0.0029)","(0.0, 0.0, 0.0, 0.0, 0.0, 0.0, 0.0)","(-4.5e-05, -0.003708, 0.000124, 0.004656, 0.00062, 0.002111, 5.8e-05)"
2020/05/26/02:03:44.187921,622,1590426224,132220983,,"['joint_S', 'joint_L', 'joint_E', 'joint_U', 'joint_R', 'joint_B', 'joint_T']","(0, -3, -3, -1, 0, -3, 2)","(0.0, 0.0026, -0.0026, -0.0008, 0.0, -0.0029, -0.0029)","(0.0, 0.0, 0.0, 0.0, 0.0, 0.0, 0.0)","(-4.5e-05, -0.003708, 0.000124, 0.004659, 0.00062, 0.002109, 5.8e-05)"
2020/05/26/02:03:44.243026,623,1590426224,187726974,,"['joint_S', 'joint_L', 'joint_E', 'joint_U', 'joint_R', 'joint_B', 'joint_T']","(0, -3, -3, -1, 0, -3, 2)","(0.0, 0.0026, -0.0026, -0.0008, 0.0, -0.0029, -0.0029)","(-124.0, 0.0, 0.0, 0.0, 0.0, 0.0, 0.0)","(-1.3e-05, -0.003708, 0.000124, 0.004659, 0.00062, 0.002101, 5.6e-05)"
2020/05/26/02:03:44.297917,624,1590426224,242959976,,"['joint_S', 'joint_L', 'joint_E', 'joint_U', 'joint_R', 'joint_B', 'joint_T']","(0, -3, -3, -1, 0, -3, 2)","(0.0, 0.0026, -0.0026, -0.0008, 0.0, -0.0029, -0.0029)","(0.0, 0.0, 0.0, 0.0, 0.0, 0.0, 0.0)","(-4.5e-05, -0.003708, 0.000124, 0.004659, 0.00062, 0.002098, 5.3e-05)"
2020/05/26/02:03:44.354235,625,1590426224,297890901,,"['joint_S', 'joint_L', 'joint_E', 'joint_U', 'joint_R', 'joint_B', 'joint_T']","(0, -3, -3, -1, 0, -3, 2)","(0.0, 0.0026, -0.0026, -0.0008, 0.0, -0.0029, -0.0029)","(0.0, 0.0, 0.0, 0.0, 0.0, 0.0, 0.0)","(-4.5e-05, -0.003708, 0.000124, 0.004659, 0.00062, 0.002103, 5.3e-05)"
2020/05/26/02:03:44.409266,626,1590426224,354208946,,"['joint_S', 'joint_L', 'joint_E', 'joint_U', 'joint_R', 'joint_B', 'joint_T']","(0, -3, -3, -1, 0, -3, 2)","(0.0, 0.0026, -0.0026, -0.0008, 0.0, -0.0029, -0.0029)","(0.0, 0.0, 0.0, 0.0, 0.0, 0.0, 0.0)","(-4.5e-05, -0.003708, 0.000124, 0.004659, 0.00062, 0.002103, 5.1e-05)"
2020/05/26/02:03:44.465809,627,1590426224,409502983,,"['joint_S', 'joint_L', 'joint_E', 'joint_U', 'joint_R', 'joint_B', 'joint_T']","(0, -3, -3, -1, 0, -3, 2)","(0.0, 0.0026, -0.0026, -0.0008, 0.0, -0.0029, -0.0029)","(0.0, 0.0, 0.0, 0.0, 0.0, 0.0, 0.0)","(-4.5e-05, -0.003708, 0.000124, 0.004659, 0.00062, 0.002105, 4.9e-05)"
2020/05/26/02:03:44.522161,628,1590426224,465563058,,"['joint_S', 'joint_L', 'joint_E', 'joint_U', 'joint_R', 'joint_B', 'joint_T']","(0, -3, -3, -1, 0, -3, 2)","(0.0, 0.0026, -0.0026, -0.0008, 0.0, -0.0029, -0.0029)","(0.0, 0.0, 0.0, 0.0, 0.0, 0.0, 0.0)","(-5.2e-05, -0.003708, 0.000124, 0.004659, 0.00062, 0.002105, 4.9e-05)"
2020/05/26/02:03:44.576739,629,1590426224,521961927,,"['joint_S', 'joint_L', 'joint_E', 'joint_U', 'joint_R', 'joint_B', 'joint_T']","(0, -3, -3, -1, 0, -3, 2)","(0.0, 0.0026, -0.0026, -0.0008, 0.0, -0.0029, -0.0029)","(124.0, 0.0, 0.0, 0.0, 0.0, 0.0, 0.0)","(-5.4e-05, -0.003708, 0.000124, 0.004659, 0.00062, 0.002105, 4.7e-05)"
2020/05/26/02:03:44.632444,630,1590426224,576594114,,"['joint_S', 'joint_L', 'joint_E', 'joint_U', 'joint_R', 'joint_B', 'joint_T']","(0, -3, -3, -1, 0, -3, 2)","(0.0, 0.0026, -0.0026, -0.0008, 0.0, -0.0029, -0.0029)","(0.0, 0.0, 0.0, 0.0, 0.0, 0.0, 0.0)","(-5.4e-05, -0.003708, 0.000124, 0.004659, 0.00062, 0.002107, 4.5e-05)"
2020/05/26/02:03:44.689015,631,1590426224,632370948,,"['joint_S', 'joint_L', 'joint_E', 'joint_U', 'joint_R', 'joint_B', 'joint_T']","(0, -3, -3, -1, 0, -3, 2)","(0.0, 0.0026, -0.0026, -0.0008, 0.0, -0.0029, -0.0029)","(0.0, 0.0, 0.0, 0.0, 0.0, 0.0, 0.0)","(-4.5e-05, -0.003708, 0.000122, 0.004659, 0.00062, 0.002107, 4.5e-05)"
2020/05/26/02:03:44.744419,632,1590426224,688884019,,"['joint_S', 'joint_L', 'joint_E', 'joint_U', 'joint_R', 'joint_B', 'joint_T']","(0, -3, -3, -1, 0, -3, 2)","(0.0, 0.0026, -0.0026, -0.0008, 0.0, -0.0029, -0.0029)","(0.0, 0.0, 0.0, 0.0, 0.0, 0.0, 0.0)","(-4.5e-05, -0.003708, 0.000124, 0.004659, 0.00062, 0.002107, 4.3e-05)"
2020/05/26/02:03:44.799789,633,1590426224,744380950,,"['joint_S', 'joint_L', 'joint_E', 'joint_U', 'joint_R', 'joint_B', 'joint_T']","(0, -3, -3, -1, 0, -3, 2)","(0.0, 0.0026, -0.0026, -0.0008, 0.0, -0.0029, -0.0029)","(124.8, 0.0, 0.0, 0.0, 0.0, 0.0, 0.0)","(-5.6e-05, -0.003708, 0.000122, 0.004659, 0.00062, 0.002109, 4.1e-05)"
2020/05/26/02:03:44.856944,634,1590426224,799611091,,"['joint_S', 'joint_L', 'joint_E', 'joint_U', 'joint_R', 'joint_B', 'joint_T']","(0, -3, -3, -1, 0, -3, 2)","(0.0, 0.0026, -0.0026, -0.0008, 0.0, -0.0029, -0.0029)","(0.0, 0.0, 0.0, 0.0, 0.0, 0.0, 0.0)","(-5.2e-05, -0.003708, 0.000124, 0.004659, 0.00062, 0.002109, 3.9e-05)"
2020/05/26/02:03:44.911404,635,1590426224,856800079,,"['joint_S', 'joint_L', 'joint_E', 'joint_U', 'joint_R', 'joint_B', 'joint_T']","(0, -3, -3, -1, 0, -3, 2)","(0.0, 0.0026, -0.0026, -0.0008, 0.0, -0.0029, -0.0029)","(0.0, 0.0, 0.0, 0.0, 0.0, 0.0, 0.0)","(-4.3e-05, -0.003703, 0.000122, 0.004659, 0.00062, 0.002109, 3.9e-05)"
2020/05/26/02:03:44.966374,636,1590426224,911254882,,"['joint_S', 'joint_L', 'joint_E', 'joint_U', 'joint_R', 'joint_B', 'joint_T']","(0, -3, -3, -1, 0, -3, 2)","(0.0, 0.0026, -0.0026, -0.0008, 0.0, -0.0029, -0.0029)","(0.0, 0.0, 0.0, 0.0, 0.0, 0.0, 0.0)","(-4.3e-05, -0.003699, 0.000122, 0.004659, 0.00062, 0.002111, 3.7e-05)"
2020/05/26/02:03:45.022057,637,1590426224,966306924,,"['joint_S', 'joint_L', 'joint_E', 'joint_U', 'joint_R', 'joint_B', 'joint_T']","(0, -3, -3, -1, 0, -3, 2)","(0.0, 0.0026, -0.0026, -0.0008, 0.0, -0.0029, -0.0029)","(0.0, 0.0, 0.0, 0.0, 0.0, 0.0, 0.0)","(-4.3e-05, -0.003708, 0.000122, 0.004659, 0.00062, 0.002111, 3.5e-05)"
2020/05/26/02:03:45.078354,638,1590426225,22017002,,"['joint_S', 'joint_L', 'joint_E', 'joint_U', 'joint_R', 'joint_B', 'joint_T']","(0, -3, -3, -1, 0, -3, 2)","(0.0, 0.0026, -0.0026, -0.0008, 0.0, -0.0029, -0.0029)","(0.0, 0.0, 0.0, -124.8, 0.0, 0.0, 0.0)","(-4.3e-05, -0.003708, 0.000124, 0.004689, 0.00062, 0.002111, 3.5e-05)"
2020/05/26/02:03:45.134283,639,1590426225,78237056,,"['joint_S', 'joint_L', 'joint_E', 'joint_U', 'joint_R', 'joint_B', 'joint_T']","(0, -3, -3, -1, 0, -3, 2)","(0.0, 0.0026, -0.0026, -0.0008, 0.0, -0.0029, -0.0029)","(0.0, 0.0, 0.0, 0.0, 0.0, 0.0, 0.0)","(-4.3e-05, -0.003701, 0.000122, 0.004659, 0.00062, 0.002113, 2.6e-05)"
2020/05/26/02:03:45.189514,640,1590426225,134110927,,"['joint_S', 'joint_L', 'joint_E', 'joint_U', 'joint_R', 'joint_B', 'joint_T']","(0, -3, -3, -1, 0, -3, 2)","(0.0, 0.0026, -0.0026, -0.0008, 0.0, -0.0029, -0.0029)","(0.0, 0.0, 0.0, 0.0, 0.0, 0.0, 0.0)","(-4.3e-05, -0.003708, 0.000124, 0.004659, 0.00062, 0.002113, 3.3e-05)"
2020/05/26/02:03:45.244400,641,1590426225,189445972,,"['joint_S', 'joint_L', 'joint_E', 'joint_U', 'joint_R', 'joint_B', 'joint_T']","(0, -3, -3, -1, 0, -3, 2)","(0.0, 0.0026, -0.0026, -0.0008, 0.0, -0.0029, -0.0029)","(0.0, 0.0, 0.0, 0.0, 0.0, 0.0, 0.0)","(-4.3e-05, -0.003708, 0.000124, 0.004659, 0.00062, 0.002115, 3.3e-05)"
2020/05/26/02:03:45.299887,642,1590426225,244268894,,"['joint_S', 'joint_L', 'joint_E', 'joint_U', 'joint_R', 'joint_B', 'joint_T']","(0, -3, -3, -1, 0, -3, 2)","(0.0, 0.0026, -0.0026, -0.0008, 0.0, -0.0029, -0.0029)","(0.0, 0.0, 0.0, 0.0, 0.0, 0.0, 0.0)","(-4.3e-05, -0.003708, 0.000124, 0.004659, 0.00062, 0.002115, 3.1e-05)"
2020/05/26/02:03:45.355514,643,1590426225,299719095,,"['joint_S', 'joint_L', 'joint_E', 'joint_U', 'joint_R', 'joint_B', 'joint_T']","(0, -3, -3, -1, 0, -3, 2)","(0.0, 0.0026, -0.0026, -0.0008, 0.0, -0.0029, -0.0029)","(0.0, 0.0, 0.0, 0.0, 0.0, 0.0, 0.0)","(-4.3e-05, -0.003708, 0.000124, 0.004659, 0.00062, 0.002115, 3.1e-05)"
2020/05/26/02:03:45.412837,644,1590426225,355365991,,"['joint_S', 'joint_L', 'joint_E', 'joint_U', 'joint_R', 'joint_B', 'joint_T']","(0, -3, -3, -1, 0, -3, 2)","(0.0, 0.0026, -0.0026, -0.0008, 0.0, -0.0029, -0.0029)","(0.0, 0.0, 0.0, 0.0, 0.0, 0.0, 0.0)","(-4.3e-05, -0.003708, 0.000122, 0.004659, 0.00062, 0.002117, 2.9e-05)"
2020/05/26/02:03:45.467472,645,1590426225,412764072,,"['joint_S', 'joint_L', 'joint_E', 'joint_U', 'joint_R', 'joint_B', 'joint_T']","(0, -3, -3, -1, 0, -3, 2)","(0.0, 0.0026, -0.0026, -0.0008, 0.0, -0.0029, -0.0029)","(0.0, 0.0, 0.0, 124.8, 0.0, 0.0, 0.0)","(-4.3e-05, -0.003708, 0.000122, 0.00465, 0.00062, 0.002117, 2.9e-05)"
2020/05/26/02:03:45.522487,646,1590426225,467403888,,"['joint_S', 'joint_L', 'joint_E', 'joint_U', 'joint_R', 'joint_B', 'joint_T']","(0, -3, -3, -1, 0, -3, 2)","(0.0, 0.0026, -0.0026, -0.0008, 0.0, -0.0029, -0.0029)","(0.0, 0.0, 0.0, 0.0, 0.0, 0.0, 0.0)","(-4.3e-05, -0.003708, 0.000124, 0.004654, 0.00062, 0.002119, 2.9e-05)"
2020/05/26/02:03:45.577567,647,1590426225,522336959,,"['joint_S', 'joint_L', 'joint_E', 'joint_U', 'joint_R', 'joint_B', 'joint_T']","(0, -3, -3, -1, 0, -3, 2)","(0.0, 0.0026, -0.0026, -0.0008, 0.0, -0.0029, -0.0029)","(0.0, 0.0, 0.0, 0.0, 0.0, 0.0, 0.0)","(-4.3e-05, -0.003708, 0.000124, 0.004659, 0.00062, 0.002119, 2.6e-05)"
2020/05/26/02:03:45.632861,648,1590426225,577474117,,"['joint_S', 'joint_L', 'joint_E', 'joint_U', 'joint_R', 'joint_B', 'joint_T']","(0, -3, -3, -1, 0, -3, 2)","(0.0, 0.0026, -0.0026, -0.0008, 0.0, -0.0029, -0.0029)","(0.0, 0.0, 0.0, 0.0, 0.0, 0.0, 0.0)","(-4.3e-05, -0.003708, 0.000124, 0.004659, 0.00062, 0.002121, 2.6e-05)"
2020/05/26/02:03:45.689213,649,1590426225,632760047,,"['joint_S', 'joint_L', 'joint_E', 'joint_U', 'joint_R', 'joint_B', 'joint_T']","(0, -3, -3, -1, 0, -3, 2)","(0.0, 0.0026, -0.0026, -0.0008, 0.0, -0.0029, -0.0029)","(0.0, 0.0, 0.0, 0.0, 0.0, 0.0, 0.0)","(-4.3e-05, -0.003708, 0.00012, 0.004659, 0.00062, 0.002121, 2.6e-05)"
2020/05/26/02:03:45.744071,650,1590426225,688951015,,"['joint_S', 'joint_L', 'joint_E', 'joint_U', 'joint_R', 'joint_B', 'joint_T']","(0, -3, -3, -1, 0, -3, 2)","(0.0, 0.0026, -0.0026, -0.0008, 0.0, -0.0029, -0.0029)","(0.0, 0.0, 0.0, 0.0, 0.0, 0.0, 0.0)","(-4.3e-05, -0.003708, 0.000124, 0.004661, 0.00062, 0.002121, 2.4e-05)"
2020/05/26/02:03:45.799280,651,1590426225,743952989,,"['joint_S', 'joint_L', 'joint_E', 'joint_U', 'joint_R', 'joint_B', 'joint_T']","(0, -3, -3, -1, 0, -3, 2)","(0.0, 0.0026, -0.0026, -0.0008, 0.0, -0.0029, -0.0029)","(0.0, 0.0, 0.0, 0.0, 0.0, 0.0, 0.0)","(-4.3e-05, -0.003708, 0.000124, 0.004661, 0.00062, 0.002123, 2.4e-05)"
2020/05/26/02:03:45.855188,652,1590426225,799103021,,"['joint_S', 'joint_L', 'joint_E', 'joint_U', 'joint_R', 'joint_B', 'joint_T']","(0, -3, -3, -1, 0, -3, 2)","(0.0, 0.0026, -0.0026, -0.0008, 0.0, -0.0029, -0.0029)","(0.0, 0.0, 0.0, 0.0, 0.0, 0.0, 0.0)","(-4.3e-05, -0.003708, 0.000124, 0.004661, 0.00062, 0.002123, 2.2e-05)"
2020/05/26/02:03:45.909901,653,1590426225,855020999,,"['joint_S', 'joint_L', 'joint_E', 'joint_U', 'joint_R', 'joint_B', 'joint_T']","(0, -3, -3, -1, 0, -3, 2)","(0.0, 0.0026, -0.0026, -0.0008, 0.0, -0.0029, -0.0029)","(0.0, 0.0, 0.0, 0.0, 0.0, 0.0, 0.0)","(-4.3e-05, -0.003708, 0.000124, 0.004661, 0.00062, 0.002125, 2.2e-05)"
2020/05/26/02:03:45.967023,654,1590426225,909743070,,"['joint_S', 'joint_L', 'joint_E', 'joint_U', 'joint_R', 'joint_B', 'joint_T']","(0, -3, -3, -1, 0, -3, 2)","(0.0, 0.0026, -0.0026, -0.0008, 0.0, -0.0029, -0.0029)","(0.0, 0.0, 0.0, 0.0, 0.0, 0.0, 0.0)","(-4.3e-05, -0.003708, 0.000124, 0.004661, 0.00062, 0.002125, 2.2e-05)"
2020/05/26/02:03:46.024509,655,1590426225,966872930,,"['joint_S', 'joint_L', 'joint_E', 'joint_U', 'joint_R', 'joint_B', 'joint_T']","(0, -3, -3, -1, 0, -3, 2)","(0.0, 0.0026, -0.0026, -0.0008, 0.0, -0.0029, -0.0029)","(0.0, 0.0, 0.0, 0.0, 0.0, 0.0, 0.0)","(-4.3e-05, -0.003708, 0.000124, 0.004661, 0.00062, 0.002125, 2e-05)"
2020/05/26/02:03:46.080590,656,1590426226,24507045,,"['joint_S', 'joint_L', 'joint_E', 'joint_U', 'joint_R', 'joint_B', 'joint_T']","(0, -3, -3, -1, 0, -3, 2)","(0.0, 0.0026, -0.0026, -0.0008, 0.0, -0.0029, -0.0029)","(0.0, 0.0, 0.0, 0.0, 0.0, 0.0, 0.0)","(-4.3e-05, -0.003708, 0.000124, 0.004661, 0.00062, 0.002128, 2e-05)"
2020/05/26/02:03:46.134481,657,1590426226,80341100,,"['joint_S', 'joint_L', 'joint_E', 'joint_U', 'joint_R', 'joint_B', 'joint_T']","(0, -3, -3, -1, 0, -3, 2)","(0.0, 0.0026, -0.0026, -0.0008, 0.0, -0.0029, -0.0029)","(0.0, 0.0, 0.0, 0.0, 0.0, 0.0, 0.0)","(-4.5e-05, -0.003708, 0.000124, 0.004659, 0.00062, 0.002128, 1.8e-05)"
2020/05/26/02:03:46.190394,658,1590426226,134438037,,"['joint_S', 'joint_L', 'joint_E', 'joint_U', 'joint_R', 'joint_B', 'joint_T']","(0, -3, -3, -1, 0, -3, 2)","(0.0, 0.0026, -0.0026, -0.0008, 0.0, -0.0029, -0.0029)","(0.0, 0.0, 0.0, 0.0, 0.0, 0.0, 0.0)","(-4.3e-05, -0.003708, 0.000124, 0.004661, 0.00062, 0.00213, 1.8e-05)"
2020/05/26/02:03:46.244791,659,1590426226,190330028,,"['joint_S', 'joint_L', 'joint_E', 'joint_U', 'joint_R', 'joint_B', 'joint_T']","(0, -3, -3, -1, 0, -3, 2)","(0.0, 0.0026, -0.0026, -0.0008, 0.0, -0.0029, -0.0029)","(0.0, 0.0, -124.8, 0.0, 0.0, 0.0, 0.0)","(-4.3e-05, -0.003708, 0.000167, 0.004661, 0.00062, 0.00213, 1.8e-05)"
2020/05/26/02:03:46.299764,660,1590426226,244663000,,"['joint_S', 'joint_L', 'joint_E', 'joint_U', 'joint_R', 'joint_B', 'joint_T']","(0, -3, -3, -1, 0, -3, 2)","(0.0, 0.0026, -0.0026, -0.0008, 0.0, -0.0029, -0.0029)","(0.0, 0.0, 0.0, 0.0, 0.0, 0.0, 0.0)","(-4.3e-05, -0.003708, 0.000124, 0.004661, 0.00062, 0.00213, 1.6e-05)"
2020/05/26/02:03:46.354573,661,1590426226,299702882,,"['joint_S', 'joint_L', 'joint_E', 'joint_U', 'joint_R', 'joint_B', 'joint_T']","(0, -3, -3, -1, 0, -3, 2)","(0.0, 0.0026, -0.0026, -0.0008, 0.0, -0.0029, -0.0029)","(0.0, 0.0, 0.0, 0.0, 0.0, 0.0, 0.0)","(-4.3e-05, -0.003708, 0.000124, 0.004661, 0.00062, 0.00213, 1.6e-05)"
2020/05/26/02:03:46.410301,662,1590426226,354517936,,"['joint_S', 'joint_L', 'joint_E', 'joint_U', 'joint_R', 'joint_B', 'joint_T']","(0, -3, -3, -1, 0, -3, 2)","(0.0, 0.0026, -0.0026, -0.0008, 0.0, -0.0029, -0.0029)","(0.0, 0.0, 0.0, 0.0, 0.0, 0.0, 0.0)","(-4.3e-05, -0.003708, 0.000124, 0.004661, 0.00062, 0.002132, 1.4e-05)"
2020/05/26/02:03:46.465247,663,1590426226,410036087,,"['joint_S', 'joint_L', 'joint_E', 'joint_U', 'joint_R', 'joint_B', 'joint_T']","(0, -3, -3, -1, 0, -3, 2)","(0.0, 0.0026, -0.0026, -0.0008, 0.0, -0.0029, -0.0029)","(0.0, 0.0, 0.0, 0.0, 0.0, 0.0, 0.0)","(-4.3e-05, -0.003708, 0.000124, 0.004656, 0.00062, 0.002132, 1.4e-05)"
2020/05/26/02:03:46.520720,664,1590426226,465014934,,"['joint_S', 'joint_L', 'joint_E', 'joint_U', 'joint_R', 'joint_B', 'joint_T']","(0, -3, -3, -1, 0, -3, 2)","(0.0, 0.0026, -0.0026, -0.0008, 0.0, -0.0029, -0.0029)","(0.0, 0.0, 0.0, 0.0, 0.0, 0.0, 0.0)","(-4.7e-05, -0.003708, 0.000124, 0.004661, 0.00062, 0.002134, 1.4e-05)"
2020/05/26/02:03:46.575286,665,1590426226,520523071,,"['joint_S', 'joint_L', 'joint_E', 'joint_U', 'joint_R', 'joint_B', 'joint_T']","(0, -3, -3, -1, 0, -3, 2)","(0.0, 0.0026, -0.0026, -0.0008, 0.0, -0.0029, -0.0029)","(0.0, 0.0, 0.0, 0.0, 0.0, 0.0, 0.0)","(-4.5e-05, -0.003708, 0.000124, 0.004661, 0.00062, 0.002134, 1.2e-05)"
2020/05/26/02:03:46.631078,666,1590426226,575279951,,"['joint_S', 'joint_L', 'joint_E', 'joint_U', 'joint_R', 'joint_B', 'joint_T']","(0, -3, -3, -1, 0, -3, 2)","(0.0, 0.0026, -0.0026, -0.0008, 0.0, -0.0029, -0.0029)","(0.0, 0.0, 0.0, 0.0, 0.0, 0.0, 0.0)","(-4.9e-05, -0.003708, 0.000124, 0.004661, 0.00062, 0.002134, 1.2e-05)"
2020/05/26/02:03:46.686287,667,1590426226,630916118,,"['joint_S', 'joint_L', 'joint_E', 'joint_U', 'joint_R', 'joint_B', 'joint_T']","(0, -3, -3, -1, 0, -3, 2)","(0.0, 0.0026, -0.0026, -0.0008, 0.0, -0.0029, -0.0029)","(0.0, 0.0, 0.0, 0.0, 0.0, 0.0, 0.0)","(-4.3e-05, -0.003708, 0.000124, 0.004661, 0.00062, 0.002136, 1.2e-05)"
2020/05/26/02:03:46.742140,668,1590426226,686172962,,"['joint_S', 'joint_L', 'joint_E', 'joint_U', 'joint_R', 'joint_B', 'joint_T']","(0, -3, -3, -1, 0, -3, 2)","(0.0, 0.0026, -0.0026, -0.0008, 0.0, -0.0029, -0.0029)","(0.0, 0.0, 0.0, 0.0, 0.0, 0.0, 0.0)","(-4.5e-05, -0.003708, 0.000124, 0.004661, 0.00062, 0.002136, 1e-05)"
2020/05/26/02:03:46.795786,669,1590426226,742083072,,"['joint_S', 'joint_L', 'joint_E', 'joint_U', 'joint_R', 'joint_B', 'joint_T']","(0, -3, -3, -1, 0, -3, 2)","(0.0, 0.0026, -0.0026, -0.0008, 0.0, -0.0029, -0.0029)","(0.0, 0.0, 0.0, 0.0, 0.0, 0.0, 0.0)","(-4.9e-05, -0.003708, 0.000124, 0.004661, 0.00062, 0.002138, 1e-05)"
2020/05/26/02:03:46.848643,670,1590426226,795557022,,"['joint_S', 'joint_L', 'joint_E', 'joint_U', 'joint_R', 'joint_B', 'joint_T']","(0, -3, -3, -1, 0, -3, 2)","(0.0, 0.0026, -0.0026, -0.0008, 0.0, -0.0029, -0.0029)","(0.0, 0.0, 0.0, 0.0, 0.0, 0.0, 0.0)","(-4.3e-05, -0.003545, 0.000147, 0.004508, 0.00062, 0.001949, 1e-05)"
2020/05/26/02:03:46.902486,671,1590426226,848603010,,"['joint_S', 'joint_L', 'joint_E', 'joint_U', 'joint_R', 'joint_B', 'joint_T']","(0, -3, -3, -2, 0, -4, 2)","(0.0, 0.0026, -0.0026, -0.0017, 0.0, -0.0039, -0.0029)","(0.0, 0.0, 0.0, -124.8, 0.0, -124.8, 0.0)","(-4.3e-05, -0.002955, 0.000197, 0.003935, 0.00063, -3.7e-05, 1.2e-05)"
2020/05/26/02:03:46.956496,672,1590426226,902317047,,"['joint_S', 'joint_L', 'joint_E', 'joint_U', 'joint_R', 'joint_B', 'joint_T']","(0, -2, -3, -2, 0, -77, 2)","(0.0, 0.0017, -0.0026, -0.0017, 0.0, -0.076, -0.0029)","(0.0, 124.0, 0.0, 0.0, 0.0, -2995.2, 0.0)","(-4.3e-05, -0.002139, 0.000276, 0.0032, 0.000642, -0.00108, 2.4e-05)"
2020/05/26/02:03:47.011507,673,1590426226,956329107,,"['joint_S', 'joint_L', 'joint_E', 'joint_U', 'joint_R', 'joint_B', 'joint_T']","(0, 0, -3, -4, 0, -329, 2)","(0.0, 0.0, -0.0026, -0.0034, 0.0, -0.3248, -0.0029)","(0.0, 0.0, 0.0, -124.8, 0.0, -6240.0, 0.0)","(-4.3e-05, -0.001253, 0.000367, 0.002483, 0.000653, -0.000728, 3.7e-05)"
2020/05/26/02:03:47.065563,674,1590426227,11444091,,"['joint_S', 'joint_L', 'joint_E', 'joint_U', 'joint_R', 'joint_B', 'joint_T']","(0, 3, -3, -5, 0, -754, 2)","(0.0, -0.0026, -0.0026, -0.0043, 0.0, -0.7446, -0.0029)","(0.0, 124.8, 0.0, 0.0, 0.0, -9360.0, 0.0)","(-4.3e-05, -0.001239, 0.000446, 0.002186, 0.000659, -0.000898, 4.3e-05)"
2020/05/26/02:03:47.118489,675,1590426227,65309047,,"['joint_S', 'joint_L', 'joint_E', 'joint_U', 'joint_R', 'joint_B', 'joint_T']","(0, 6, -3, -6, 0, -1367, 2)","(0.0, -0.0052, -0.0026, -0.0052, 0.0, -1.3499, -0.0029)","(0.0, 0.0, 0.0, 0.0, 0.0, -12979.2, 0.0)","(-4.5e-05, -0.001511, 0.000521, 0.00214, 0.000663, -0.001128, 4.5e-05)"
2020/05/26/02:03:47.172392,676,1590426227,118283987,,"['joint_S', 'joint_L', 'joint_E', 'joint_U', 'joint_R', 'joint_B', 'joint_T']","(0, 6, -3, -8, 0, -2150, 2)","(0.0, -0.0052, -0.0026, -0.0069, 0.0, -2.1232, -0.0029)","(0.0, 0.0, 0.0, -124.8, 0.0, -15724.8, 0.0)","(-4.3e-05, -0.002012, 0.00058, 0.002301, 0.000663, -0.001346, 4.7e-05)"
2020/05/26/02:03:47.227110,677,1590426227,172255992,,"['joint_S', 'joint_L', 'joint_E', 'joint_U', 'joint_R', 'joint_B', 'joint_T']","(0, 6, -3, -8, 0, -3081, 2)","(0.0, -0.0052, -0.0026, -0.0069, 0.0, -3.0425, -0.0029)","(0.0, 0.0, 0.0, 0.0, 0.0, -18470.4, 0.0)","(-4.5e-05, -0.002627, 0.000614, 0.00248, 0.000665, -0.001298, 4.7e-05)"
2020/05/26/02:03:47.281472,678,1590426227,227082967,,"['joint_S', 'joint_L', 'joint_E', 'joint_U', 'joint_R', 'joint_B', 'joint_T']","(0, 5, -3, -9, 0, -4123, 2)","(0.0, -0.0043, -0.0026, -0.0078, 0.0, -4.0716, -0.0029)","(0.0, 0.0, 0.0, 0.0, 0.0, -19968.0, 0.0)","(-4.5e-05, -0.00332, 0.00068, 0.002802, 0.000665, -0.001731, 4.7e-05)"
2020/05/26/02:03:47.335229,679,1590426227,281316041,,"['joint_S', 'joint_L', 'joint_E', 'joint_U', 'joint_R', 'joint_B', 'joint_T']","(0, 4, -3, -8, 0, -5256, 2)","(0.0, -0.0034, -0.0026, -0.0069, 0.0, -5.1904, -0.0029)","(124.8, 0.0, 0.0, 0.0, 0.0, -21715.2, 0.0)","(-6.8e-05, -0.004039, 0.000759, 0.0032, 0.000665, -0.001524, 4.7e-05)"
2020/05/26/02:03:47.388750,680,1590426227,335056066,,"['joint_S', 'joint_L', 'joint_E', 'joint_U', 'joint_R', 'joint_B', 'joint_T']","(0, 4, -2, -8, 0, -6447, 2)","(0.0, -0.0034, -0.0017, -0.0069, 0.0, -6.3666, -0.0029)","(0.0, 0.0, 0.0, 124.8, 0.0, -22089.6, 0.0)","(-5.8e-05, -0.004757, 0.000775, 0.003618, 0.000665, -0.001617, 4.5e-05)"
2020/05/26/02:03:47.442773,681,1590426227,388727903,,"['joint_S', 'joint_L', 'joint_E', 'joint_U', 'joint_R', 'joint_B', 'joint_T']","(0, 3, -2, -8, 0, -7674, 2)","(0.0, -0.0026, -0.0017, -0.0069, 0.0, -7.5783, -0.0029)","(0.0, 0.0, 0.0, 0.0, 0.0, -23088.0, 0.0)","(-4e-05, -0.005174, 0.0008, 0.003744, 0.000665, -0.001487, 4.5e-05)"
2020/05/26/02:03:47.498381,682,1590426227,442616939,,"['joint_S', 'joint_L', 'joint_E', 'joint_U', 'joint_R', 'joint_B', 'joint_T']","(0, 2, -2, -8, 0, -8941, 2)","(0.0, -0.0017, -0.0017, -0.0069, 0.0, -8.8295, -0.0029)","(124.8, 0.0, 0.0, 0.0, 0.0, -23961.6, 0.0)","(-6.5e-05, -0.005165, 0.000827, 0.00355, 0.000665, -0.002011, 4.9e-05)"
2020/05/26/02:03:47.553713,683,1590426227,498205900,,"['joint_S', 'joint_L', 'joint_E', 'joint_U', 'joint_R', 'joint_B', 'joint_T']","(0, 2, -2, -8, 0, -10350, 2)","(0.0, -0.0017, -0.0017, -0.0069, 0.0, -10.2209, -0.0029)","(0.0, 0.0, 0.0, 0.0, 0.0, -26083.2, 0.0)","(-3.6e-05, -0.005043, 0.00085, 0.003432, 0.000665, -0.001814, 5.6e-05)"
2020/05/26/02:03:47.607088,684,1590426227,553556919,,"['joint_S', 'joint_L', 'joint_E', 'joint_U', 'joint_R', 'joint_B', 'joint_T']","(0, 1, -2, -8, 0, -11842, 2)","(0.0, -0.0008, -0.0017, -0.0069, 0.0, -11.6943, -0.0029)","(0.0, 0.0, 0.0, 0.0, 0.0, -28204.8, 0.0)","(-5.6e-05, -0.00505, 0.000852, 0.003552, 0.000665, -0.001843, 6e-05)"
2020/05/26/02:03:47.663130,685,1590426227,606945037,,"['joint_S', 'joint_L', 'joint_E', 'joint_U', 'joint_R', 'joint_B', 'joint_T']","(0, 0, -2, -7, 0, -13409, 2)","(0.0, 0.0, -0.0017, -0.006, 0.0, -13.2418, -0.0029)","(0.0, -124.0, 0.0, 0.0, 0.0, -29702.4, 0.0)","(-2e-05, -0.00512, 0.00089, 0.004007, 0.000665, -0.002248, 5.8e-05)"
2020/05/26/02:03:47.716935,686,1590426227,662919998,,"['joint_S', 'joint_L', 'joint_E', 'joint_U', 'joint_R', 'joint_B', 'joint_T']","(0, 0, -2, -7, 0, -15075, 2)","(0.0, 0.0, -0.0017, -0.006, 0.0, -14.887, -0.0029)","(0.0, 0.0, 0.0, 124.8, 0.0, -30201.6, 0.0)","(-3.1e-05, -0.005582, 0.000899, 0.004611, 0.000665, -0.002055, 5.3e-05)"
2020/05/26/02:03:47.771689,687,1590426227,716892957,,"['joint_S', 'joint_L', 'joint_E', 'joint_U', 'joint_R', 'joint_B', 'joint_T']","(0, -3, -2, -6, 0, -16747, 2)","(0.0, 0.0026, -0.0017, -0.0052, 0.0, -16.5382, -0.0029)","(0.0, 0.0, 0.0, 0.0, 0.0, -30451.2, 0.0)","(-3.6e-05, -0.005591, 0.000918, 0.005163, 0.000659, -0.001966, 4.9e-05)"
2020/05/26/02:03:47.827842,688,1590426227,771639108,,"['joint_S', 'joint_L', 'joint_E', 'joint_U', 'joint_R', 'joint_B', 'joint_T']","(0, -4, -2, -6, 0, -18394, 2)","(0.0, 0.0034, -0.0017, -0.0052, 0.0, -18.1647, -0.0029)","(0.0, 0.0, 0.0, 0.0, 0.0, -29577.6, 0.0)","(-3.1e-05, -0.005369, 0.000931, 0.005483, 0.000638, -0.0018, 4.7e-05)"
2020/05/26/02:03:47.882869,689,1590426227,827770948,,"['joint_S', 'joint_L', 'joint_E', 'joint_U', 'joint_R', 'joint_B', 'joint_T']","(0, -4, -2, -5, 0, -20012, 2)","(0.0, 0.0034, -0.0017, -0.0043, 0.0, -19.7625, -0.0029)","(0.0, 0.0, 0.0, 0.0, 0.0, -29512.0, 0.0)","(-2.4e-05, -0.005052, 0.00094, 0.005602, 0.000636, -0.001866, 4.7e-05)"
2020/05/26/02:03:47.937301,690,1590426227,882808923,,"['joint_S', 'joint_L', 'joint_E', 'joint_U', 'joint_R', 'joint_B', 'joint_T']","(0, -4, -2, -4, 0, -21611, 2)","(0.0, 0.0034, -0.0017, -0.0034, 0.0, -21.3416, -0.0029)","(0.0, 0.0, 0.0, 0.0, 0.0, -29203.2, 0.0)","(-6e-06, -0.004653, 0.000947, 0.005695, 0.00063, -0.002177, 4.7e-05)"
2020/05/26/02:03:47.993006,691,1590426227,937058925,,"['joint_S', 'joint_L', 'joint_E', 'joint_U', 'joint_R', 'joint_B', 'joint_T']","(0, -4, -2, -4, 0, -23211, 2)","(0.0, 0.0034, -0.0017, -0.0034, 0.0, -22.9216, -0.0029)","(0.0, 0.0, 0.0, 0.0, 0.0, -28953.6, 0.0)","(-2.2e-05, -0.004342, 0.000949, 0.005845, 0.000624, -0.002196, 4.7e-05)"
2020/05/26/02:03:48.047145,692,1590426227,992921113,,"['joint_S', 'joint_L', 'joint_E', 'joint_U', 'joint_R', 'joint_B', 'joint_T']","(0, -4, -2, -4, 0, -24809, 2)","(0.0, 0.0034, -0.0017, -0.0034, 0.0, -24.4997, -0.0029)","(0.0, 0.0, 0.0, 0.0, 0.0, -28953.6, 0.0)","(-1.5e-05, -0.004152, 0.000952, 0.006037, 0.000649, -0.001883, 4.7e-05)"
2020/05/26/02:03:48.102014,693,1590426228,47071933,,"['joint_S', 'joint_L', 'joint_E', 'joint_U', 'joint_R', 'joint_B', 'joint_T']","(0, -3, -2, -4, 0, -26402, 2)","(0.0, 0.0026, -0.0017, -0.0034, 0.0, -26.0729, -0.0029)","(-124.8, 124.0, 0.0, 0.0, 124.0, -29452.8, 0.0)","(-4e-06, -0.004, 0.000954, 0.006171, 0.000614, -0.001825, 4.7e-05)"
2020/05/26/02:03:48.158419,694,1590426228,101933002,,"['joint_S', 'joint_L', 'joint_E', 'joint_U', 'joint_R', 'joint_B', 'joint_T']","(0, -3, -2, -3, 0, -27997, 2)","(0.0, 0.0026, -0.0017, -0.0026, 0.0, -27.648, -0.0029)","(-124.8, 124.8, 0.0, 0.0, 0.0, -28828.8, 0.0)","(-6e-06, -0.003751, 0.000954, 0.006229, 0.000622, -0.002096, 4.5e-05)"
2020/05/26/02:03:48.214687,695,1590426228,158237934,,"['joint_S', 'joint_L', 'joint_E', 'joint_U', 'joint_R', 'joint_B', 'joint_T']","(0, -3, -2, -2, 0, -29620, 2)","(0.0, 0.0026, -0.0017, -0.0017, 0.0, -29.2507, -0.0029)","(0.0, 0.0, 0.0, 0.0, 0.0, -29078.4, 0.0)","(-3.8e-05, -0.00347, 0.000929, 0.0062, 0.00062, -0.002368, 4.5e-05)"
2020/05/26/02:03:48.269097,696,1590426228,214381933,,"['joint_S', 'joint_L', 'joint_E', 'joint_U', 'joint_R', 'joint_B', 'joint_T']","(0, -3, -2, -2, 0, -31221, 2)","(0.0, 0.0026, -0.0017, -0.0017, 0.0, -30.8318, -0.0029)","(0.0, 0.0, 0.0, 124.8, 0.0, -28828.8, 0.0)","(-0.000115, -0.003343, 0.000936, 0.006262, 0.00064, -0.002123, 4.5e-05)"
2020/05/26/02:03:48.323730,697,1590426228,268898010,,"['joint_S', 'joint_L', 'joint_E', 'joint_U', 'joint_R', 'joint_B', 'joint_T']","(0, -3, -2, -2, 0, -32818, 2)","(0.0, 0.0026, -0.0017, -0.0017, 0.0, -32.4089, -0.0029)","(0.0, 0.0, 0.0, 0.0, 0.0, -28953.6, 0.0)","(-0.00021, -0.003311, 0.000961, 0.006342, 0.000638, -0.00198, 4.3e-05)"
2020/05/26/02:03:48.379882,698,1590426228,323673963,,"['joint_S', 'joint_L', 'joint_E', 'joint_U', 'joint_R', 'joint_B', 'joint_T']","(0, -3, -2, -2, 0, -34440, 2)","(0.0, 0.0026, -0.0017, -0.0017, 0.0, -34.0107, -0.0029)","(0.0, 0.0, 0.0, 0.0, 0.0, -29078.4, 0.0)","(-0.000251, -0.003202, 0.001022, 0.006328, 0.000649, -0.001993, 4.3e-05)"
2020/05/26/02:03:48.435729,699,1590426228,379822015,,"['joint_S', 'joint_L', 'joint_E', 'joint_U', 'joint_R', 'joint_B', 'joint_T']","(0, -3, -2, -1, 0, -36064, 2)","(0.0, 0.0026, -0.0017, -0.0008, 0.0, -35.6144, -0.0029)","(0.0, 0.0, 0.0, 0.0, 0.0, -28953.6, 0.0)","(-0.00031, -0.003112, 0.001088, 0.006262, 0.000634, -0.002144, 4.1e-05)"
2020/05/26/02:03:48.492930,700,1590426228,435575962,,"['joint_S', 'joint_L', 'joint_E', 'joint_U', 'joint_R', 'joint_B', 'joint_T']","(0, -3, -2, -1, 0, -37687, 2)","(0.0, 0.0026, -0.0017, -0.0008, 0.0, -37.2172, -0.0029)","(0.0, 0.0, 0.0, 0.0, 0.0, -28828.8, 0.0)","(-0.000358, -0.002989, 0.001124, 0.00612, 0.000612, -0.002482, 4.1e-05)"
2020/05/26/02:03:48.549622,701,1590426228,492732048,,"['joint_S', 'joint_L', 'joint_E', 'joint_U', 'joint_R', 'joint_B', 'joint_T']","(0, -2, -1, -1, 0, -39319, 2)","(0.0, 0.0017, -0.0008, -0.0008, 0.0, -38.8288, -0.0029)","(0.0, 0.0, 0.0, 0.0, 0.0, -28953.6, 0.0)","(-0.000376, -0.002946, 0.001149, 0.006087, 0.000644, -0.00231, 4.1e-05)"
2020/05/26/02:03:48.603902,702,1590426228,549537897,,"['joint_S', 'joint_L', 'joint_E', 'joint_U', 'joint_R', 'joint_B', 'joint_T']","(0, -2, -1, -1, 0, -40944, 2)","(0.0, 0.0017, -0.0008, -0.0008, 0.0, -40.4336, -0.0029)","(0.0, 0.0, 0.0, 0.0, 0.0, -28953.6, 0.0)","(-0.000453, -0.002935, 0.001153, 0.006132, 0.00063, -0.002057, 3.9e-05)"
2020/05/26/02:03:48.661106,703,1590426228,603893041,,"['joint_S', 'joint_L', 'joint_E', 'joint_U', 'joint_R', 'joint_B', 'joint_T']","(0, -2, -1, -1, 0, -42565, 2)","(0.0, 0.0017, -0.0008, -0.0008, 0.0, -42.0344, -0.0029)","(0.0, 0.0, 0.0, 0.0, 0.0, -29452.8, 0.0)","(-0.00051, -0.002935, 0.001158, 0.006084, 0.000628, -0.002128, 3.9e-05)"
2020/05/26/02:03:48.717156,704,1590426228,660924911,,"['joint_S', 'joint_L', 'joint_E', 'joint_U', 'joint_R', 'joint_B', 'joint_T']","(-1, -2, -1, -1, 0, -44189, 2)","(-0.0008, 0.0017, -0.0008, -0.0008, 0.0, -43.6381, -0.0029)","(0.0, 0.0, 0.0, 0.0, -124.8, -28953.6, 0.0)","(-0.000528, -0.00288, 0.001158, 0.005998, 0.000642, -0.00241, 3.7e-05)"
2020/05/26/02:03:48.772730,705,1590426228,717145919,,"['joint_S', 'joint_L', 'joint_E', 'joint_U', 'joint_R', 'joint_B', 'joint_T']","(-1, -2, -1, -1, 0, -45842, 2)","(-0.0008, 0.0017, -0.0008, -0.0008, 0.0, -45.2705, -0.0029)","(0.0, 0.0, 0.0, 0.0, 0.0, -28828.8, 0.0)","(-0.000564, -0.002826, 0.00114, 0.005848, 0.000636, -0.002822, 3.7e-05)"
2020/05/26/02:03:48.830407,706,1590426228,772605895,,"['joint_S', 'joint_L', 'joint_E', 'joint_U', 'joint_R', 'joint_B', 'joint_T']","(-1, -2, -1, -1, 0, -47474, 2)","(-0.0008, 0.0017, -0.0008, -0.0008, 0.0, -46.8822, -0.0029)","(-124.8, 0.0, 0.0, 0.0, 0.0, -28704.0, 0.0)","(-0.000559, -0.002828, 0.001103, 0.005817, 0.000612, -0.002532, 3.7e-05)"
2020/05/26/02:03:48.887537,707,1590426228,830276966,,"['joint_S', 'joint_L', 'joint_E', 'joint_U', 'joint_R', 'joint_B', 'joint_T']","(-1, -2, -1, -1, 0, -49128, 2)","(-0.0008, 0.0017, -0.0008, -0.0008, 0.0, -48.5156, -0.0029)","(0.0, 0.0, 0.0, 0.0, 0.0, -29203.2, 0.0)","(-0.000652, -0.00284, 0.001072, 0.005819, 0.000622, -0.002188, 3.5e-05)"
2020/05/26/02:03:48.943507,708,1590426228,887351989,,"['joint_S', 'joint_L', 'joint_E', 'joint_U', 'joint_R', 'joint_B', 'joint_T']","(-1, -2, -1, -1, 0, -50750, 2)","(-0.0008, 0.0017, -0.0008, -0.0008, 0.0, -50.1174, -0.0029)","(0.0, 0.0, 0.0, 0.0, 0.0, -29203.2, 0.0)","(-0.000652, -0.002862, 0.00104, 0.005738, 0.000626, -0.002318, 3.5e-05)"
2020/05/26/02:03:48.998933,709,1590426228,943444013,,"['joint_S', 'joint_L', 'joint_E', 'joint_U', 'joint_R', 'joint_B', 'joint_T']","(-1, -2, -1, -1, 0, -52374, 2)","(-0.0008, 0.0017, -0.0008, -0.0008, 0.0, -51.7211, -0.0029)","(0.0, 0.0, 0.0, 0.0, 0.0, -29203.2, 0.0)","(-0.000666, -0.002828, 0.00101, 0.005676, 0.000636, -0.002607, 3.5e-05)"
2020/05/26/02:03:49.055597,710,1590426228,998754978,,"['joint_S', 'joint_L', 'joint_E', 'joint_U', 'joint_R', 'joint_B', 'joint_T']","(-1, -2, -1, -1, 0, -53997, 2)","(-0.0008, 0.0017, -0.0008, -0.0008, 0.0, -53.3239, -0.0029)","(0.0, 0.0, 0.0, 0.0, 0.0, -28579.2, 0.0)","(-0.000684, -0.002815, 0.000979, 0.005551, 0.000624, -0.003001, 3.3e-05)"
2020/05/26/02:03:49.110665,711,1590426229,55531024,,"['joint_S', 'joint_L', 'joint_E', 'joint_U', 'joint_R', 'joint_B', 'joint_T']","(-1, -2, -1, -1, 0, -55655, 2)","(-0.0008, 0.0017, -0.0008, -0.0008, 0.0, -54.9612, -0.0029)","(0.0, 0.0, 0.0, 0.0, 0.0, -28828.8, 0.0)","(-0.000704, -0.00281, 0.00094, 0.005503, 0.000622, -0.002598, 3.3e-05)"
2020/05/26/02:03:49.167035,712,1590426229,110531091,,"['joint_S', 'joint_L', 'joint_E', 'joint_U', 'joint_R', 'joint_B', 'joint_T']","(-1, -2, -1, -1, 0, -57277, 2)","(-0.0008, 0.0017, -0.0008, -0.0008, 0.0, -56.563, -0.0029)","(0.0, 0.0, 0.0, 0.0, 0.0, -28953.6, 0.0)","(-0.00072, -0.002817, 0.000904, 0.005522, 0.000622, -0.002233, 3.1e-05)"
2020/05/26/02:03:49.223500,713,1590426229,166913032,,"['joint_S', 'joint_L', 'joint_E', 'joint_U', 'joint_R', 'joint_B', 'joint_T']","(-1, -2, -1, -1, 0, -58891, 2)","(-0.0008, 0.0017, -0.0008, -0.0008, 0.0, -58.1569, -0.0029)","(0.0, 0.0, 0.0, 0.0, 0.0, -29078.4, 0.0)","(-0.000741, -0.002835, 0.000868, 0.005477, 0.000599, -0.002567, 3.1e-05)"
2020/05/26/02:03:49.280332,714,1590426229,223287105,,"['joint_S', 'joint_L', 'joint_E', 'joint_U', 'joint_R', 'joint_B', 'joint_T']","(-1, -2, -1, -1, 0, -60508, 2)","(-0.0008, 0.0017, -0.0008, -0.0008, 0.0, -59.7537, -0.0029)","(0.0, 0.0, 0.0, 0.0, 0.0, -29328.0, 0.0)","(-0.000786, -0.002799, 0.000834, 0.005339, 0.000605, -0.003053, 3.1e-05)"
2020/05/26/02:03:49.335725,715,1590426229,280077934,,"['joint_S', 'joint_L', 'joint_E', 'joint_U', 'joint_R', 'joint_B', 'joint_T']","(-1, -2, -1, -1, 0, -62129, 2)","(-0.0008, 0.0017, -0.0008, -0.0008, 0.0, -61.3545, -0.0029)","(0.0, -124.8, 0.0, 0.0, 0.0, -28579.2, 0.0)","(-0.000845, -0.002744, 0.000797, 0.005244, 0.000622, -0.003187, 2.9e-05)"
2020/05/26/02:03:49.394590,716,1590426229,335561990,,"['joint_S', 'joint_L', 'joint_E', 'joint_U', 'joint_R', 'joint_B', 'joint_T']","(-1, -2, -1, -1, 0, -63788, 2)","(-0.0008, 0.0017, -0.0008, -0.0008, 0.0, -62.9928, -0.0029)","(0.0, -124.8, 0.0, 0.0, 0.0, -28953.6, 0.0)","(-0.000922, -0.002731, 0.000761, 0.005229, 0.000605, -0.002739, 2.9e-05)"
2020/05/26/02:03:49.450523,717,1590426229,394433021,,"['joint_S', 'joint_L', 'joint_E', 'joint_U', 'joint_R', 'joint_B', 'joint_T']","(-1, -2, -1, -1, 0, -65467, 2)","(-0.0008, 0.0017, -0.0008, -0.0008, 0.0, -64.6509, -0.0029)","(0.0, 0.0, 0.0, 0.0, 0.0, -29203.2, 0.0)","(-0.000981, -0.002767, 0.000741, 0.005207, 0.000605, -0.002544, 2.9e-05)"
2020/05/26/02:03:49.506173,718,1590426229,450370073,,"['joint_S', 'joint_L', 'joint_E', 'joint_U', 'joint_R', 'joint_B', 'joint_T']","(-1, -2, -1, -1, 0, -67088, 2)","(-0.0008, 0.0017, -0.0008, -0.0008, 0.0, -66.2517, -0.0029)","(0.0, 0.0, 0.0, 0.0, 0.0, -29328.0, 0.0)","(-0.001031, -0.002767, 0.000748, 0.005145, 0.000599, -0.002683, 2.6e-05)"
2020/05/26/02:03:49.565223,719,1590426229,506166934,,"['joint_S', 'joint_L', 'joint_E', 'joint_U', 'joint_R', 'joint_B', 'joint_T']","(-1, -2, -1, -1, 0, -68711, 2)","(-0.0008, 0.0017, -0.0008, -0.0008, 0.0, -67.8545, -0.0029)","(0.0, 0.0, 0.0, 0.0, 0.0, -29203.2, 0.0)","(-0.001083, -0.002747, 0.000795, 0.005025, 0.000605, -0.003304, 2.6e-05)"
2020/05/26/02:03:49.620984,720,1590426229,565195083,,"['joint_S', 'joint_L', 'joint_E', 'joint_U', 'joint_R', 'joint_B', 'joint_T']","(-1, -2, -1, -1, 0, -70397, 2)","(-0.0008, 0.0017, -0.0008, -0.0008, 0.0, -69.5195, -0.0029)","(0.0, 0.0, 0.0, 0.0, 0.0, -28454.4, 0.0)","(-0.00111, -0.002681, 0.00087, 0.004838, 0.00062, -0.003573, 2.6e-05)"
2020/05/26/02:03:49.677603,721,1590426229,620867013,,"['joint_S', 'joint_L', 'joint_E', 'joint_U', 'joint_R', 'joint_B', 'joint_T']","(-2, -2, -1, -1, 0, -72040, 2)","(-0.0017, 0.0017, -0.0008, -0.0008, 0.0, -71.142, -0.0029)","(-124.8, 0.0, 0.0, 0.0, 0.0, -29203.2, 0.0)","(-0.001097, -0.002649, 0.000911, 0.004646, 0.000605, -0.003144, 2.6e-05)"
2020/05/26/02:03:49.732950,722,1590426229,677603006,,"['joint_S', 'joint_L', 'joint_E', 'joint_U', 'joint_R', 'joint_B', 'joint_T']","(-2, -2, -1, -2, 0, -73699, 2)","(-0.0017, 0.0017, -0.0008, -0.0017, 0.0, -72.7803, -0.0029)","(0.0, 0.0, 0.0, 0.0, 0.0, -30201.6, 0.0)","(-0.001158, -0.002604, 0.000981, 0.004529, 0.000605, -0.00286, 2.6e-05)"
2020/05/26/02:03:49.790160,723,1590426229,732901096,,"['joint_S', 'joint_L', 'joint_E', 'joint_U', 'joint_R', 'joint_B', 'joint_T']","(-2, -2, -1, -2, 0, -75390, 2)","(-0.0017, 0.0017, -0.0008, -0.0017, 0.0, -74.4502, -0.0029)","(0.0, 0.0, 0.0, 0.0, 0.0, -30451.2, 0.0)","(-0.001167, -0.002604, 0.001024, 0.004477, 0.000595, -0.002941, 2.6e-05)"
2020/05/26/02:03:49.846713,724,1590426229,790082931,,"['joint_S', 'joint_L', 'joint_E', 'joint_U', 'joint_R', 'joint_B', 'joint_T']","(-2, -2, 0, -1, 0, -77148, 2)","(-0.0017, 0.0017, 0.0, -0.0008, 0.0, -76.1863, -0.0029)","(0.0, 0.0, 0.0, 0.0, 0.0, -30326.4, 0.0)","(-0.001178, -0.002713, 0.001063, 0.004716, 0.000605, -0.00331, 1.8e-05)"
2020/05/26/02:03:49.902486,725,1590426229,846592903,,"['joint_S', 'joint_L', 'joint_E', 'joint_U', 'joint_R', 'joint_B', 'joint_T']","(-2, -2, 0, -1, 0, -78834, 2)","(-0.0017, 0.0017, 0.0, -0.0008, 0.0, -77.8513, -0.0029)","(0.0, 0.0, 0.0, 0.0, -124.8, -28204.8, 0.0)","(-0.001187, -0.00281, 0.001081, 0.004951, 0.000624, -0.003942, 8e-06)"
2020/05/26/02:03:49.959260,726,1590426229,902333021,,"['joint_S', 'joint_L', 'joint_E', 'joint_U', 'joint_R', 'joint_B', 'joint_T']","(-2, -2, 0, -1, 0, -80370, 2)","(-0.0017, 0.0017, 0.0, -0.0008, 0.0, -79.3682, -0.0029)","(0.0, 0.0, 0.0, 0.0, 0.0, -26457.6, 0.0)","(-0.001185, -0.002908, 0.001097, 0.005052, 0.000616, -0.003256, 0.0)"
2020/05/26/02:03:50.014719,727,1590426229,959095954,,"['joint_S', 'joint_L', 'joint_E', 'joint_U', 'joint_R', 'joint_B', 'joint_T']","(-2, -2, 0, -1, 0, -81807, 2)","(-0.0017, 0.0017, 0.0, -0.0008, 0.0, -80.7872, -0.0029)","(0.0, 0.0, 0.0, 0.0, 0.0, -24710.4, 0.0)","(-0.00118, -0.002935, 0.001112, 0.00506, 0.000601, -0.002775, -6e-06)"
2020/05/26/02:03:50.071546,728,1590426230,14523029,,"['joint_S', 'joint_L', 'joint_E', 'joint_U', 'joint_R', 'joint_B', 'joint_T']","(-2, -2, 0, -1, 0, -83145, 2)","(-0.0017, 0.0017, 0.0, -0.0008, 0.0, -82.1086, -0.0029)","(0.0, 0.0, 0.0, 0.0, 0.0, -23462.4, 0.0)","(-0.001169, -0.002928, 0.001122, 0.004881, 0.000614, -0.002766, 4e-06)"
2020/05/26/02:03:50.127811,729,1590426230,71253061,,"['joint_S', 'joint_L', 'joint_E', 'joint_U', 'joint_R', 'joint_B', 'joint_T']","(-2, -2, 0, -1, 0, -84424, 2)","(-0.0017, 0.0017, 0.0, -0.0008, 0.0, -83.3716, -0.0029)","(0.0, 0.0, 0.0, 0.0, 0.0, -22713.6, 0.0)","(-0.00114, -0.002924, 0.001122, 0.004786, 0.000616, -0.00286, -4e-06)"
2020/05/26/02:03:50.182525,730,1590426230,127785921,,"['joint_S', 'joint_L', 'joint_E', 'joint_U', 'joint_R', 'joint_B', 'joint_T']","(-2, -2, 0, -1, 0, -85684, 2)","(-0.0017, 0.0017, 0.0, -0.0008, 0.0, -84.6159, -0.0029)","(0.0, 0.0, 0.0, 0.0, 0.0, -21964.8, 0.0)","(-0.001137, -0.002924, 0.001115, 0.004877, 0.000614, -0.002914, 0.0)"
2020/05/26/02:03:50.238187,731,1590426230,182442903,,"['joint_S', 'joint_L', 'joint_E', 'joint_U', 'joint_R', 'joint_B', 'joint_T']","(-2, -2, 0, -1, 0, -86842, 2)","(-0.0017, 0.0017, 0.0, -0.0008, 0.0, -85.7595, -0.0029)","(0.0, -124.8, 0.0, 0.0, 0.0, -20342.4, -124.8)","(-0.001122, -0.002908, 0.001101, 0.00498, 0.000614, -0.003167, -6e-06)"
2020/05/26/02:03:50.294538,732,1590426230,238043069,,"['joint_S', 'joint_L', 'joint_E', 'joint_U', 'joint_R', 'joint_B', 'joint_T']","(-2, -2, 0, -1, 0, -87942, 2)","(-0.0017, 0.0017, 0.0, -0.0008, 0.0, -86.8458, -0.0029)","(0.0, 0.0, 0.0, 0.0, 0.0, -18220.8, 0.0)","(-0.001101, -0.002985, 0.00109, 0.005102, 0.000614, -0.003001, -1.4e-05)"
2020/05/26/02:03:50.347781,733,1590426230,294487953,,"['joint_S', 'joint_L', 'joint_E', 'joint_U', 'joint_R', 'joint_B', 'joint_T']","(-2, -2, 0, 0, 0, -88897, 2)","(-0.0017, 0.0017, 0.0, 0.0, 0.0, -87.7889, -0.0029)","(0.0, 0.0, 0.0, 124.8, 0.0, -15974.4, 0.0)","(-0.001094, -0.003028, 0.001074, 0.005256, 0.000614, -0.003216, -2.2e-05)"
2020/05/26/02:03:50.402325,734,1590426230,347588062,,"['joint_S', 'joint_L', 'joint_E', 'joint_U', 'joint_R', 'joint_B', 'joint_T']","(-2, -3, 0, 0, 0, -89701, 2)","(-0.0017, 0.0026, 0.0, 0.0, 0.0, -88.5828, -0.0029)","(0.0, 0.0, 0.0, 0.0, 0.0, -13228.8, 0.0)","(-0.001074, -0.003087, 0.001054, 0.005518, 0.000614, -0.002688, -3.3e-05)"
2020/05/26/02:03:50.461172,735,1590426230,402127981,,"['joint_S', 'joint_L', 'joint_E', 'joint_U', 'joint_R', 'joint_B', 'joint_T']","(-2, -3, 0, 0, 0, -90340, 2)","(-0.0017, 0.0026, 0.0, 0.0, 0.0, -89.2139, -0.0029)","(0.0, 0.0, 0.0, 0.0, 0.0, -9484.8, 0.0)","(-0.001058, -0.003139, 0.001022, 0.005753, 0.000614, -0.002356, -4.3e-05)"
2020/05/26/02:03:50.516827,736,1590426230,461103916,,"['joint_S', 'joint_L', 'joint_E', 'joint_U', 'joint_R', 'joint_B', 'joint_T']","(-2, -3, 0, 1, 0, -90796, 2)","(-0.0017, 0.0026, 0.0, 0.0008, 0.0, -89.6642, -0.0029)","(0.0, 0.0, 0.0, 0.0, 0.0, -5740.8, 0.0)","(-0.001033, -0.003162, 0.001008, 0.005749, 0.000614, -0.002169, -4.9e-05)"
2020/05/26/02:03:50.574011,737,1590426230,516680002,,"['joint_S', 'joint_L', 'joint_E', 'joint_U', 'joint_R', 'joint_B', 'joint_T']","(-2, -3, 0, 1, 0, -91036, 2)","(-0.0017, 0.0026, 0.0, 0.0008, 0.0, -89.9012, -0.0029)","(0.0, 0.0, 0.0, 0.0, 0.0, -2496.0, 0.0)","(-0.00101, -0.003139, 0.000992, 0.005567, 0.000614, -0.002034, -4.9e-05)"
2020/05/26/02:03:50.631479,738,1590426230,573930025,,"['joint_S', 'joint_L', 'joint_E', 'joint_U', 'joint_R', 'joint_B', 'joint_T']","(-2, -3, 0, 1, 0, -91124, 2)","(-0.0017, 0.0026, 0.0, 0.0008, 0.0, -89.9881, -0.0029)","(0.0, 0.0, 0.0, 0.0, 0.0, -624.0, 0.0)","(-0.000983, -0.003035, 0.000976, 0.005207, 0.000614, -0.002264, -4.7e-05)"
2020/05/26/02:03:50.690941,739,1590426230,631339073,,"['joint_S', 'joint_L', 'joint_E', 'joint_U', 'joint_R', 'joint_B', 'joint_T']","(-2, -3, 0, 1, 0, -91134, 2)","(-0.0017, 0.0026, 0.0, 0.0008, 0.0, -89.998, -0.0029)","(0.0, 0.0, 0.0, 0.0, 0.0, 0.0, 0.0)","(-0.000961, -0.002935, 0.000954, 0.004896, 0.000614, -0.002517, -4.1e-05)"
2020/05/26/02:03:50.745765,740,1590426230,690702915,,"['joint_S', 'joint_L', 'joint_E', 'joint_U', 'joint_R', 'joint_B', 'joint_T']","(-2, -3, 0, 1, 0, -91135, 2)","(-0.0017, 0.0026, 0.0, 0.0008, 0.0, -89.999, -0.0029)","(0.0, 0.0, 0.0, 0.0, 0.0, 0.0, 0.0)","(-0.000936, -0.002842, 0.000936, 0.004673, 0.000614, -0.00248, -4.1e-05)"
2020/05/26/02:03:50.802402,741,1590426230,745764970,,"['joint_S', 'joint_L', 'joint_E', 'joint_U', 'joint_R', 'joint_B', 'joint_T']","(-2, -3, 0, 0, 0, -91135, 2)","(-0.0017, 0.0026, 0.0, 0.0, 0.0, -89.999, -0.0029)","(0.0, 0.0, 0.0, 0.0, 0.0, 0.0, 0.0)","(-0.000911, -0.002763, 0.000918, 0.004494, 0.000614, -0.002439, -4.1e-05)"
2020/05/26/02:03:50.860283,742,1590426230,802177906,,"['joint_S', 'joint_L', 'joint_E', 'joint_U', 'joint_R', 'joint_B', 'joint_T']","(-2, -2, 0, 0, 0, -91135, 2)","(-0.0017, 0.0017, 0.0, 0.0, 0.0, -89.999, -0.0029)","(0.0, 0.0, 0.0, 0.0, 0.0, 0.0, 0.0)","(-0.000886, -0.002697, 0.000899, 0.00431, 0.000614, -0.002387, -4.1e-05)"
2020/05/26/02:03:50.916944,743,1590426230,860003948,,"['joint_S', 'joint_L', 'joint_E', 'joint_U', 'joint_R', 'joint_B', 'joint_T']","(-2, -2, 0, 0, 0, -91136, 2)","(-0.0017, 0.0017, 0.0, 0.0, 0.0, -90.0, -0.0029)","(0.0, 0.0, 0.0, 0.0, 0.0, 0.0, 0.0)","(-0.000861, -0.002638, 0.000877, 0.004133, 0.000614, -0.002343, -4.1e-05)"
2020/05/26/02:03:50.973348,744,1590426230,916805028,,"['joint_S', 'joint_L', 'joint_E', 'joint_U', 'joint_R', 'joint_B', 'joint_T']","(-2, -2, 0, 0, 0, -91136, 2)","(-0.0017, 0.0017, 0.0, 0.0, 0.0, -90.0, -0.0029)","(0.0, 0.0, 0.0, 0.0, 0.0, 0.0, 0.0)","(-0.000836, -0.002577, 0.000859, 0.003976, 0.000614, -0.002298, -4.1e-05)"
2020/05/26/02:03:51.030235,745,1590426230,973213911,,"['joint_S', 'joint_L', 'joint_E', 'joint_U', 'joint_R', 'joint_B', 'joint_T']","(-2, -2, 0, 0, 0, -91136, 2)","(-0.0017, 0.0017, 0.0, 0.0, 0.0, -90.0, -0.0029)","(0.0, 0.0, 0.0, 0.0, 0.0, -124.8, 0.0)","(-0.000813, -0.002531, 0.000838, 0.003826, 0.000614, -0.002231, -4.1e-05)"
2020/05/26/02:03:51.088666,746,1590426231,30265092,,"['joint_S', 'joint_L', 'joint_E', 'joint_U', 'joint_R', 'joint_B', 'joint_T']","(-2, -2, 0, 0, 0, -91136, 2)","(-0.0017, 0.0017, 0.0, 0.0, 0.0, -90.0, -0.0029)","(0.0, 0.0, 0.0, 0.0, 0.0, 0.0, 0.0)","(-0.000804, -0.0025, 0.00082, 0.003686, 0.000614, -0.0022, -4.1e-05)"
2020/05/26/02:03:51.145139,747,1590426231,88350057,,"['joint_S', 'joint_L', 'joint_E', 'joint_U', 'joint_R', 'joint_B', 'joint_T']","(-2, -2, 0, -1, 0, -91136, 2)","(-0.0017, 0.0017, 0.0, -0.0008, 0.0, -90.0, -0.0029)","(0.0, 0.0, 0.0, 0.0, 0.0, 0.0, 0.0)","(-0.00077, -0.002459, 0.000802, 0.003571, 0.000614, -0.00214, -4.1e-05)"
2020/05/26/02:03:51.201933,748,1590426231,144792079,,"['joint_S', 'joint_L', 'joint_E', 'joint_U', 'joint_R', 'joint_B', 'joint_T']","(-2, -2, 0, -1, 0, -91136, 2)","(-0.0017, 0.0017, 0.0, -0.0008, 0.0, -90.0, -0.0029)","(0.0, 0.0, 0.0, 0.0, 0.0, 0.0, 0.0)","(-0.000748, -0.002432, 0.000759, 0.003441, 0.000614, -0.002084, -4.1e-05)"
2020/05/26/02:03:51.259207,749,1590426231,201693058,,"['joint_S', 'joint_L', 'joint_E', 'joint_U', 'joint_R', 'joint_B', 'joint_T']","(-2, -2, 0, -1, 0, -91136, 2)","(-0.0017, 0.0017, 0.0, -0.0008, 0.0, -90.0, -0.0029)","(0.0, 0.0, 0.0, 0.0, 0.0, 0.0, 0.0)","(-0.000727, -0.002409, 0.000741, 0.003336, 0.000614, -0.00203, -4.1e-05)"
2020/05/26/02:03:51.315967,750,1590426231,259052038,,"['joint_S', 'joint_L', 'joint_E', 'joint_U', 'joint_R', 'joint_B', 'joint_T']","(-2, -2, 0, -1, 0, -91136, 2)","(-0.0017, 0.0017, 0.0, -0.0008, 0.0, -90.0, -0.0029)","(0.0, 0.0, 124.8, 0.0, 0.0, 0.0, 0.0)","(-0.000704, -0.002389, 0.000707, 0.003218, 0.000614, -0.001974, -4.1e-05)"
2020/05/26/02:03:51.373743,751,1590426231,315745115,,"['joint_S', 'joint_L', 'joint_E', 'joint_U', 'joint_R', 'joint_B', 'joint_T']","(-2, -2, 0, -1, 0, -91136, 2)","(-0.0017, 0.0017, 0.0, -0.0008, 0.0, -90.0, -0.0029)","(0.0, 0.0, 0.0, 0.0, 0.0, 0.0, 0.0)","(-0.000684, -0.002373, 0.000736, 0.003125, 0.000614, -0.001918, -4.1e-05)"
2020/05/26/02:03:51.430719,752,1590426231,373603105,,"['joint_S', 'joint_L', 'joint_E', 'joint_U', 'joint_R', 'joint_B', 'joint_T']","(-2, -2, 0, -1, 0, -91136, 2)","(-0.0017, 0.0017, 0.0, -0.0008, 0.0, -90.0, -0.0029)","(124.8, 0.0, 0.0, 0.0, 0.0, 0.0, 0.0)","(-0.000668, -0.002359, 0.000718, 0.003053, 0.000614, -0.001862, -4.1e-05)"
2020/05/26/02:03:51.489136,753,1590426231,430726051,,"['joint_S', 'joint_L', 'joint_E', 'joint_U', 'joint_R', 'joint_B', 'joint_T']","(-2, -2, 0, -2, 0, -91136, 2)","(-0.0017, 0.0017, 0.0, -0.0017, 0.0, -90.0, -0.0029)","(0.0, 0.0, 0.0, 0.0, 0.0, 0.0, 0.0)","(-0.000646, -0.002352, 0.000704, 0.002961, 0.000614, -0.001808, -4.1e-05)"
2020/05/26/02:03:51.545808,754,1590426231,489028930,,"['joint_S', 'joint_L', 'joint_E', 'joint_U', 'joint_R', 'joint_B', 'joint_T']","(-2, -2, 0, -2, 0, -91136, 2)","(-0.0017, 0.0017, 0.0, -0.0017, 0.0, -90.0, -0.0029)","(0.0, 0.0, 0.0, 0.0, 0.0, 0.0, 0.0)","(-0.000625, -0.002343, 0.000686, 0.002884, 0.000614, -0.001752, -4.1e-05)"
2020/05/26/02:03:51.603058,755,1590426231,545599937,,"['joint_S', 'joint_L', 'joint_E', 'joint_U', 'joint_R', 'joint_B', 'joint_T']","(-2, -2, 0, -2, 0, -91136, 2)","(-0.0017, 0.0017, 0.0, -0.0017, 0.0, -90.0, -0.0029)","(0.0, 0.0, 0.0, 0.0, 0.0, 0.0, 0.0)","(-0.000605, -0.002339, 0.00067, 0.00282, 0.000614, -0.0017, -4.1e-05)"
2020/05/26/02:03:51.658655,756,1590426231,603143930,,"['joint_S', 'joint_L', 'joint_E', 'joint_U', 'joint_R', 'joint_B', 'joint_T']","(-2, -2, 0, -2, 0, -91136, 2)","(-0.0017, 0.0017, 0.0, -0.0017, 0.0, -90.0, -0.0029)","(0.0, 0.0, 0.0, 0.0, 0.0, 0.0, 0.0)","(-0.000591, -0.002336, 0.00067, 0.002763, 0.000614, -0.001646, -4.1e-05)"
2020/05/26/02:03:51.717362,757,1590426231,658499002,,"['joint_S', 'joint_L', 'joint_E', 'joint_U', 'joint_R', 'joint_B', 'joint_T']","(-2, -2, 0, -2, 0, -91136, 2)","(-0.0017, 0.0017, 0.0, -0.0017, 0.0, -90.0, -0.0029)","(0.0, 0.0, 0.0, 0.0, 0.0, 0.0, 0.0)","(-0.000575, -0.00233, 0.000646, 0.002717, 0.000614, -0.001594, -4.1e-05)"
2020/05/26/02:03:51.774115,758,1590426231,717274904,,"['joint_S', 'joint_L', 'joint_E', 'joint_U', 'joint_R', 'joint_B', 'joint_T']","(-2, -2, 0, -2, 0, -91136, 2)","(-0.0017, 0.0017, 0.0, -0.0017, 0.0, -90.0, -0.0029)","(0.0, 0.0, 0.0, 0.0, 0.0, 0.0, 0.0)","(-0.000578, -0.002334, 0.000632, 0.002664, 0.000614, -0.001547, -4.1e-05)"
2020/05/26/02:03:51.830460,759,1590426231,773966073,,"['joint_S', 'joint_L', 'joint_E', 'joint_U', 'joint_R', 'joint_B', 'joint_T']","(-2, -2, 0, -2, 0, -91136, 2)","(-0.0017, 0.0017, 0.0, -0.0017, 0.0, -90.0, -0.0029)","(0.0, 0.0, 0.0, 0.0, 0.0, 0.0, 0.0)","(-0.000548, -0.002332, 0.000618, 0.002645, 0.000614, -0.001489, -4.1e-05)"
2020/05/26/02:03:51.887447,760,1590426231,830245971,,"['joint_S', 'joint_L', 'joint_E', 'joint_U', 'joint_R', 'joint_B', 'joint_T']","(-2, -2, 0, -2, 0, -91136, 2)","(-0.0017, 0.0017, 0.0, -0.0017, 0.0, -90.0, -0.0029)","(0.0, 124.8, 0.0, 0.0, 0.0, 0.0, 0.0)","(-0.000947, -0.001851, 0.000235, 0.002752, 0.000599, -0.001344, 4.3e-05)"
2020/05/26/02:03:51.944239,761,1590426231,887360095,,"['joint_S', 'joint_L', 'joint_E', 'joint_U', 'joint_R', 'joint_B', 'joint_T']","(-10, 11, -8, -1, -1, -91136, 2)","(-0.0087, -0.0095, -0.0069, -0.0008, 0.0008, -90.0, -0.0029)","(-496.0, 873.6, -499.2, 0.0, -124.8, 0.0, 0.0)","(-0.003026, -0.000503, -0.002089, 0.004782, -0.00044, -0.000813, 0.001209)"
2020/05/26/02:03:52.000990,762,1590426231,944013118,,"['joint_S', 'joint_L', 'joint_E', 'joint_U', 'joint_R', 'joint_B', 'joint_T']","(-86, 95, -78, 34, -11, -91135, 53)","(-0.0748, -0.0826, -0.0678, 0.0295, 0.0095, -89.999, -0.0789)","(-1996.8, 1996.8, -1872.0, 1747.2, -496.0, 0.0, 2870.4)","(-0.001944, -0.001022, -0.001613, 0.006515, -0.003498, 0.000661, 0.002391)"
2020/05/26/02:03:52.058030,763,1590426232,727891,,"['joint_S', 'joint_L', 'joint_E', 'joint_U', 'joint_R', 'joint_B', 'joint_T']","(-242, 261, -229, 170, -69, -91130, 253)","(-0.2105, -0.2271, -0.1992, 0.1479, 0.06, -89.994, -0.3768)","(-3494.4, 3993.6, -3596.0, 2995.2, -1248.0, 748.8, 4243.2)","(-0.001983, -0.001047, -0.001591, 0.005823, -0.002297, 0.003192, 0.002349)"
2020/05/26/02:03:52.115051,764,1590426232,57797908,,"['joint_S', 'joint_L', 'joint_E', 'joint_U', 'joint_R', 'joint_B', 'joint_T']","(-498, 538, -476, 372, -153, -91044, 547)","(-0.4333, -0.4681, -0.4142, 0.3237, 0.1331, -89.9091, -0.8148)","(-5241.6, 5952.0, -5116.8, 4118.4, -1736.0, 1872.0, 6240.0)","(-0.002126, -0.000929, -0.001523, 0.005524, -0.002151, 0.002343, 0.002455)"
2020/05/26/02:03:52.170622,765,1590426232,114793062,,"['joint_S', 'joint_L', 'joint_E', 'joint_U', 'joint_R', 'joint_B', 'joint_T']","(-848, 920, -813, 642, -266, -90939, 951)","(-0.7379, -0.8005, -0.7074, 0.5586, 0.2314, -89.8054, -1.4166)","(-6864.0, 7363.2, -6614.4, 5116.8, -2121.6, 1996.8, 7987.2)","(-0.00206, -0.00101, -0.001541, 0.005493, -0.002027, 0.002128, 0.002393)"
2020/05/26/02:03:52.227629,766,1590426232,170468091,,"['joint_S', 'joint_L', 'joint_E', 'joint_U', 'joint_R', 'joint_B', 'joint_T']","(-1282, 1394, -1232, 973, -403, -90823, 1444)","(-1.1156, -1.213, -1.072, 0.8467, 0.3506, -89.6909, -2.151)","(-8361.6, 8928.0, -8112.0, 6240.0, -2728.0, 2121.6, 9734.4)","(-0.002085, -0.000829, -0.001457, 0.005584, -0.001947, 0.002327, 0.002358)"
2020/05/26/02:03:52.286520,767,1590426232,227581024,,"['joint_S', 'joint_L', 'joint_E', 'joint_U', 'joint_R', 'joint_B', 'joint_T']","(-1816, 1976, -1745, 1380, -571, -90685, 2048)","(-1.5802, -1.7195, -1.5185, 1.2008, 0.4968, -89.5546, -3.0508)","(-10358.4, 11232.0, -10044.0, 7612.8, -3244.8, 2371.2, 11481.6)","(-0.002173, -0.000838, -0.001681, 0.005462, -0.002027, 0.002381, 0.002387)"
2020/05/26/02:03:52.342525,768,1590426232,286283969,,"['joint_S', 'joint_L', 'joint_E', 'joint_U', 'joint_R', 'joint_B', 'joint_T']","(-2467, 2686, -2371, 1876, -777, -90521, 2780)","(-2.1467, -2.3373, -2.0632, 1.6325, 0.6761, -89.3926, -4.1412)","(-12480.0, 13603.2, -11980.8, 9609.6, -3868.8, 2995.2, 13764.0)","(-0.002244, -0.000834, -0.001799, 0.00533, -0.001899, 0.0023, 0.002501)"
2020/05/26/02:03:52.399168,769,1590426232,342200994,,"['joint_S', 'joint_L', 'joint_E', 'joint_U', 'joint_R', 'joint_B', 'joint_T']","(-3226, 3514, -3103, 2456, -1019, -90338, 3634)","(-2.8072, -3.0578, -2.7002, 2.1372, 0.8867, -89.2119, -5.4134)","(-14476.8, 15849.6, -13977.6, 11356.8, -4617.6, 3494.4, 15974.4)","(-0.00237, -0.000856, -0.001894, 0.005489, -0.0018, 0.002478, 0.002876)"
2020/05/26/02:03:52.454951,770,1590426232,398983955,,"['joint_S', 'joint_L', 'joint_E', 'joint_U', 'joint_R', 'joint_B', 'joint_T']","(-4102, 4468, -3946, 3125, -1297, -90125, 4626)","(-3.5695, -3.888, -3.4338, 2.7193, 1.1286, -89.0016, -6.8912)","(-15974.4, 17236.0, -15350.4, 12230.4, -4992.0, 3494.4, 18096.0)","(-0.00218, -0.000861, -0.001554, 0.005679, -0.001951, 0.002586, 0.002988)"
2020/05/26/02:03:52.511471,771,1590426232,454900026,,"['joint_S', 'joint_L', 'joint_E', 'joint_U', 'joint_R', 'joint_B', 'joint_T']","(-5038, 5489, -4848, 3842, -1595, -89893, 5691)","(-4.384, -4.7765, -4.2187, 3.3433, 1.3879, -88.7724, -8.4777)","(-16723.2, 18220.8, -16224.0, 12854.4, -5366.4, 3868.8, 19094.4)","(-0.002214, -0.001054, -0.001695, 0.005431, -0.001945, 0.002466, 0.002756)"
2020/05/26/02:03:52.568294,772,1590426232,511311054,,"['joint_S', 'joint_L', 'joint_E', 'joint_U', 'joint_R', 'joint_B', 'joint_T']","(-5988, 6524, -5762, 4568, -1896, -89658, 6769)","(-5.2107, -5.6772, -5.0141, 3.975, 1.6499, -88.5404, -10.0835)","(-16972.8, 18595.2, -16224.0, 12979.2, -5491.2, 4243.2, 19468.8)","(-0.002021, -0.001115, -0.001493, 0.005475, -0.001864, 0.001993, 0.002733)"
2020/05/26/02:03:52.625909,773,1590426232,568151950,,"['joint_S', 'joint_L', 'joint_E', 'joint_U', 'joint_R', 'joint_B', 'joint_T']","(-6961, 7586, -6699, 5310, -2205, -89420, 7864)","(-6.0574, -6.6013, -5.8294, 4.6207, 1.9188, -88.3053, -11.7147)","(-16864.0, 18228.0, -16348.8, 13144.0, -5366.4, 4243.2, 18969.6)","(-0.001947, -0.001208, -0.001688, 0.005528, -0.001924, 0.002072, 0.003055)"
2020/05/26/02:03:52.682957,774,1590426232,625861883,,"['joint_S', 'joint_L', 'joint_E', 'joint_U', 'joint_R', 'joint_B', 'joint_T']","(-7933, 8645, -7635, 6054, -2513, -89180, 8965)","(-6.9033, -7.5229, -6.644, 5.2682, 2.1868, -88.0683, -13.3549)","(-16972.8, 18595.2, -16348.8, 12979.2, -5366.4, 4243.2, 19219.2)","(-0.002046, -0.001307, -0.001607, 0.005411, -0.001856, 0.00224, 0.002841)"
2020/05/26/02:03:52.739820,775,1590426232,682696104,,"['joint_S', 'joint_L', 'joint_E', 'joint_U', 'joint_R', 'joint_B', 'joint_T']","(-8902, 9703, -8569, 6793, -2820, -88941, 10065)","(-7.7465, -8.4435, -7.4567, 5.9112, 2.4539, -87.8323, -14.9935)","(-16972.8, 18600.0, -16348.8, 12854.4, -5456.0, 4243.2, 19468.8)","(-0.001969, -0.001371, -0.001568, 0.005425, -0.001776, 0.00225, 0.002723)"
2020/05/26/02:03:52.795466,776,1590426232,739620923,,"['joint_S', 'joint_L', 'joint_E', 'joint_U', 'joint_R', 'joint_B', 'joint_T']","(-9853, 10739, -9484, 7519, -3121, -88707, 11140)","(-8.5741, -9.3451, -8.253, 6.543, 2.7159, -87.6012, -16.5949)","(-16972.8, 18345.6, -16224.0, 13020.0, -5366.4, 4243.2, 18720.0)","(-0.002114, -0.001251, -0.001586, 0.005316, -0.001739, 0.002266, 0.002856)"
2020/05/26/02:03:52.850839,777,1590426232,795381069,,"['joint_S', 'joint_L', 'joint_E', 'joint_U', 'joint_R', 'joint_B', 'joint_T']","(-10804, 11777, -10400, 8246, -3422, -88472, 12210)","(-9.4016, -10.2483, -9.0501, 7.1757, 2.9778, -87.3692, -18.1888)","(-16972.8, 18345.6, -16348.8, 12979.2, -5332.0, 3868.8, 19344.0)","(-0.00206, -0.00148, -0.00167, 0.005376, -0.001774, 0.002383, 0.00288)"
2020/05/26/02:03:52.908667,778,1590426232,850778102,,"['joint_S', 'joint_L', 'joint_E', 'joint_U', 'joint_R', 'joint_B', 'joint_T']","(-11756, 12814, -11316, 8973, -3724, -88235, 13288)","(-10.2301, -11.1507, -9.8472, 7.8083, 3.2406, -87.1351, -19.7947)","(-16848.0, 18595.2, -16244.0, 12729.6, -5241.6, 4243.2, 19219.2)","(-0.002083, -0.001446, -0.001763, 0.005532, -0.001866, 0.002009, 0.002893)"
2020/05/26/02:03:52.965208,779,1590426232,908631086,,"['joint_S', 'joint_L', 'joint_E', 'joint_U', 'joint_R', 'joint_B', 'joint_T']","(-12741, 13888, -12265, 9725, -4036, -87991, 14407)","(-11.0872, -12.0853, -10.673, 8.4627, 3.5121, -86.8942, -21.4616)","(-16864.0, 18345.6, -16348.8, 12854.4, -5366.4, 4243.2, 18969.6)","(-0.00203, -0.001464, -0.001611, 0.005475, -0.001817, 0.001995, 0.002719)"
2020/05/26/02:03:53.021568,780,1590426232,965159893,,"['joint_S', 'joint_L', 'joint_E', 'joint_U', 'joint_R', 'joint_B', 'joint_T']","(-13693, 14925, -13180, 10451, -4337, -87758, 15477)","(-11.9157, -12.9877, -11.4692, 9.0945, 3.774, -86.6641, -23.0556)","(-16864.0, 18595.2, -16120.0, 12979.2, -5366.4, 4118.4, 19219.2)","(-0.002239, -0.001421, -0.001919, 0.005485, -0.00184, 0.002152, 0.002841)"
2020/05/26/02:03:53.077514,781,1590426233,21425962,,"['joint_S', 'joint_L', 'joint_E', 'joint_U', 'joint_R', 'joint_B', 'joint_T']","(-14647, 15966, -14099, 11178, -4639, -87523, 16551)","(-12.7458, -13.8936, -12.269, 9.7271, 4.0368, -86.432, -24.6555)","(-16972.8, 18470.4, -16348.8, 12979.2, -5456.0, 4368.0, 19219.2)","(-0.002289, -0.001416, -0.001765, 0.005561, -0.001809, 0.002109, 0.003104)"
2020/05/26/02:03:53.134060,782,1590426233,77299118,,"['joint_S', 'joint_L', 'joint_E', 'joint_U', 'joint_R', 'joint_B', 'joint_T']","(-15624, 17030, -15039, 11926, -4950, -87283, 17661)","(-13.596, -14.8195, -13.087, 10.378, 4.3075, -86.195, -26.309)","(-16972.8, 18595.2, -16368.0, 12896.0, -5332.0, 4368.0, 19468.8)","(-0.001919, -0.001582, -0.001643, 0.005369, -0.002009, 0.00208, 0.00288)"
2020/05/26/02:03:53.191051,783,1590426233,133869886,,"['joint_S', 'joint_L', 'joint_E', 'joint_U', 'joint_R', 'joint_B', 'joint_T']","(-16559, 18053, -15941, 12642, -5248, -87055, 18729)","(-14.4097, -15.7097, -13.8719, 11.0011, 4.5668, -85.9698, -27.9)","(-16348.8, 17472.0, -15724.8, 12355.2, -5241.6, 4118.4, 18470.4)","(-0.001985, -0.001688, -0.001618, 0.005559, -0.001757, 0.002067, 0.002511)"
2020/05/26/02:03:53.247667,784,1590426233,191059112,,"['joint_S', 'joint_L', 'joint_E', 'joint_U', 'joint_R', 'joint_B', 'joint_T']","(-17453, 19027, -16803, 13328, -5534, -86838, 19736)","(-15.1876, -16.5573, -14.622, 11.598, 4.8157, -85.7555, -29.4001)","(-14726.4, 16099.2, -14352.0, 11356.8, -4836.0, 3619.2, 16224.0)","(-0.001609, -0.001974, -0.001296, 0.005464, -0.001739, 0.002074, 0.002775)"
2020/05/26/02:03:53.304044,785,1590426233,247459888,,"['joint_S', 'joint_L', 'joint_E', 'joint_U', 'joint_R', 'joint_B', 'joint_T']","(-18235, 19881, -17557, 13927, -5782, -86643, 20623)","(-15.8681, -17.3005, -15.2781, 12.1193, 5.0315, -85.563, -30.7214)","(-12480.0, 13852.8, -12105.6, 9484.8, -3993.6, 3369.6, 14227.2)","(-0.001602, -0.002228, -0.001371, 0.005266, -0.001862, 0.001879, 0.002569)"
