time,.header.seq,.header.stamp.secs,.header.stamp.nsecs,.header.frame_id,.name,.pulse,.position,.velocity,.torque
2020/05/26/02:02:25.268549,1,1590426145,213561058,,"['joint_S', 'joint_L', 'joint_E', 'joint_U', 'joint_R', 'joint_B', 'joint_T']","(2, -5, -1, -5, 6, 5, 3)","(0.0017, 0.0043, -0.0008, -0.0043, -0.0052, 0.0049, -0.0044)","(0.0, 0.0, 0.0, 0.0, 0.0, 0.0, 0.0)","(-0.000872, -0.003055, 0.000287, 0.005184, 0.000465, 0.001277, 0.000373)"
2020/05/26/02:02:25.325256,2,1590426145,268455982,,"['joint_S', 'joint_L', 'joint_E', 'joint_U', 'joint_R', 'joint_B', 'joint_T']","(2, -5, -1, -5, 6, 5, 3)","(0.0017, 0.0043, -0.0008, -0.0043, -0.0052, 0.0049, -0.0044)","(0.0, 0.0, 0.0, 0.0, 0.0, 0.0, 0.0)","(-0.00087, -0.003055, 0.000287, 0.005184, 0.000465, 0.001283, 0.000369)"
2020/05/26/02:02:25.379048,3,1590426145,325169086,,"['joint_S', 'joint_L', 'joint_E', 'joint_U', 'joint_R', 'joint_B', 'joint_T']","(2, -5, -1, -5, 6, 5, 3)","(0.0017, 0.0043, -0.0008, -0.0043, -0.0052, 0.0049, -0.0044)","(0.0, 0.0, 0.0, 0.0, 0.0, 0.0, 0.0)","(-0.000868, -0.003055, 0.000287, 0.005184, 0.000465, 0.00129, 0.000365)"
2020/05/26/02:02:25.435987,4,1590426145,378849029,,"['joint_S', 'joint_L', 'joint_E', 'joint_U', 'joint_R', 'joint_B', 'joint_T']","(2, -5, -1, -5, 6, 5, 3)","(0.0017, 0.0043, -0.0008, -0.0043, -0.0052, 0.0049, -0.0044)","(0.0, 0.0, 0.0, 0.0, 0.0, 0.0, 0.0)","(-0.000863, -0.003055, 0.000287, 0.005184, 0.000465, 0.001294, 0.00036)"
2020/05/26/02:02:25.491040,5,1590426145,435723066,,"['joint_S', 'joint_L', 'joint_E', 'joint_U', 'joint_R', 'joint_B', 'joint_T']","(2, -5, -1, -5, 6, 5, 3)","(0.0017, 0.0043, -0.0008, -0.0043, -0.0052, 0.0049, -0.0044)","(0.0, 0.0, 0.0, 0.0, 0.0, 0.0, 0.0)","(-0.000861, -0.003055, 0.000287, 0.005184, 0.000465, 0.0013, 0.000356)"
2020/05/26/02:02:25.546916,6,1590426145,490845918,,"['joint_S', 'joint_L', 'joint_E', 'joint_U', 'joint_R', 'joint_B', 'joint_T']","(2, -5, -1, -5, 6, 5, 3)","(0.0017, 0.0043, -0.0008, -0.0043, -0.0052, 0.0049, -0.0044)","(0.0, 0.0, 0.0, 0.0, 0.0, 0.0, 0.0)","(-0.000859, -0.003055, 0.000287, 0.005184, 0.000465, 0.0013, 0.00035)"
2020/05/26/02:02:25.602386,7,1590426145,546901941,,"['joint_S', 'joint_L', 'joint_E', 'joint_U', 'joint_R', 'joint_B', 'joint_T']","(2, -5, -1, -5, 6, 5, 3)","(0.0017, 0.0043, -0.0008, -0.0043, -0.0052, 0.0049, -0.0044)","(0.0, 0.0, 0.0, 0.0, 0.0, 0.0, 0.0)","(-0.000856, -0.003055, 0.000287, 0.005184, 0.000465, 0.001312, 0.000346)"
2020/05/26/02:02:25.659955,8,1590426145,602291107,,"['joint_S', 'joint_L', 'joint_E', 'joint_U', 'joint_R', 'joint_B', 'joint_T']","(2, -5, -1, -5, 6, 5, 3)","(0.0017, 0.0043, -0.0008, -0.0043, -0.0052, 0.0049, -0.0044)","(0.0, 0.0, 0.0, 0.0, 0.0, 0.0, 0.0)","(-0.000854, -0.003055, 0.000287, 0.005184, 0.000465, 0.001317, 0.000342)"
2020/05/26/02:02:25.715789,9,1590426145,659845113,,"['joint_S', 'joint_L', 'joint_E', 'joint_U', 'joint_R', 'joint_B', 'joint_T']","(2, -5, -1, -5, 6, 5, 3)","(0.0017, 0.0043, -0.0008, -0.0043, -0.0052, 0.0049, -0.0044)","(0.0, 0.0, 0.0, 0.0, 0.0, 0.0, 0.0)","(-0.000852, -0.003055, 0.000287, 0.005184, 0.000465, 0.001321, 0.000338)"
2020/05/26/02:02:25.774118,10,1590426145,715581893,,"['joint_S', 'joint_L', 'joint_E', 'joint_U', 'joint_R', 'joint_B', 'joint_T']","(2, -5, -1, -5, 6, 5, 3)","(0.0017, 0.0043, -0.0008, -0.0043, -0.0052, 0.0049, -0.0044)","(0.0, 0.0, 0.0, 0.0, 0.0, 0.0, 0.0)","(-0.00085, -0.003055, 0.000287, 0.005184, 0.000465, 0.001327, 0.000333)"
2020/05/26/02:02:25.829268,11,1590426145,774079084,,"['joint_S', 'joint_L', 'joint_E', 'joint_U', 'joint_R', 'joint_B', 'joint_T']","(2, -5, -1, -5, 6, 5, 3)","(0.0017, 0.0043, -0.0008, -0.0043, -0.0052, 0.0049, -0.0044)","(0.0, 0.0, 0.0, 0.0, 0.0, 0.0, 0.0)","(-0.000847, -0.003055, 0.000287, 0.005184, 0.000465, 0.001333, 0.000327)"
2020/05/26/02:02:25.885465,12,1590426145,829063892,,"['joint_S', 'joint_L', 'joint_E', 'joint_U', 'joint_R', 'joint_B', 'joint_T']","(2, -5, -1, -5, 6, 5, 3)","(0.0017, 0.0043, -0.0008, -0.0043, -0.0052, 0.0049, -0.0044)","(0.0, 0.0, 0.0, 0.0, 0.0, 124.8, 0.0)","(-0.000845, -0.003055, 0.000287, 0.005184, 0.000465, 0.001327, 0.000325)"
2020/05/26/02:02:25.940628,13,1590426145,885457992,,"['joint_S', 'joint_L', 'joint_E', 'joint_U', 'joint_R', 'joint_B', 'joint_T']","(2, -5, -1, -5, 6, 5, 3)","(0.0017, 0.0043, -0.0008, -0.0043, -0.0052, 0.0049, -0.0044)","(0.0, 0.0, 0.0, 0.0, 0.0, 0.0, 0.0)","(-0.000843, -0.003055, 0.000287, 0.005184, 0.000465, 0.001341, 0.000321)"
2020/05/26/02:02:25.997251,14,1590426145,940433025,,"['joint_S', 'joint_L', 'joint_E', 'joint_U', 'joint_R', 'joint_B', 'joint_T']","(2, -5, -1, -5, 6, 5, 3)","(0.0017, 0.0043, -0.0008, -0.0043, -0.0052, 0.0049, -0.0044)","(0.0, 0.0, 0.0, 0.0, 0.0, 0.0, 0.0)","(-0.00084, -0.003055, 0.000287, 0.005184, 0.000465, 0.001346, 0.000317)"
2020/05/26/02:02:26.053393,15,1590426145,997104883,,"['joint_S', 'joint_L', 'joint_E', 'joint_U', 'joint_R', 'joint_B', 'joint_T']","(2, -5, -1, -5, 6, 5, 3)","(0.0017, 0.0043, -0.0008, -0.0043, -0.0052, 0.0049, -0.0044)","(0.0, 0.0, 0.0, 0.0, 0.0, 0.0, 0.0)","(-0.00084, -0.003055, 0.000287, 0.005184, 0.000465, 0.00135, 0.000313)"
2020/05/26/02:02:26.109237,16,1590426146,53344011,,"['joint_S', 'joint_L', 'joint_E', 'joint_U', 'joint_R', 'joint_B', 'joint_T']","(2, -5, -1, -5, 6, 5, 3)","(0.0017, 0.0043, -0.0008, -0.0043, -0.0052, 0.0049, -0.0044)","(0.0, 0.0, 0.0, 0.0, 0.0, 0.0, 0.0)","(-0.000838, -0.003055, 0.000287, 0.005184, 0.000465, 0.001354, 0.000311)"
2020/05/26/02:02:26.165654,17,1590426146,109225988,,"['joint_S', 'joint_L', 'joint_E', 'joint_U', 'joint_R', 'joint_B', 'joint_T']","(2, -5, -1, -5, 6, 5, 3)","(0.0017, 0.0043, -0.0008, -0.0043, -0.0052, 0.0049, -0.0044)","(0.0, 0.0, 0.0, 0.0, 0.0, 0.0, 0.0)","(-0.000834, -0.003055, 0.000287, 0.005184, 0.000465, 0.001358, 0.000306)"
2020/05/26/02:02:26.220837,18,1590426146,165662050,,"['joint_S', 'joint_L', 'joint_E', 'joint_U', 'joint_R', 'joint_B', 'joint_T']","(2, -5, -1, -5, 6, 5, 3)","(0.0017, 0.0043, -0.0008, -0.0043, -0.0052, 0.0049, -0.0044)","(0.0, 0.0, 0.0, 0.0, 0.0, 0.0, 0.0)","(-0.000834, -0.003055, 0.000287, 0.005184, 0.000465, 0.001362, 0.000302)"
2020/05/26/02:02:26.277975,19,1590426146,220679044,,"['joint_S', 'joint_L', 'joint_E', 'joint_U', 'joint_R', 'joint_B', 'joint_T']","(2, -5, -1, -5, 6, 5, 3)","(0.0017, 0.0043, -0.0008, -0.0043, -0.0052, 0.0049, -0.0044)","(0.0, 0.0, 0.0, 0.0, 0.0, 0.0, 0.0)","(-0.000831, -0.003055, 0.000287, 0.005184, 0.000465, 0.001375, 0.000298)"
2020/05/26/02:02:26.336149,20,1590426146,277889966,,"['joint_S', 'joint_L', 'joint_E', 'joint_U', 'joint_R', 'joint_B', 'joint_T']","(2, -5, -1, -5, 6, 5, 3)","(0.0017, 0.0043, -0.0008, -0.0043, -0.0052, 0.0049, -0.0044)","(0.0, 0.0, 0.0, 0.0, 0.0, 0.0, 0.0)","(-0.000827, -0.003055, 0.000287, 0.005184, 0.000465, 0.00137, 0.000296)"
2020/05/26/02:02:26.392403,21,1590426146,336095094,,"['joint_S', 'joint_L', 'joint_E', 'joint_U', 'joint_R', 'joint_B', 'joint_T']","(2, -5, -1, -5, 6, 5, 3)","(0.0017, 0.0043, -0.0008, -0.0043, -0.0052, 0.0049, -0.0044)","(0.0, 0.0, 0.0, 0.0, 0.0, 0.0, 0.0)","(-0.000827, -0.003055, 0.000287, 0.005184, 0.000465, 0.001375, 0.000292)"
2020/05/26/02:02:26.446907,22,1590426146,392164945,,"['joint_S', 'joint_L', 'joint_E', 'joint_U', 'joint_R', 'joint_B', 'joint_T']","(2, -5, -1, -5, 6, 5, 3)","(0.0017, 0.0043, -0.0008, -0.0043, -0.0052, 0.0049, -0.0044)","(0.0, 0.0, 0.0, 0.0, 0.0, 0.0, 0.0)","(-0.000825, -0.003055, 0.000287, 0.005184, 0.000465, 0.001377, 0.000288)"
2020/05/26/02:02:26.504265,23,1590426146,446847915,,"['joint_S', 'joint_L', 'joint_E', 'joint_U', 'joint_R', 'joint_B', 'joint_T']","(2, -5, -1, -5, 6, 5, 3)","(0.0017, 0.0043, -0.0008, -0.0043, -0.0052, 0.0049, -0.0044)","(0.0, 0.0, 0.0, 0.0, 0.0, 0.0, 0.0)","(-0.000818, -0.003055, 0.000287, 0.005184, 0.000465, 0.001381, 0.000284)"
2020/05/26/02:02:26.560741,24,1590426146,503971099,,"['joint_S', 'joint_L', 'joint_E', 'joint_U', 'joint_R', 'joint_B', 'joint_T']","(2, -5, -1, -5, 6, 5, 3)","(0.0017, 0.0043, -0.0008, -0.0043, -0.0052, 0.0049, -0.0044)","(0.0, 0.0, 0.0, 0.0, 0.0, 0.0, 0.0)","(-0.000797, -0.003055, 0.000287, 0.005184, 0.000465, 0.001385, 0.00028)"
2020/05/26/02:02:26.617187,25,1590426146,560539960,,"['joint_S', 'joint_L', 'joint_E', 'joint_U', 'joint_R', 'joint_B', 'joint_T']","(2, -5, -1, -5, 6, 5, 3)","(0.0017, 0.0043, -0.0008, -0.0043, -0.0052, 0.0049, -0.0044)","(0.0, 0.0, 0.0, 0.0, 0.0, 0.0, 0.0)","(-0.000804, -0.003055, 0.000287, 0.005184, 0.000465, 0.001389, 0.000277)"
2020/05/26/02:02:26.674424,26,1590426146,617161989,,"['joint_S', 'joint_L', 'joint_E', 'joint_U', 'joint_R', 'joint_B', 'joint_T']","(2, -5, -1, -5, 6, 5, 3)","(0.0017, 0.0043, -0.0008, -0.0043, -0.0052, 0.0049, -0.0044)","(0.0, 0.0, 0.0, 0.0, 0.0, 0.0, 0.0)","(-0.000834, -0.003055, 0.000287, 0.005184, 0.000465, 0.001397, 0.000275)"
2020/05/26/02:02:26.729830,27,1590426146,674252986,,"['joint_S', 'joint_L', 'joint_E', 'joint_U', 'joint_R', 'joint_B', 'joint_T']","(2, -5, -1, -5, 6, 5, 3)","(0.0017, 0.0043, -0.0008, -0.0043, -0.0052, 0.0049, -0.0044)","(0.0, 0.0, 0.0, 0.0, 0.0, 0.0, 0.0)","(-0.000791, -0.003055, 0.000287, 0.005184, 0.000465, 0.001391, 0.000271)"
2020/05/26/02:02:26.787780,28,1590426146,729670047,,"['joint_S', 'joint_L', 'joint_E', 'joint_U', 'joint_R', 'joint_B', 'joint_T']","(2, -5, -1, -5, 6, 5, 3)","(0.0017, 0.0043, -0.0008, -0.0043, -0.0052, 0.0049, -0.0044)","(0.0, 0.0, 0.0, 0.0, 0.0, 0.0, 0.0)","(-0.000836, -0.003055, 0.000287, 0.005184, 0.000465, 0.0014, 0.000267)"
2020/05/26/02:02:26.842354,29,1590426146,787827968,,"['joint_S', 'joint_L', 'joint_E', 'joint_U', 'joint_R', 'joint_B', 'joint_T']","(2, -5, -1, -5, 6, 5, 3)","(0.0017, 0.0043, -0.0008, -0.0043, -0.0052, 0.0049, -0.0044)","(0.0, 0.0, 0.0, 0.0, 0.0, 0.0, 0.0)","(-0.000795, -0.003055, 0.000287, 0.005184, 0.000465, 0.0014, 0.000265)"
2020/05/26/02:02:26.898754,30,1590426146,842129945,,"['joint_S', 'joint_L', 'joint_E', 'joint_U', 'joint_R', 'joint_B', 'joint_T']","(2, -5, -1, -5, 6, 5, 3)","(0.0017, 0.0043, -0.0008, -0.0043, -0.0052, 0.0049, -0.0044)","(0.0, 0.0, 0.0, 0.0, 0.0, 0.0, 0.0)","(-0.000822, -0.003055, 0.000287, 0.005184, 0.000465, 0.001404, 0.000261)"
2020/05/26/02:02:26.955466,31,1590426146,898540019,,"['joint_S', 'joint_L', 'joint_E', 'joint_U', 'joint_R', 'joint_B', 'joint_T']","(2, -5, -1, -5, 6, 5, 3)","(0.0017, 0.0043, -0.0008, -0.0043, -0.0052, 0.0049, -0.0044)","(0.0, 0.0, 0.0, 0.0, 0.0, 0.0, 0.0)","(-0.000822, -0.003055, 0.000287, 0.005184, 0.000465, 0.001408, 0.000259)"
2020/05/26/02:02:27.011286,32,1590426146,955456018,,"['joint_S', 'joint_L', 'joint_E', 'joint_U', 'joint_R', 'joint_B', 'joint_T']","(2, -5, -1, -5, 6, 5, 3)","(0.0017, 0.0043, -0.0008, -0.0043, -0.0052, 0.0049, -0.0044)","(0.0, 0.0, 0.0, 0.0, 0.0, 0.0, 0.0)","(-0.000795, -0.003055, 0.000287, 0.005184, 0.000465, 0.00141, 0.000255)"
2020/05/26/02:02:27.066531,33,1590426147,11123895,,"['joint_S', 'joint_L', 'joint_E', 'joint_U', 'joint_R', 'joint_B', 'joint_T']","(2, -5, -1, -5, 6, 5, 3)","(0.0017, 0.0043, -0.0008, -0.0043, -0.0052, 0.0049, -0.0044)","(0.0, 0.0, 0.0, 0.0, 0.0, 0.0, 0.0)","(-0.000788, -0.003055, 0.000287, 0.005184, 0.000465, 0.001414, 0.000253)"
2020/05/26/02:02:27.122857,34,1590426147,66411018,,"['joint_S', 'joint_L', 'joint_E', 'joint_U', 'joint_R', 'joint_B', 'joint_T']","(2, -5, -1, -5, 6, 5, 3)","(0.0017, 0.0043, -0.0008, -0.0043, -0.0052, 0.0049, -0.0044)","(0.0, 0.0, 0.0, 0.0, 0.0, 0.0, 0.0)","(-0.000795, -0.003055, 0.000287, 0.005184, 0.000465, 0.001416, 0.000248)"
2020/05/26/02:02:27.178734,35,1590426147,122584104,,"['joint_S', 'joint_L', 'joint_E', 'joint_U', 'joint_R', 'joint_B', 'joint_T']","(2, -5, -1, -5, 6, 5, 3)","(0.0017, 0.0043, -0.0008, -0.0043, -0.0052, 0.0049, -0.0044)","(0.0, 0.0, 0.0, 0.0, 0.0, 0.0, 0.0)","(-0.000811, -0.003055, 0.000287, 0.005184, 0.000465, 0.00142, 0.000246)"
2020/05/26/02:02:27.235477,36,1590426147,178561925,,"['joint_S', 'joint_L', 'joint_E', 'joint_U', 'joint_R', 'joint_B', 'joint_T']","(2, -5, -1, -5, 6, 5, 3)","(0.0017, 0.0043, -0.0008, -0.0043, -0.0052, 0.0049, -0.0044)","(-124.0, 0.0, 0.0, 0.0, 0.0, 0.0, 0.0)","(-0.000768, -0.003055, 0.000287, 0.005184, 0.000465, 0.001433, 0.000242)"
2020/05/26/02:02:27.291856,37,1590426147,235255956,,"['joint_S', 'joint_L', 'joint_E', 'joint_U', 'joint_R', 'joint_B', 'joint_T']","(2, -5, -1, -5, 6, 5, 3)","(0.0017, 0.0043, -0.0008, -0.0043, -0.0052, 0.0049, -0.0044)","(-124.8, 0.0, 0.0, 0.0, 0.0, 0.0, 0.0)","(-0.000775, -0.003055, 0.000287, 0.005184, 0.000465, 0.001424, 0.00024)"
2020/05/26/02:02:27.346759,38,1590426147,291783094,,"['joint_S', 'joint_L', 'joint_E', 'joint_U', 'joint_R', 'joint_B', 'joint_T']","(2, -5, -1, -5, 6, 5, 3)","(0.0017, 0.0043, -0.0008, -0.0043, -0.0052, 0.0049, -0.0044)","(0.0, 0.0, 0.0, 0.0, 0.0, 0.0, 0.0)","(-0.000816, -0.003055, 0.000287, 0.005184, 0.000465, 0.001424, 0.000238)"
2020/05/26/02:02:27.401906,39,1590426147,346627950,,"['joint_S', 'joint_L', 'joint_E', 'joint_U', 'joint_R', 'joint_B', 'joint_T']","(2, -5, -1, -5, 6, 5, 3)","(0.0017, 0.0043, -0.0008, -0.0043, -0.0052, 0.0049, -0.0044)","(0.0, 0.0, 0.0, 0.0, 0.0, 0.0, 0.0)","(-0.000813, -0.003055, 0.000287, 0.005184, 0.000465, 0.001429, 0.000234)"
2020/05/26/02:02:27.458445,40,1590426147,401762962,,"['joint_S', 'joint_L', 'joint_E', 'joint_U', 'joint_R', 'joint_B', 'joint_T']","(2, -5, -1, -5, 6, 5, 3)","(0.0017, 0.0043, -0.0008, -0.0043, -0.0052, 0.0049, -0.0044)","(0.0, 0.0, 0.0, 0.0, 0.0, 0.0, 0.0)","(-0.000811, -0.003055, 0.000287, 0.005184, 0.000465, 0.001431, 0.000232)"
2020/05/26/02:02:27.514535,41,1590426147,458153009,,"['joint_S', 'joint_L', 'joint_E', 'joint_U', 'joint_R', 'joint_B', 'joint_T']","(2, -5, -1, -5, 6, 5, 3)","(0.0017, 0.0043, -0.0008, -0.0043, -0.0052, 0.0049, -0.0044)","(124.8, 0.0, 0.0, 0.0, 0.0, 0.0, 0.0)","(-0.00082, -0.003055, 0.000287, 0.005184, 0.000465, 0.001433, 0.000228)"
2020/05/26/02:02:27.569529,42,1590426147,514281988,,"['joint_S', 'joint_L', 'joint_E', 'joint_U', 'joint_R', 'joint_B', 'joint_T']","(2, -5, -1, -5, 6, 5, 3)","(0.0017, 0.0043, -0.0008, -0.0043, -0.0052, 0.0049, -0.0044)","(0.0, 0.0, 0.0, 0.0, 0.0, 0.0, 0.0)","(-0.000775, -0.003055, 0.000287, 0.005184, 0.000465, 0.001435, 0.000224)"
2020/05/26/02:02:27.624081,43,1590426147,569309949,,"['joint_S', 'joint_L', 'joint_E', 'joint_U', 'joint_R', 'joint_B', 'joint_T']","(2, -5, -1, -5, 6, 5, 3)","(0.0017, 0.0043, -0.0008, -0.0043, -0.0052, 0.0049, -0.0044)","(0.0, 0.0, 0.0, 0.0, 0.0, 0.0, 124.8)","(-0.000811, -0.003055, 0.000287, 0.005184, 0.000465, 0.001437, 0.000215)"
2020/05/26/02:02:27.678705,44,1590426147,624053001,,"['joint_S', 'joint_L', 'joint_E', 'joint_U', 'joint_R', 'joint_B', 'joint_T']","(2, -5, -1, -5, 6, 5, 3)","(0.0017, 0.0043, -0.0008, -0.0043, -0.0052, 0.0049, -0.0044)","(0.0, 0.0, 0.0, 0.0, 0.0, 0.0, 0.0)","(-0.000816, -0.003055, 0.000287, 0.005184, 0.000465, 0.001439, 0.000219)"
2020/05/26/02:02:27.733388,45,1590426147,678510904,,"['joint_S', 'joint_L', 'joint_E', 'joint_U', 'joint_R', 'joint_B', 'joint_T']","(2, -5, -1, -5, 6, 5, 3)","(0.0017, 0.0043, -0.0008, -0.0043, -0.0052, 0.0049, -0.0044)","(124.8, 0.0, 0.0, 0.0, 0.0, 0.0, 0.0)","(-0.000816, -0.003055, 0.000287, 0.005184, 0.000465, 0.001441, 0.000217)"
2020/05/26/02:02:27.790860,46,1590426147,733236074,,"['joint_S', 'joint_L', 'joint_E', 'joint_U', 'joint_R', 'joint_B', 'joint_T']","(2, -5, -1, -5, 6, 5, 3)","(0.0017, 0.0043, -0.0008, -0.0043, -0.0052, 0.0049, -0.0044)","(0.0, 0.0, 0.0, 0.0, 0.0, 0.0, 0.0)","(-0.000809, -0.003055, 0.000287, 0.005184, 0.000465, 0.001445, 0.000215)"
2020/05/26/02:02:27.847095,47,1590426147,790781974,,"['joint_S', 'joint_L', 'joint_E', 'joint_U', 'joint_R', 'joint_B', 'joint_T']","(2, -5, -1, -5, 6, 5, 3)","(0.0017, 0.0043, -0.0008, -0.0043, -0.0052, 0.0049, -0.0044)","(0.0, 0.0, 0.0, 0.0, 0.0, 0.0, 0.0)","(-0.000816, -0.003055, 0.000287, 0.005184, 0.000465, 0.001445, 0.000213)"
2020/05/26/02:02:27.903550,48,1590426147,847053050,,"['joint_S', 'joint_L', 'joint_E', 'joint_U', 'joint_R', 'joint_B', 'joint_T']","(2, -5, -1, -5, 6, 5, 3)","(0.0017, 0.0043, -0.0008, -0.0043, -0.0052, 0.0049, -0.0044)","(0.0, 0.0, 0.0, 0.0, 0.0, 0.0, 0.0)","(-0.000816, -0.003055, 0.000287, 0.005184, 0.000465, 0.001441, 0.000211)"
2020/05/26/02:02:27.959086,49,1590426147,903472900,,"['joint_S', 'joint_L', 'joint_E', 'joint_U', 'joint_R', 'joint_B', 'joint_T']","(2, -5, -1, -5, 6, 5, 3)","(0.0017, 0.0043, -0.0008, -0.0043, -0.0052, 0.0049, -0.0044)","(-124.0, 0.0, 0.0, 0.0, 0.0, 0.0, 0.0)","(-0.000763, -0.003055, 0.000287, 0.005184, 0.000465, 0.001449, 0.000209)"
2020/05/26/02:02:28.012600,50,1590426147,959037065,,"['joint_S', 'joint_L', 'joint_E', 'joint_U', 'joint_R', 'joint_B', 'joint_T']","(2, -5, -1, -5, 6, 5, 3)","(0.0017, 0.0043, -0.0008, -0.0043, -0.0052, 0.0049, -0.0044)","(124.0, 0.0, 0.0, 0.0, 0.0, 0.0, 0.0)","(-0.000818, -0.003055, 0.000287, 0.005184, 0.000465, 0.001449, 0.000207)"
2020/05/26/02:02:28.068218,51,1590426148,12584924,,"['joint_S', 'joint_L', 'joint_E', 'joint_U', 'joint_R', 'joint_B', 'joint_T']","(2, -5, -1, -5, 6, 5, 3)","(0.0017, 0.0043, -0.0008, -0.0043, -0.0052, 0.0049, -0.0044)","(0.0, 0.0, 0.0, 0.0, 0.0, 0.0, 0.0)","(-0.000831, -0.002883, 0.000287, 0.005009, 0.000457, 0.001213, 0.000201)"
2020/05/26/02:02:28.123627,52,1590426148,68078041,,"['joint_S', 'joint_L', 'joint_E', 'joint_U', 'joint_R', 'joint_B', 'joint_T']","(2, -5, -1, -6, 6, 4, 3)","(0.0017, 0.0043, -0.0008, -0.0052, -0.0052, 0.0039, -0.0044)","(0.0, 124.0, 0.0, 0.0, 0.0, -124.8, 0.0)","(-0.00085, -0.002255, 0.000287, 0.004405, 0.000405, -0.001223, 0.000197)"
2020/05/26/02:02:28.179234,53,1590426148,123470067,,"['joint_S', 'joint_L', 'joint_E', 'joint_U', 'joint_R', 'joint_B', 'joint_T']","(2, -4, -1, -6, 6, -110, 3)","(0.0017, 0.0034, -0.0008, -0.0052, -0.0052, -0.1086, -0.0044)","(0.0, 124.8, 0.0, 0.0, 0.0, -3494.4, 0.0)","(-0.000911, -0.001378, 0.000287, 0.003719, 0.000325, -0.00046, 0.000188)"
2020/05/26/02:02:28.234834,54,1590426148,178975105,,"['joint_S', 'joint_L', 'joint_E', 'joint_U', 'joint_R', 'joint_B', 'joint_T']","(2, -1, -1, -8, 6, -384, 3)","(0.0017, 0.0008, -0.0008, -0.0069, -0.0052, -0.3792, -0.0044)","(0.0, 0.0, 0.0, 0.0, 0.0, -6614.4, 0.0)","(-0.000986, -0.000906, 0.000287, 0.002987, 0.000232, -0.000728, 0.000176)"
2020/05/26/02:02:28.290562,55,1590426148,234627962,,"['joint_S', 'joint_L', 'joint_E', 'joint_U', 'joint_R', 'joint_B', 'joint_T']","(2, 4, -1, -8, 6, -852, 3)","(0.0017, -0.0034, -0.0008, -0.0069, -0.0052, -0.8413, -0.0044)","(0.0, 0.0, 0.0, 0.0, 0.0, -9984.0, 0.0)","(-0.001056, -0.001174, 0.000287, 0.002732, 0.000152, -0.000829, 0.000155)"
2020/05/26/02:02:28.346477,56,1590426148,290400028,,"['joint_S', 'joint_L', 'joint_E', 'joint_U', 'joint_R', 'joint_B', 'joint_T']","(2, 5, -1, -9, 6, -1519, 3)","(0.0017, -0.0043, -0.0008, -0.0078, -0.0052, -1.5, -0.0044)","(0.0, 0.0, 0.0, -124.8, 0.0, -13603.2, 0.0)","(-0.001112, -0.00165, 0.000287, 0.002664, 8e-05, -0.001159, 0.000132)"
2020/05/26/02:02:28.402445,57,1590426148,346472024,,"['joint_S', 'joint_L', 'joint_E', 'joint_U', 'joint_R', 'joint_B', 'joint_T']","(2, 5, -1, -9, 6, -2371, 3)","(0.0017, -0.0043, -0.0008, -0.0078, -0.0052, -2.3414, -0.0044)","(0.0, 0.0, 0.0, 0.0, 0.0, -16848.0, 0.0)","(-0.001174, -0.002323, 0.000287, 0.00268, 2e-05, -0.001051, 0.000107)"
2020/05/26/02:02:28.461851,58,1590426148,402261972,,"['joint_S', 'joint_L', 'joint_E', 'joint_U', 'joint_R', 'joint_B', 'joint_T']","(2, 4, -1, -10, 6, -3373, 3)","(0.0017, -0.0034, -0.0008, -0.0087, -0.0052, -3.3309, -0.0044)","(0.0, 0.0, 0.0, 0.0, 0.0, -18844.8, 0.0)","(-0.001224, -0.003089, 0.000287, 0.002825, -2.8e-05, -0.001381, 8.5e-05)"
2020/05/26/02:02:28.517748,59,1590426148,461620092,,"['joint_S', 'joint_L', 'joint_E', 'joint_U', 'joint_R', 'joint_B', 'joint_T']","(2, 3, -1, -10, 5, -4525, 3)","(0.0017, -0.0026, -0.0008, -0.0087, -0.0043, -4.4685, -0.0044)","(0.0, 0.0, 0.0, 124.8, 0.0, -20716.8, 0.0)","(-0.001276, -0.003826, 0.000287, 0.003037, -7e-05, -0.001671, 5.8e-05)"
2020/05/26/02:02:28.574771,60,1590426148,517671108,,"['joint_S', 'joint_L', 'joint_E', 'joint_U', 'joint_R', 'joint_B', 'joint_T']","(2, 2, -1, -10, 5, -5750, 3)","(0.0017, -0.0017, -0.0008, -0.0087, -0.0043, -5.6783, -0.0044)","(0.0, 0.0, 0.0, 0.0, 0.0, -21964.8, 0.0)","(-0.001316, -0.004644, 0.000287, 0.00343, -0.000107, -0.001433, 3.3e-05)"
2020/05/26/02:02:28.631114,61,1590426148,574584960,,"['joint_S', 'joint_L', 'joint_E', 'joint_U', 'joint_R', 'joint_B', 'joint_T']","(2, 1, -1, -9, 5, -7025, 3)","(0.0017, -0.0008, -0.0008, -0.0078, -0.0043, -6.9374, -0.0044)","(0.0, 0.0, 0.0, 0.0, 0.0, -22838.4, 0.0)","(-0.00136, -0.005115, 0.000287, 0.003665, -0.000133, -0.001426, 8e-06)"
2020/05/26/02:02:28.689639,62,1590426148,631077051,,"['joint_S', 'joint_L', 'joint_E', 'joint_U', 'joint_R', 'joint_B', 'joint_T']","(2, -1, -1, -9, 5, -8317, 3)","(0.0017, 0.0008, -0.0008, -0.0078, -0.0043, -8.2133, -0.0044)","(0.0, -124.8, 0.0, -124.0, 0.0, -23337.6, 0.0)","(-0.001391, -0.005115, 0.000287, 0.003538, -0.000158, -0.001663, -8e-06)"
2020/05/26/02:02:28.745277,63,1590426148,689358949,,"['joint_S', 'joint_L', 'joint_E', 'joint_U', 'joint_R', 'joint_B', 'joint_T']","(1, -2, -1, -10, 5, -9750, 3)","(0.0008, 0.0017, -0.0008, -0.0087, -0.0043, -9.6284, -0.0044)","(0.0, 0.0, 0.0, 0.0, 124.8, -25084.8, 0.0)","(-0.001423, -0.004798, 0.000283, 0.003274, -0.000243, -0.001773, -2.4e-05)"
2020/05/26/02:02:28.801236,64,1590426148,745225906,,"['joint_S', 'joint_L', 'joint_E', 'joint_U', 'joint_R', 'joint_B', 'joint_T']","(1, -2, -1, -10, 5, -11222, 3)","(0.0008, 0.0017, -0.0008, -0.0087, -0.0043, -11.0821, -0.0044)","(0.0, 0.0, 0.0, 0.0, 0.0, -27206.4, 0.0)","(-0.001441, -0.004386, 0.000283, 0.003084, -0.0003, -0.001895, -3.9e-05)"
2020/05/26/02:02:28.857519,65,1590426148,801220893,,"['joint_S', 'joint_L', 'joint_E', 'joint_U', 'joint_R', 'joint_B', 'joint_T']","(1, -2, -1, -10, 5, -12814, 3)","(0.0008, 0.0017, -0.0008, -0.0087, -0.0043, -12.6542, -0.0044)","(0.0, 0.0, 0.0, 124.8, 0.0, -28828.8, 0.0)","(-0.001448, -0.00442, 0.000283, 0.00343, -0.000401, -0.002252, -6.4e-05)"
2020/05/26/02:02:28.914076,66,1590426148,857436895,,"['joint_S', 'joint_L', 'joint_E', 'joint_U', 'joint_R', 'joint_B', 'joint_T']","(1, -2, -1, -9, 5, -14493, 3)","(0.0008, 0.0017, -0.0008, -0.0078, -0.0043, -14.3123, -0.0044)","(0.0, 0.0, 0.0, 0.0, 0.0, -30576.0, 0.0)","(-0.001462, -0.004753, 0.000283, 0.004073, -0.000484, -0.001904, -9.1e-05)"
2020/05/26/02:02:28.970535,67,1590426148,913883924,,"['joint_S', 'joint_L', 'joint_E', 'joint_U', 'joint_R', 'joint_B', 'joint_T']","(1, -3, -1, -9, 5, -16197, 3)","(0.0008, 0.0026, -0.0008, -0.0078, -0.0043, -15.9951, -0.0044)","(0.0, 0.0, 0.0, 0.0, 0.0, -30201.6, 0.0)","(-0.001473, -0.004998, 0.000296, 0.004615, -0.000568, -0.001814, -0.000118)"
2020/05/26/02:02:29.026857,68,1590426148,970288038,,"['joint_S', 'joint_L', 'joint_E', 'joint_U', 'joint_R', 'joint_B', 'joint_T']","(1, -4, -1, -8, 5, -17882, 3)","(0.0008, 0.0034, -0.0008, -0.0069, -0.0043, -17.6591, -0.0044)","(0.0, -124.8, 0.0, 0.0, 0.0, -30076.8, 0.0)","(-0.001466, -0.004995, 0.000296, 0.004904, -0.000603, -0.001829, -0.000141)"
2020/05/26/02:02:29.082816,69,1590426149,26823997,,"['joint_S', 'joint_L', 'joint_E', 'joint_U', 'joint_R', 'joint_B', 'joint_T']","(1, -5, -1, -8, 4, -19567, 3)","(0.0008, 0.0043, -0.0008, -0.0069, -0.0034, -19.3231, -0.0044)","(0.0, 0.0, 0.0, 0.0, 0.0, -29078.4, 0.0)","(-0.001536, -0.004898, 0.000285, 0.005089, -0.000636, -0.001957, -0.000159)"
2020/05/26/02:02:29.138549,70,1590426149,82674026,,"['joint_S', 'joint_L', 'joint_E', 'joint_U', 'joint_R', 'joint_B', 'joint_T']","(1, -5, -1, -7, 4, -21199, 3)","(0.0008, 0.0043, -0.0008, -0.006, -0.0034, -20.9347, -0.0044)","(-124.8, 0.0, 0.0, 0.0, 0.0, -28953.6, 0.0)","(-0.001541, -0.00463, 0.000294, 0.005149, -0.00075, -0.002138, -0.000184)"
2020/05/26/02:02:29.196211,71,1590426149,138411045,,"['joint_S', 'joint_L', 'joint_E', 'joint_U', 'joint_R', 'joint_B', 'joint_T']","(1, -5, -1, -7, 4, -22830, 3)","(0.0008, 0.0043, -0.0008, -0.006, -0.0034, -22.5454, -0.0044)","(0.0, 0.0, 0.0, 0.0, 0.0, -28953.6, 0.0)","(-0.001598, -0.004497, 0.000267, 0.005351, -0.00084, -0.001744, -0.000197)"
2020/05/26/02:02:29.252964,72,1590426149,196103096,,"['joint_S', 'joint_L', 'joint_E', 'joint_U', 'joint_R', 'joint_B', 'joint_T']","(0, -5, -1, -7, 4, -24483, 3)","(0.0, 0.0043, -0.0008, -0.006, -0.0034, -24.1778, -0.0044)","(0.0, 0.0, 0.0, 0.0, 0.0, -29078.4, 0.0)","(-0.001604, -0.004354, 0.000285, 0.005538, -0.000933, -0.001704, -0.000215)"
2020/05/26/02:02:29.309796,73,1590426149,252871990,,"['joint_S', 'joint_L', 'joint_E', 'joint_U', 'joint_R', 'joint_B', 'joint_T']","(0, -5, -1, -6, 4, -26134, 3)","(0.0, 0.0043, -0.0008, -0.0052, -0.0034, -25.8082, -0.0044)","(0.0, 124.8, 0.0, 0.0, 0.0, -29203.2, 0.0)","(-0.001582, -0.004143, 0.000301, 0.00566, -0.000974, -0.001897, -0.000234)"
2020/05/26/02:02:29.367598,74,1590426149,309492111,,"['joint_S', 'joint_L', 'joint_E', 'joint_U', 'joint_R', 'joint_B', 'joint_T']","(0, -5, -1, -6, 4, -27789, 3)","(0.0, 0.0043, -0.0008, -0.0052, -0.0034, -27.4426, -0.0044)","(0.0, 0.0, 0.0, 0.0, 0.0, -29203.2, 0.0)","(-0.00152, -0.003826, 0.000303, 0.005687, -0.001046, -0.002047, -0.000253)"
2020/05/26/02:02:29.423409,75,1590426149,367384910,,"['joint_S', 'joint_L', 'joint_E', 'joint_U', 'joint_R', 'joint_B', 'joint_T']","(0, -5, -1, -6, 3, -29442, 3)","(0.0, 0.0043, -0.0008, -0.0052, -0.0026, -29.075, -0.0044)","(0.0, 0.0, 0.0, 124.0, 0.0, -28704.0, 0.0)","(-0.001493, -0.003486, 0.000335, 0.005707, -0.001075, -0.002356, -0.000271)"
2020/05/26/02:02:29.482330,76,1590426149,423398971,,"['joint_S', 'joint_L', 'joint_E', 'joint_U', 'joint_R', 'joint_B', 'joint_T']","(-1, -4, -1, -6, 3, -31102, 3)","(-0.0008, 0.0034, -0.0008, -0.0052, -0.0026, -30.7143, -0.0044)","(0.0, 0.0, 0.0, 0.0, 0.0, -28953.6, 0.0)","(-0.001439, -0.003304, 0.000319, 0.005854, -0.001133, -0.001995, -0.000294)"
2020/05/26/02:02:29.540578,77,1590426149,482167959,,"['joint_S', 'joint_L', 'joint_E', 'joint_U', 'joint_R', 'joint_B', 'joint_T']","(-1, -4, -1, -6, 3, -32843, 3)","(-0.0008, 0.0034, -0.0008, -0.0052, -0.0026, -32.4336, -0.0044)","(0.0, 0.0, 0.0, 0.0, 0.0, -29078.4, 124.8)","(-0.00136, -0.00315, 0.000285, 0.005969, -0.00118, -0.001989, -0.000336)"
2020/05/26/02:02:29.597376,78,1590426149,540465116,,"['joint_S', 'joint_L', 'joint_E', 'joint_U', 'joint_R', 'joint_B', 'joint_T']","(-1, -4, -1, -5, 3, -34496, 3)","(-0.0008, 0.0034, -0.0008, -0.0043, -0.0026, -34.066, -0.0044)","(0.0, 0.0, 0.0, 0.0, 0.0, -29203.2, 0.0)","(-0.001287, -0.002998, 0.000292, 0.006052, -0.001265, -0.001818, -0.000367)"
2020/05/26/02:02:29.656610,79,1590426149,597321987,,"['joint_S', 'joint_L', 'joint_E', 'joint_U', 'joint_R', 'joint_B', 'joint_T']","(-1, -4, -1, -5, 3, -36149, 3)","(-0.0008, 0.0034, -0.0008, -0.0043, -0.0026, -35.6984, -0.0044)","(0.0, 0.0, 0.0, 0.0, 0.0, -29078.4, 0.0)","(-0.001212, -0.002833, 0.000303, 0.00607, -0.001343, -0.00208, -0.000406)"
2020/05/26/02:02:29.713667,80,1590426149,656440019,,"['joint_S', 'joint_L', 'joint_E', 'joint_U', 'joint_R', 'joint_B', 'joint_T']","(-1, -4, -1, -4, 2, -37828, 3)","(-0.0008, 0.0034, -0.0008, -0.0034, -0.0017, -37.3564, -0.0044)","(0.0, 0.0, 0.0, 0.0, 0.0, -28704.0, 0.0)","(-0.001133, -0.002695, 0.000306, 0.006027, -0.001341, -0.002555, -0.000445)"
2020/05/26/02:02:29.770728,81,1590426149,713359117,,"['joint_S', 'joint_L', 'joint_E', 'joint_U', 'joint_R', 'joint_B', 'joint_T']","(-1, -4, -1, -4, 2, -39488, 3)","(-0.0008, 0.0034, -0.0008, -0.0034, -0.0017, -38.9957, -0.0044)","(0.0, 0.0, 0.0, 0.0, 0.0, -28704.0, 0.0)","(-0.001063, -0.002606, 0.000299, 0.006052, -0.001335, -0.002389, -0.000485)"
2020/05/26/02:02:29.828459,82,1590426149,770656108,,"['joint_S', 'joint_L', 'joint_E', 'joint_U', 'joint_R', 'joint_B', 'joint_T']","(-1, -3, -1, -4, 2, -41174, 3)","(-0.0008, 0.0026, -0.0008, -0.0034, -0.0017, -40.6607, -0.0044)","(0.0, 0.0, 0.0, 0.0, 0.0, -29078.4, 0.0)","(-0.000981, -0.002536, 0.000306, 0.00607, -0.001368, -0.002059, -0.000522)"
2020/05/26/02:02:29.886046,83,1590426149,828227043,,"['joint_S', 'joint_L', 'joint_E', 'joint_U', 'joint_R', 'joint_B', 'joint_T']","(-1, -3, -1, -4, 2, -42828, 3)","(-0.0008, 0.0026, -0.0008, -0.0034, -0.0017, -42.2941, -0.0044)","(0.0, 0.0, 0.0, 0.0, 0.0, -29328.0, 0.0)","(-0.00092, -0.002513, 0.000287, 0.006124, -0.001401, -0.001818, -0.000553)"
2020/05/26/02:02:29.941957,84,1590426149,885809898,,"['joint_S', 'joint_L', 'joint_E', 'joint_U', 'joint_R', 'joint_B', 'joint_T']","(-1, -3, -1, -4, 2, -44508, 3)","(-0.0008, 0.0026, -0.0008, -0.0034, -0.0017, -43.9532, -0.0044)","(0.0, 0.0, 0.0, 0.0, 0.0, -29078.4, 0.0)","(-0.000845, -0.002468, 0.000294, 0.006105, -0.001446, -0.002148, -0.000589)"
2020/05/26/02:02:30.000332,85,1590426149,941912889,,"['joint_S', 'joint_L', 'joint_E', 'joint_U', 'joint_R', 'joint_B', 'joint_T']","(-1, -3, -1, -4, 1, -46157, 2)","(-0.0008, 0.0026, -0.0008, -0.0034, -0.0008, -45.5816, -0.0029)","(0.0, 0.0, 0.0, 0.0, -124.8, -28704.0, 0.0)","(-0.000777, -0.002443, 0.000308, 0.006068, -0.001454, -0.002507, -0.000624)"
2020/05/26/02:02:30.057680,86,1590426150,293016,,"['joint_S', 'joint_L', 'joint_E', 'joint_U', 'joint_R', 'joint_B', 'joint_T']","(-1, -3, -1, -3, 1, -47840, 2)","(-0.0008, 0.0026, -0.0008, -0.0026, -0.0008, -47.2436, -0.0029)","(0.0, 0.0, 0.0, 0.0, 0.0, -28579.2, 0.0)","(-0.000723, -0.002355, 0.000287, 0.006004, -0.001477, -0.002611, -0.000663)"
2020/05/26/02:02:30.115125,87,1590426150,57625055,,"['joint_S', 'joint_L', 'joint_E', 'joint_U', 'joint_R', 'joint_B', 'joint_T']","(-1, -3, -1, -4, 1, -49491, 2)","(-0.0008, 0.0026, -0.0008, -0.0034, -0.0008, -48.8741, -0.0029)","(0.0, 0.0, 0.0, 0.0, 0.0, -28329.6, 0.0)","(-0.000634, -0.002336, 0.000296, 0.005981, -0.001483, -0.00252, -0.000696)"
2020/05/26/02:02:30.171803,88,1590426150,114883899,,"['joint_S', 'joint_L', 'joint_E', 'joint_U', 'joint_R', 'joint_B', 'joint_T']","(-1, -3, -1, -4, 1, -51141, 2)","(-0.0008, 0.0026, -0.0008, -0.0034, -0.0008, -50.5035, -0.0029)","(0.0, 0.0, 0.0, 0.0, 0.0, -29078.4, 0.0)","(-0.000612, -0.002339, 0.000296, 0.005963, -0.001458, -0.001866, -0.00073)"
2020/05/26/02:02:30.229790,89,1590426150,171520948,,"['joint_S', 'joint_L', 'joint_E', 'joint_U', 'joint_R', 'joint_B', 'joint_T']","(-1, -3, -1, -3, 1, -52786, 2)","(-0.0008, 0.0026, -0.0008, -0.0026, -0.0008, -52.128, -0.0029)","(0.0, 0.0, 0.0, 0.0, 0.0, -29203.2, 0.0)","(-0.000546, -0.002314, 0.000296, 0.00592, -0.001458, -0.00208, -0.000761)"
2020/05/26/02:02:30.287212,90,1590426150,229619026,,"['joint_S', 'joint_L', 'joint_E', 'joint_U', 'joint_R', 'joint_B', 'joint_T']","(-1, -3, -1, -3, 1, -54463, 2)","(-0.0008, 0.0026, -0.0008, -0.0026, -0.0008, -53.7841, -0.0029)","(0.0, 0.0, 124.0, 0.0, 0.0, -29203.2, 0.0)","(-0.000496, -0.002259, 0.000274, 0.005829, -0.001477, -0.002468, -0.000792)"
2020/05/26/02:02:30.342923,91,1590426150,287026882,,"['joint_S', 'joint_L', 'joint_E', 'joint_U', 'joint_R', 'joint_B', 'joint_T']","(-1, -3, -1, -3, 0, -56119, 2)","(-0.0008, 0.0026, -0.0008, -0.0026, 0.0, -55.4194, -0.0029)","(0.0, 0.0, 0.0, 0.0, 0.0, -28953.6, 0.0)","(-0.000462, -0.002142, 0.000296, 0.00573, -0.001485, -0.002717, -0.000823)"
2020/05/26/02:02:30.399958,92,1590426150,342850923,,"['joint_S', 'joint_L', 'joint_E', 'joint_U', 'joint_R', 'joint_B', 'joint_T']","(-1, -3, -1, -3, 0, -57774, 2)","(-0.0008, 0.0026, -0.0008, -0.0026, 0.0, -57.0538, -0.0029)","(0.0, 0.0, 0.0, 0.0, 0.0, -28579.2, 0.0)","(-0.000451, -0.002026, 0.000296, 0.005687, -0.00152, -0.00286, -0.00085)"
2020/05/26/02:02:30.458599,93,1590426150,399780035,,"['joint_S', 'joint_L', 'joint_E', 'joint_U', 'joint_R', 'joint_B', 'joint_T']","(-1, -3, -1, -3, 0, -59404, 2)","(-0.0008, 0.0026, -0.0008, -0.0026, 0.0, -58.6635, -0.0029)","(-124.0, 0.0, 0.0, 0.0, 0.0, -29078.4, 0.0)","(-0.000455, -0.001935, 0.000299, 0.005695, -0.001508, -0.002167, -0.000877)"
2020/05/26/02:02:30.514699,94,1590426150,458144903,,"['joint_S', 'joint_L', 'joint_E', 'joint_U', 'joint_R', 'joint_B', 'joint_T']","(-1, -3, -1, -3, 0, -61055, 2)","(-0.0008, 0.0026, -0.0008, -0.0026, 0.0, -60.2939, -0.0029)","(0.0, 0.0, 0.0, 0.0, 0.0, -28953.6, -124.8)","(-0.000494, -0.001888, 0.000265, 0.005672, -0.001489, -0.002227, -0.000898)"
2020/05/26/02:02:30.570880,95,1590426150,514659881,,"['joint_S', 'joint_L', 'joint_E', 'joint_U', 'joint_R', 'joint_B', 'joint_T']","(-1, -2, -1, -3, 0, -62705, 2)","(-0.0008, 0.0017, -0.0008, -0.0026, 0.0, -61.9233, -0.0029)","(0.0, 0.0, 0.0, 0.0, 0.0, -28828.8, 0.0)","(-0.000523, -0.001799, 0.000222, 0.005573, -0.001452, -0.00281, -0.000927)"
2020/05/26/02:02:30.627233,96,1590426150,570808887,,"['joint_S', 'joint_L', 'joint_E', 'joint_U', 'joint_R', 'joint_B', 'joint_T']","(-1, -2, -1, -3, 0, -64361, 2)","(-0.0008, 0.0017, -0.0008, -0.0026, 0.0, -63.5587, -0.0029)","(0.0, 0.0, 0.0, 0.0, 0.0, -28828.8, 0.0)","(-0.000555, -0.001736, 0.000136, 0.005483, -0.001392, -0.003024, -0.000956)"
2020/05/26/02:02:30.684211,97,1590426150,627202987,,"['joint_S', 'joint_L', 'joint_E', 'joint_U', 'joint_R', 'joint_B', 'joint_T']","(-1, -2, -1, -3, 0, -66017, 2)","(-0.0008, 0.0017, -0.0008, -0.0026, 0.0, -65.1941, -0.0029)","(-124.0, 0.0, 0.0, 124.0, 0.0, -28828.8, 0.0)","(-0.000566, -0.001718, 6.3e-05, 0.0054, -0.001366, -0.003096, -0.000991)"
2020/05/26/02:02:30.742697,98,1590426150,684146881,,"['joint_S', 'joint_L', 'joint_E', 'joint_U', 'joint_R', 'joint_B', 'joint_T']","(-1, -2, -1, -3, 0, -67677, 2)","(-0.0008, 0.0017, -0.0008, -0.0026, 0.0, -66.8334, -0.0029)","(0.0, 0.0, 0.0, 0.0, 0.0, -29203.2, -124.8)","(-0.000609, -0.001724, -2e-05, 0.005413, -0.001294, -0.002517, -0.001024)"
2020/05/26/02:02:30.801482,99,1590426150,742575883,,"['joint_S', 'joint_L', 'joint_E', 'joint_U', 'joint_R', 'joint_B', 'joint_T']","(-1, -2, -1, -3, 0, -69355, 2)","(-0.0008, 0.0017, -0.0008, -0.0026, 0.0, -68.4905, -0.0029)","(124.8, 0.0, 0.0, 0.0, 0.0, -28953.6, 0.0)","(-0.00067, -0.001754, -8.3e-05, 0.005382, -0.001261, -0.002752, -0.001074)"
2020/05/26/02:02:30.858959,100,1590426150,801274061,,"['joint_S', 'joint_L', 'joint_E', 'joint_U', 'joint_R', 'joint_B', 'joint_T']","(-1, -2, -1, -3, 0, -71040, 2)","(-0.0008, 0.0017, -0.0008, -0.0026, 0.0, -70.1544, -0.0029)","(0.0, 0.0, 0.0, 0.0, 0.0, -29577.6, 0.0)","(-0.00065, -0.001713, -0.000136, 0.005221, -0.001207, -0.002897, -0.001105)"
2020/05/26/02:02:30.915396,101,1590426150,858845949,,"['joint_S', 'joint_L', 'joint_E', 'joint_U', 'joint_R', 'joint_B', 'joint_T']","(-1, -2, -1, -3, 0, -72713, 2)","(-0.0008, 0.0017, -0.0008, -0.0026, 0.0, -71.8066, -0.0029)","(0.0, 0.0, 0.0, 0.0, 0.0, -29203.2, 0.0)","(-0.000689, -0.001677, -0.00019, 0.005003, -0.001137, -0.003453, -0.001144)"
2020/05/26/02:02:30.971987,102,1590426150,915321111,,"['joint_S', 'joint_L', 'joint_E', 'joint_U', 'joint_R', 'joint_B', 'joint_T']","(-1, -2, -2, -3, 0, -74420, 2)","(-0.0008, 0.0017, -0.0017, -0.0026, 0.0, -73.4923, -0.0029)","(0.0, 0.0, 0.0, 124.8, 0.0, -29827.2, 0.0)","(-0.000707, -0.00169, -0.000235, 0.004863, -0.001137, -0.003671, -0.001178)"
2020/05/26/02:02:31.028693,103,1590426150,971772909,,"['joint_S', 'joint_L', 'joint_E', 'joint_U', 'joint_R', 'joint_B', 'joint_T']","(-1, -2, -2, -3, 0, -76158, 1)","(-0.0008, 0.0017, -0.0017, -0.0026, 0.0, -75.2087, -0.0014)","(0.0, 0.0, 0.0, 0.0, 0.0, -30201.6, 0.0)","(-0.000748, -0.001729, -0.000281, 0.005056, -0.001137, -0.003125, -0.001211)"
2020/05/26/02:02:31.087156,104,1590426151,28470039,,"['joint_S', 'joint_L', 'joint_E', 'joint_U', 'joint_R', 'joint_B', 'joint_T']","(-1, -2, -2, -3, -1, -77876, 1)","(-0.0008, 0.0017, -0.0017, -0.0026, 0.0008, -76.9052, -0.0014)","(0.0, 0.0, 0.0, 0.0, 0.0, -29952.0, 0.0)","(-0.000831, -0.001924, -0.000308, 0.005378, -0.00117, -0.002824, -0.001246)"
2020/05/26/02:02:31.144508,105,1590426151,86867094,,"['joint_S', 'joint_L', 'joint_E', 'joint_U', 'joint_R', 'joint_B', 'joint_T']","(-1, -2, -2, -2, -1, -79553, 1)","(-0.0008, 0.0017, -0.0017, -0.0017, 0.0008, -78.5613, -0.0014)","(0.0, 0.0, 0.0, 0.0, 0.0, -28080.0, 0.0)","(-0.00089, -0.002094, -0.000337, 0.005685, -0.001252, -0.002561, -0.001281)"
2020/05/26/02:02:31.202639,106,1590426151,144453048,,"['joint_S', 'joint_L', 'joint_E', 'joint_U', 'joint_R', 'joint_B', 'joint_T']","(-1, -2, -2, -2, -1, -81101, 1)","(-0.0008, 0.0017, -0.0017, -0.0017, 0.0008, -80.09, -0.0014)","(0.0, 0.0, 0.0, 0.0, 0.0, -25958.4, 0.0)","(-0.000981, -0.002191, -0.000351, 0.005672, -0.001254, -0.002748, -0.001306)"
2020/05/26/02:02:31.261730,107,1590426151,202521085,,"['joint_S', 'joint_L', 'joint_E', 'joint_U', 'joint_R', 'joint_B', 'joint_T']","(-1, -2, -2, -2, -1, -82532, 1)","(-0.0008, 0.0017, -0.0017, -0.0017, 0.0008, -81.5032, -0.0014)","(0.0, 0.0, 0.0, 0.0, 0.0, -23462.4, 0.0)","(-0.001065, -0.002128, -0.00038, 0.00551, -0.001304, -0.003347, -0.001317)"
2020/05/26/02:02:31.318902,108,1590426151,261667013,,"['joint_S', 'joint_L', 'joint_E', 'joint_U', 'joint_R', 'joint_B', 'joint_T']","(-1, -2, -2, -2, -1, -83886, 1)","(-0.0008, 0.0017, -0.0017, -0.0017, 0.0008, -82.8403, -0.0014)","(0.0, 0.0, 0.0, 0.0, 0.0, -22464.0, 0.0)","(-0.00114, -0.002049, -0.000396, 0.005343, -0.001314, -0.002797, -0.001333)"
2020/05/26/02:02:31.377796,109,1590426151,318890094,,"['joint_S', 'joint_L', 'joint_E', 'joint_U', 'joint_R', 'joint_B', 'joint_T']","(-1, -2, -2, -2, -1, -85182, 1)","(-0.0008, 0.0017, -0.0017, -0.0017, 0.0008, -84.1202, -0.0014)","(0.0, 0.0, 0.0, 0.0, 0.0, -21964.8, 0.0)","(-0.001212, -0.001953, -0.00041, 0.005353, -0.001324, -0.003015, -0.001354)"
2020/05/26/02:02:31.435429,110,1590426151,377548933,,"['joint_S', 'joint_L', 'joint_E', 'joint_U', 'joint_R', 'joint_B', 'joint_T']","(-1, -2, -2, -2, -1, -86434, 1)","(-0.0008, 0.0017, -0.0017, -0.0017, 0.0008, -85.3566, -0.0014)","(0.0, 0.0, 0.0, 0.0, 0.0, -20716.8, 0.0)","(-0.001239, -0.001883, -0.000421, 0.005444, -0.001351, -0.00314, -0.001373)"
2020/05/26/02:02:31.493489,111,1590426151,435218095,,"['joint_S', 'joint_L', 'joint_E', 'joint_U', 'joint_R', 'joint_B', 'joint_T']","(-1, -2, -2, -1, -1, -87607, 1)","(-0.0008, 0.0017, -0.0017, -0.0008, 0.0008, -86.5149, -0.0014)","(0.0, 0.0, 0.0, 0.0, 0.0, -19344.0, 0.0)","(-0.001301, -0.001836, -0.000442, 0.005592, -0.001409, -0.002544, -0.001391)"
2020/05/26/02:02:31.551035,112,1590426151,493314027,,"['joint_S', 'joint_L', 'joint_E', 'joint_U', 'joint_R', 'joint_B', 'joint_T']","(-1, -2, -2, -1, -1, -88674, 1)","(-0.0008, 0.0017, -0.0017, -0.0008, 0.0008, -87.5686, -0.0014)","(0.0, -124.8, 0.0, 0.0, 0.0, -16972.8, 0.0)","(-0.001344, -0.001781, -0.000437, 0.005722, -0.001473, -0.002642, -0.00141)"
2020/05/26/02:02:31.608253,113,1590426151,550976991,,"['joint_S', 'joint_L', 'joint_E', 'joint_U', 'joint_R', 'joint_B', 'joint_T']","(-2, -2, -2, 0, -2, -89568, 0)","(-0.0017, 0.0017, -0.0017, 0.0, 0.0017, -88.4515, 0.0)","(0.0, 0.0, 0.0, 0.0, 0.0, -13852.8, 0.0)","(-0.001339, -0.001804, -0.000442, 0.005901, -0.001498, -0.002387, -0.001422)"
2020/05/26/02:02:31.668012,114,1590426151,608206033,,"['joint_S', 'joint_L', 'joint_E', 'joint_U', 'joint_R', 'joint_B', 'joint_T']","(-2, -2, -2, 0, -2, -90261, 0)","(-0.0017, 0.0017, -0.0017, 0.0, 0.0017, -89.1359, 0.0)","(0.0, 0.0, 0.0, 0.0, -124.8, -10608.0, 0.0)","(-0.001369, -0.001817, -0.000444, 0.006033, -0.001487, -0.002335, -0.001447)"
2020/05/26/02:02:31.728097,115,1590426151,667845964,,"['joint_S', 'joint_L', 'joint_E', 'joint_U', 'joint_R', 'joint_B', 'joint_T']","(-2, -2, -2, 1, -2, -90762, 0)","(-0.0017, 0.0017, -0.0017, 0.0008, 0.0017, -89.6306, 0.0)","(0.0, 0.0, 0.0, 0.0, 0.0, -6364.8, 0.0)","(-0.001341, -0.001824, -0.000444, 0.005973, -0.001514, -0.00204, -0.00146)"
2020/05/26/02:02:31.788956,116,1590426151,727993011,,"['joint_S', 'joint_L', 'joint_E', 'joint_U', 'joint_R', 'joint_B', 'joint_T']","(-2, -2, -2, 2, -2, -91029, 0)","(-0.0017, 0.0017, -0.0017, 0.0017, 0.0017, -89.8943, 0.0)","(0.0, 0.0, 0.0, 0.0, 0.0, -2995.2, 0.0)","(-0.001337, -0.001745, -0.000444, 0.005674, -0.001487, -0.001746, -0.001462)"
2020/05/26/02:02:31.849774,117,1590426151,788717031,,"['joint_S', 'joint_L', 'joint_E', 'joint_U', 'joint_R', 'joint_B', 'joint_T']","(-2, -2, -2, 2, -2, -91129, 0)","(-0.0017, 0.0017, -0.0017, 0.0017, 0.0017, -89.993, 0.0)","(0.0, 0.0, 0.0, 0.0, 0.0, -748.8, 0.0)","(-0.001301, -0.001636, -0.00041, 0.005225, -0.001446, -0.001916, -0.001462)"
2020/05/26/02:02:31.908374,118,1590426151,849591970,,"['joint_S', 'joint_L', 'joint_E', 'joint_U', 'joint_R', 'joint_B', 'joint_T']","(-2, -2, -2, 1, -2, -91141, 0)","(-0.0017, 0.0017, -0.0017, 0.0008, 0.0017, -90.0049, 0.0)","(0.0, 0.0, 0.0, 0.0, 0.0, 0.0, 0.0)","(-0.001273, -0.001532, -0.000426, 0.004772, -0.001397, -0.0022, -0.001458)"
2020/05/26/02:02:31.967246,119,1590426151,908309936,,"['joint_S', 'joint_L', 'joint_E', 'joint_U', 'joint_R', 'joint_B', 'joint_T']","(-2, -1, -2, 1, -2, -91142, 0)","(-0.0017, 0.0008, -0.0017, 0.0008, 0.0017, -90.0059, 0.0)","(0.0, 0.0, 0.0, 0.0, 0.0, 0.0, 0.0)","(-0.001237, -0.001466, -0.000423, 0.004469, -0.001343, -0.002086, -0.001458)"
2020/05/26/02:02:32.026050,120,1590426151,967109918,,"['joint_S', 'joint_L', 'joint_E', 'joint_U', 'joint_R', 'joint_B', 'joint_T']","(-2, -1, -2, 1, -2, -91142, 0)","(-0.0017, 0.0008, -0.0017, 0.0008, 0.0017, -90.0059, 0.0)","(0.0, 0.0, 0.0, 0.0, 0.0, 0.0, 0.0)","(-0.001192, -0.001409, -0.000417, 0.004199, -0.001298, -0.001986, -0.00146)"
2020/05/26/02:02:32.085516,121,1590426152,25795936,,"['joint_S', 'joint_L', 'joint_E', 'joint_U', 'joint_R', 'joint_B', 'joint_T']","(-2, -1, -2, 0, -2, -91142, 0)","(-0.0017, 0.0008, -0.0017, 0.0, 0.0017, -90.0059, 0.0)","(0.0, 0.0, 0.0, 0.0, 0.0, 0.0, 0.0)","(-0.001162, -0.001391, -0.000408, 0.00395, -0.00123, -0.001887, -0.00146)"
2020/05/26/02:02:32.144042,122,1590426152,85453987,,"['joint_S', 'joint_L', 'joint_E', 'joint_U', 'joint_R', 'joint_B', 'joint_T']","(-2, -1, -2, 0, -2, -91142, 0)","(-0.0017, 0.0008, -0.0017, 0.0, 0.0017, -90.0059, 0.0)","(0.0, 0.0, 0.0, 0.0, 0.0, 0.0, 0.0)","(-0.001119, -0.001373, -0.000403, 0.003721, -0.001182, -0.001785, -0.00146)"
2020/05/26/02:02:32.203003,123,1590426152,143973112,,"['joint_S', 'joint_L', 'joint_E', 'joint_U', 'joint_R', 'joint_B', 'joint_T']","(-2, -1, -2, 0, -2, -91142, 0)","(-0.0017, 0.0008, -0.0017, 0.0, 0.0017, -90.0059, 0.0)","(0.0, 0.0, 0.0, 0.0, 0.0, 0.0, 0.0)","(-0.001081, -0.001373, -0.00036, 0.003484, -0.001127, -0.001688, -0.00146)"
2020/05/26/02:02:32.263031,124,1590426152,202949047,,"['joint_S', 'joint_L', 'joint_E', 'joint_U', 'joint_R', 'joint_B', 'joint_T']","(-2, -1, -2, 0, -2, -91142, 0)","(-0.0017, 0.0008, -0.0017, 0.0, 0.0017, -90.0059, 0.0)","(0.0, 0.0, -124.8, 0.0, 0.0, 0.0, 0.0)","(-0.001044, -0.001384, -0.000346, 0.003299, -0.001077, -0.001599, -0.00146)"
2020/05/26/02:02:32.323242,125,1590426152,262902975,,"['joint_S', 'joint_L', 'joint_E', 'joint_U', 'joint_R', 'joint_B', 'joint_T']","(-2, -1, -2, -1, -2, -91142, 0)","(-0.0017, 0.0008, -0.0017, -0.0008, 0.0017, -90.0059, 0.0)","(0.0, 0.0, 0.0, 0.0, 0.0, 0.0, 0.0)","(-0.001006, -0.001405, -0.000394, 0.003115, -0.001028, -0.001493, -0.001458)"
2020/05/26/02:02:32.384001,126,1590426152,323165893,,"['joint_S', 'joint_L', 'joint_E', 'joint_U', 'joint_R', 'joint_B', 'joint_T']","(-2, -1, -2, -1, -2, -91142, 0)","(-0.0017, 0.0008, -0.0017, -0.0008, 0.0017, -90.0059, 0.0)","(0.0, 0.0, 0.0, 0.0, 0.0, 0.0, 0.0)","(-0.000967, -0.001462, -0.000378, 0.002926, -0.00098, -0.0014, -0.001456)"
2020/05/26/02:02:32.441525,127,1590426152,383955001,,"['joint_S', 'joint_L', 'joint_E', 'joint_U', 'joint_R', 'joint_B', 'joint_T']","(-2, -1, -2, -1, -2, -91142, 0)","(-0.0017, 0.0008, -0.0017, -0.0008, 0.0017, -90.0059, 0.0)","(0.0, 0.0, -124.8, 0.0, 0.0, 0.0, 0.0)","(-0.000929, -0.001466, -0.000317, 0.002779, -0.000933, -0.001302, -0.001456)"
2020/05/26/02:02:32.500931,128,1590426152,441431045,,"['joint_S', 'joint_L', 'joint_E', 'joint_U', 'joint_R', 'joint_B', 'joint_T']","(-2, -1, -2, -1, -2, -91142, 0)","(-0.0017, 0.0008, -0.0017, -0.0008, 0.0017, -90.0059, 0.0)","(0.0, 0.0, 0.0, 0.0, 0.0, 0.0, 0.0)","(-0.00089, -0.001534, -0.000315, 0.002633, -0.000894, -0.001211, -0.001451)"
2020/05/26/02:02:32.559987,129,1590426152,500725030,,"['joint_S', 'joint_L', 'joint_E', 'joint_U', 'joint_R', 'joint_B', 'joint_T']","(-2, -1, -2, -2, -2, -91142, 0)","(-0.0017, 0.0008, -0.0017, -0.0017, 0.0017, -90.0059, 0.0)","(0.0, 0.0, 124.8, 0.0, 0.0, 0.0, 0.0)","(-0.000852, -0.001541, -0.000362, 0.00253, -0.000859, -0.00112, -0.001451)"
2020/05/26/02:02:32.618717,130,1590426152,559720993,,"['joint_S', 'joint_L', 'joint_E', 'joint_U', 'joint_R', 'joint_B', 'joint_T']","(-2, -1, -2, -2, -2, -91142, 0)","(-0.0017, 0.0008, -0.0017, -0.0017, 0.0017, -90.0059, 0.0)","(0.0, 0.0, 0.0, 0.0, 0.0, 0.0, 0.0)","(-0.000816, -0.001579, -0.00034, 0.002427, -0.000824, -0.001034, -0.001449)"
2020/05/26/02:02:32.677522,131,1590426152,618529081,,"['joint_S', 'joint_L', 'joint_E', 'joint_U', 'joint_R', 'joint_B', 'joint_T']","(-2, -1, -2, -2, -2, -91142, 0)","(-0.0017, 0.0008, -0.0017, -0.0017, 0.0017, -90.0059, 0.0)","(0.0, 0.0, 0.0, 0.0, 0.0, 124.8, 0.0)","(-0.000784, -0.001618, -0.000335, 0.002309, -0.000793, -0.000958, -0.001445)"
2020/05/26/02:02:32.736455,132,1590426152,677289962,,"['joint_S', 'joint_L', 'joint_E', 'joint_U', 'joint_R', 'joint_B', 'joint_T']","(-2, -1, -2, -2, -2, -91141, 0)","(-0.0017, 0.0008, -0.0017, -0.0017, 0.0017, -90.0049, 0.0)","(0.0, 0.0, 0.0, 0.0, 0.0, 124.8, 0.0)","(-0.000748, -0.001656, -0.000326, 0.002233, -0.000766, -0.000873, -0.001443)"
2020/05/26/02:02:32.797453,133,1590426152,736279964,,"['joint_S', 'joint_L', 'joint_E', 'joint_U', 'joint_R', 'joint_B', 'joint_T']","(-2, -1, -2, -3, -2, -91141, 0)","(-0.0017, 0.0008, -0.0017, -0.0026, 0.0017, -90.0049, 0.0)","(0.0, 0.0, 0.0, -124.8, 0.0, -124.8, 0.0)","(-0.00072, -0.001695, -0.000321, 0.002198, -0.000745, -0.000767, -0.001443)"
2020/05/26/02:02:32.856660,134,1590426152,797307968,,"['joint_S', 'joint_L', 'joint_E', 'joint_U', 'joint_R', 'joint_B', 'joint_T']","(-2, -1, -2, -3, -2, -91141, 0)","(-0.0017, 0.0008, -0.0017, -0.0026, 0.0017, -90.0049, 0.0)","(0.0, 0.0, 0.0, 0.0, 0.0, 0.0, 0.0)","(-0.000682, -0.001734, -0.000315, 0.002138, -0.000727, -0.000684, -0.001433)"
2020/05/26/02:02:32.916020,135,1590426152,856597900,,"['joint_S', 'joint_L', 'joint_E', 'joint_U', 'joint_R', 'joint_B', 'joint_T']","(-2, -1, -2, -3, -2, -91141, 0)","(-0.0017, 0.0008, -0.0017, -0.0026, 0.0017, -90.0049, 0.0)","(0.0, 0.0, 0.0, 0.0, 0.0, 0.0, 0.0)","(-0.000655, -0.001763, -0.000308, 0.002083, -0.00071, -0.000603, -0.001431)"
2020/05/26/02:02:32.976398,136,1590426152,915920019,,"['joint_S', 'joint_L', 'joint_E', 'joint_U', 'joint_R', 'joint_B', 'joint_T']","(-2, -1, -2, -3, -2, -91141, 0)","(-0.0017, 0.0008, -0.0017, -0.0026, 0.0017, -90.0049, 0.0)","(0.0, 0.0, 0.0, 0.0, 0.0, 0.0, 0.0)","(-0.000623, -0.001795, -0.000299, 0.00205, -0.000696, -0.00052, -0.001431)"
2020/05/26/02:02:33.036901,137,1590426152,976340055,,"['joint_S', 'joint_L', 'joint_E', 'joint_U', 'joint_R', 'joint_B', 'joint_T']","(-2, -1, -2, -3, -2, -91141, 0)","(-0.0017, 0.0008, -0.0017, -0.0026, 0.0017, -90.0049, 0.0)","(0.0, 0.0, 0.0, 0.0, 0.0, 0.0, 0.0)","(-0.000598, -0.001829, -0.000292, 0.002027, -0.000686, -0.00045, -0.001426)"
2020/05/26/02:02:33.093882,138,1590426153,36648035,,"['joint_S', 'joint_L', 'joint_E', 'joint_U', 'joint_R', 'joint_B', 'joint_T']","(-2, -1, -2, -4, -2, -91141, 0)","(-0.0017, 0.0008, -0.0017, -0.0034, 0.0017, -90.0049, 0.0)","(0.0, 0.0, 0.0, 0.0, 0.0, 0.0, 0.0)","(-0.000575, -0.001854, -0.000285, 0.002017, -0.000673, -0.000369, -0.001422)"
2020/05/26/02:02:33.154486,139,1590426153,93825101,,"['joint_S', 'joint_L', 'joint_E', 'joint_U', 'joint_R', 'joint_B', 'joint_T']","(-2, -1, -2, -4, -2, -91141, 0)","(-0.0017, 0.0008, -0.0017, -0.0034, 0.0017, -90.0049, 0.0)","(0.0, 0.0, 0.0, 0.0, 0.0, 0.0, 0.0)","(-0.00055, -0.001881, -0.000278, 0.002011, -0.000669, -0.000296, -0.00141)"
2020/05/26/02:02:33.214077,140,1590426153,154443025,,"['joint_S', 'joint_L', 'joint_E', 'joint_U', 'joint_R', 'joint_B', 'joint_T']","(-2, -1, -2, -4, -2, -91141, 0)","(-0.0017, 0.0008, -0.0017, -0.0034, 0.0017, -90.0049, 0.0)","(0.0, 0.0, 0.0, 0.0, 0.0, 0.0, 0.0)","(-0.000532, -0.001908, -0.000272, 0.002023, -0.000659, -0.000219, -0.001408)"
2020/05/26/02:02:33.273415,141,1590426153,213944911,,"['joint_S', 'joint_L', 'joint_E', 'joint_U', 'joint_R', 'joint_B', 'joint_T']","(-2, -1, -2, -4, -2, -91141, 0)","(-0.0017, 0.0008, -0.0017, -0.0034, 0.0017, -90.0049, 0.0)","(0.0, 0.0, 0.0, 0.0, -124.0, 0.0, 0.0)","(-0.000512, -0.001928, -0.000265, 0.002015, -0.000622, -0.000151, -0.001408)"
2020/05/26/02:02:33.329955,142,1590426153,273282051,,"['joint_S', 'joint_L', 'joint_E', 'joint_U', 'joint_R', 'joint_B', 'joint_T']","(-2, -1, -2, -4, -2, -91141, 0)","(-0.0017, 0.0008, -0.0017, -0.0034, 0.0017, -90.0049, 0.0)","(0.0, 0.0, 0.0, 0.0, 0.0, 0.0, 0.0)","(-0.000494, -0.001947, -0.000258, 0.002021, -0.000653, -8.2e-05, -0.001402)"
2020/05/26/02:02:33.390033,143,1590426153,329962015,,"['joint_S', 'joint_L', 'joint_E', 'joint_U', 'joint_R', 'joint_B', 'joint_T']","(-2, -1, -2, -4, -2, -91141, 0)","(-0.0017, 0.0008, -0.0017, -0.0034, 0.0017, -90.0049, 0.0)","(0.0, 0.0, 0.0, 0.0, 0.0, 0.0, 0.0)","(-0.001112, -0.00119, -0.000843, 0.002295, -0.000698, 0.000101, -0.001258)"
2020/05/26/02:02:33.448207,144,1590426153,389899015,,"['joint_S', 'joint_L', 'joint_E', 'joint_U', 'joint_R', 'joint_B', 'joint_T']","(-16, 23, -20, -1, -3, -91140, 0)","(-0.0139, -0.02, -0.0174, -0.0008, 0.0026, -90.0039, 0.0)","(-873.6, 998.4, -873.6, 124.8, -124.8, 0.0, 0.0)","(-0.002853, -0.000498, -0.002006, 0.004972, -0.00212, 0.000757, 0.000338)"
2020/05/26/02:02:33.504202,145,1590426153,448070049,,"['joint_S', 'joint_L', 'joint_E', 'joint_U', 'joint_R', 'joint_B', 'joint_T']","(-110, 120, -104, 49, -28, -91138, 52)","(-0.0957, -0.1044, -0.0905, 0.0426, 0.0243, -90.0019, -0.0774)","(-2246.4, 2371.2, -2121.6, 1984.0, -748.8, 0.0, 3619.2)","(-0.001829, -0.000999, -0.001552, 0.006144, -0.002643, 0.002466, 0.002192)"
2020/05/26/02:02:33.561113,146,1590426153,503962039,,"['joint_S', 'joint_L', 'joint_E', 'joint_U', 'joint_R', 'joint_B', 'joint_T']","(-284, 305, -271, 197, -88, -91095, 290)","(-0.2471, -0.2654, -0.2358, 0.1714, 0.0765, -89.9595, -0.432)","(-3720.0, 4092.0, -3619.2, 3120.0, -1240.0, 1372.8, 4742.4)","(-0.002142, -0.000854, -0.001591, 0.005666, -0.002233, 0.002418, 0.002084)"
2020/05/26/02:02:33.617733,147,1590426153,560705900,,"['joint_S', 'joint_L', 'joint_E', 'joint_U', 'joint_R', 'joint_B', 'joint_T']","(-559, 601, -535, 412, -177, -91011, 609)","(-0.4864, -0.5229, -0.4655, 0.3585, 0.154, -89.8765, -0.9072)","(-5616.0, 6076.0, -5491.2, 4368.0, -1747.2, 1497.6, 6489.6)","(-0.002083, -0.000825, -0.001434, 0.005392, -0.00211, 0.002486, 0.002437)"
2020/05/26/02:02:33.674152,148,1590426153,617563962,,"['joint_S', 'joint_L', 'joint_E', 'joint_U', 'joint_R', 'joint_B', 'joint_T']","(-926, 1000, -887, 692, -295, -90911, 1037)","(-0.8058, -0.8702, -0.7718, 0.6021, 0.2567, -89.7778, -1.5447)","(-7113.6, 7612.8, -6820.0, 5241.6, -2246.4, 1747.2, 8236.8)","(-0.002044, -0.000992, -0.001552, 0.005427, -0.00211, 0.002281, 0.002115)"
2020/05/26/02:02:33.731966,149,1590426153,673829078,,"['joint_S', 'joint_L', 'joint_E', 'joint_U', 'joint_R', 'joint_B', 'joint_T']","(-1380, 1490, -1323, 1033, -438, -90796, 1553)","(-1.2008, -1.2966, -1.1512, 0.8989, 0.3811, -89.6642, -2.3134)","(-8680.0, 9609.6, -8361.6, 6614.4, -2745.6, 2121.6, 10108.8)","(-0.00204, -0.000911, -0.00148, 0.005543, -0.002118, 0.002331, 0.002069)"
2020/05/26/02:02:33.789187,150,1590426153,731841087,,"['joint_S', 'joint_L', 'joint_E', 'joint_U', 'joint_R', 'joint_B', 'joint_T']","(-1926, 2082, -1846, 1446, -612, -90653, 2170)","(-1.676, -1.8117, -1.6063, 1.2583, 0.5325, -89.523, -3.2325)","(-10608.0, 11606.4, -10292.0, 7862.4, -3472.0, 2870.4, 12230.4)","(-0.002318, -0.000793, -0.001591, 0.005433, -0.001969, 0.001914, 0.002258)"
2020/05/26/02:02:33.846114,151,1590426153,789022922,,"['joint_S', 'joint_L', 'joint_E', 'joint_U', 'joint_R', 'joint_B', 'joint_T']","(-2615, 2827, -2505, 1965, -832, -90480, 2944)","(-2.2755, -2.46, -2.1798, 1.7099, 0.724, -89.3521, -4.3855)","(-12979.2, 14012.0, -12355.2, 9734.4, -4118.4, 3120.0, 14726.4)","(-0.00235, -0.000818, -0.001894, 0.005485, -0.001943, 0.002152, 0.002544)"
2020/05/26/02:02:33.902090,152,1590426153,845814943,,"['joint_S', 'joint_L', 'joint_E', 'joint_U', 'joint_R', 'joint_B', 'joint_T']","(-3421, 3700, -3279, 2573, -1091, -90285, 3851)","(-2.9769, -3.2197, -2.8533, 2.239, 0.9493, -89.1596, -5.7367)","(-15225.6, 16244.0, -14476.8, 11532.0, -4867.2, 3619.2, 17347.2)","(-0.002151, -0.000784, -0.001795, 0.005396, -0.001745, 0.002381, 0.002835)"
2020/05/26/02:02:33.958623,153,1590426153,901952981,,"['joint_S', 'joint_L', 'joint_E', 'joint_U', 'joint_R', 'joint_B', 'joint_T']","(-4310, 4662, -4132, 3245, -1375, -90064, 4863)","(-3.7505, -4.0568, -3.5956, 2.8238, 1.1965, -88.9413, -7.2442)","(-16348.8, 17721.6, -15600.0, 12480.0, -5241.6, 4243.2, 18844.8)","(-0.002203, -0.001008, -0.001539, 0.005538, -0.001817, 0.00213, 0.002634)"
2020/05/26/02:02:34.015630,154,1590426153,958587884,,"['joint_S', 'joint_L', 'joint_E', 'joint_U', 'joint_R', 'joint_B', 'joint_T']","(-5268, 5699, -5051, 3971, -1681, -89824, 5952)","(-4.5842, -4.9592, -4.3954, 3.4555, 1.4628, -88.7043, -8.8665)","(-17097.6, 18220.8, -16368.0, 12854.4, -5580.0, 4243.2, 19593.6)","(-0.002026, -0.001244, -0.001573, 0.005479, -0.001885, 0.002063, 0.002565)"
2020/05/26/02:02:34.072012,155,1590426154,15496015,,"['joint_S', 'joint_L', 'joint_E', 'joint_U', 'joint_R', 'joint_B', 'joint_T']","(-6244, 6755, -5988, 4709, -1994, -89583, 7058)","(-5.4335, -5.8782, -5.2107, 4.0977, 1.7351, -88.4663, -10.5141)","(-17097.6, 18470.4, -16348.8, 12772.0, -5456.0, 4118.4, 18844.8)","(-0.002051, -0.001183, -0.001507, 0.005458, -0.001735, 0.002215, 0.002733)"
2020/05/26/02:02:34.129519,156,1590426154,72005033,,"['joint_S', 'joint_L', 'joint_E', 'joint_U', 'joint_R', 'joint_B', 'joint_T']","(-7201, 7791, -6904, 5430, -2298, -89344, 8136)","(-6.2663, -6.7797, -6.0078, 4.7252, 1.9997, -88.2303, -12.1199)","(-16848.0, 18595.2, -16244.0, 12729.6, -5332.0, 4492.8, 19344.0)","(-0.002006, -0.001305, -0.001634, 0.005361, -0.00186, 0.00197, 0.002779)"
2020/05/26/02:02:34.189267,157,1590426154,129476070,,"['joint_S', 'joint_L', 'joint_E', 'joint_U', 'joint_R', 'joint_B', 'joint_T']","(-8204, 8877, -7866, 6187, -2619, -89094, 9273)","(-7.1391, -7.7248, -6.845, 5.3839, 2.279, -87.9834, -13.8137)","(-16864.0, 18470.4, -16099.2, 12729.6, -5366.4, 4368.0, 19344.0)","(-0.002182, -0.001434, -0.00162, 0.005345, -0.00178, 0.002142, 0.002698)"
2020/05/26/02:02:34.245887,158,1590426154,188980102,,"['joint_S', 'joint_L', 'joint_E', 'joint_U', 'joint_R', 'joint_B', 'joint_T']","(-9188, 9942, -8810, 6929, -2932, -88848, 10390)","(-7.9954, -8.6515, -7.6664, 6.0296, 2.5514, -87.7405, -15.4776)","(-16864.0, 18470.4, -16224.0, 12854.4, -5366.4, 4492.8, 19094.4)","(-0.002074, -0.001319, -0.001548, 0.005442, -0.0018, 0.002082, 0.002627)"
2020/05/26/02:02:34.302402,159,1590426154,245832920,,"['joint_S', 'joint_L', 'joint_E', 'joint_U', 'joint_R', 'joint_B', 'joint_T']","(-10157, 10991, -9739, 7661, -3242, -88605, 11484)","(-8.8386, -9.5644, -8.4749, 6.6666, 2.8212, -87.5005, -17.1073)","(-16972.8, 18228.0, -16224.0, 12772.0, -5491.2, 3993.6, 19219.2)","(-0.00223, -0.001353, -0.001693, 0.005304, -0.0017, 0.002142, 0.002656)"
2020/05/26/02:02:34.357683,160,1590426154,302229881,,"['joint_S', 'joint_L', 'joint_E', 'joint_U', 'joint_R', 'joint_B', 'joint_T']","(-11112, 12025, -10655, 8382, -3547, -88367, 12560)","(-9.6697, -10.4642, -9.272, 7.294, 3.0866, -87.2655, -18.7102)","(-16972.8, 18595.2, -16224.0, 12854.4, -5491.2, 4368.0, 19344.0)","(-0.001949, -0.001534, -0.001616, 0.005334, -0.001584, 0.001933, 0.002696)"
2020/05/26/02:02:34.413703,161,1590426154,357597112,,"['joint_S', 'joint_L', 'joint_E', 'joint_U', 'joint_R', 'joint_B', 'joint_T']","(-12067, 13058, -11570, 9102, -3851, -88126, 13642)","(-10.5007, -11.3631, -10.0682, 7.9205, 3.3511, -87.0275, -20.3221)","(-17222.4, 18476.0, -16348.8, 12729.6, -5366.4, 4243.2, 19219.2)","(-0.001983, -0.001656, -0.00167, 0.005586, -0.001662, 0.001781, 0.002754)"
2020/05/26/02:02:34.469830,162,1590426154,413564920,,"['joint_S', 'joint_L', 'joint_E', 'joint_U', 'joint_R', 'joint_B', 'joint_T']","(-13020, 14089, -12484, 9822, -4155, -87889, 14723)","(-11.33, -12.2603, -10.8636, 8.5471, 3.6156, -86.7934, -21.9324)","(-16988.0, 18470.4, -16099.2, 12772.0, -5491.2, 4243.2, 19094.4)","(-0.001994, -0.001627, -0.001686, 0.005293, -0.001732, 0.001964, 0.002592)"
2020/05/26/02:02:34.527357,163,1590426154,469651937,,"['joint_S', 'joint_L', 'joint_E', 'joint_U', 'joint_R', 'joint_B', 'joint_T']","(-13971, 15118, -13395, 10539, -4458, -87653, 15790)","(-12.1576, -13.1557, -11.6563, 9.171, 3.8793, -86.5604, -23.5219)","(-16972.8, 18352.0, -16224.0, 12604.8, -5366.4, 4368.0, 19219.2)","(-0.002089, -0.001634, -0.001677, 0.005487, -0.001831, 0.001933, 0.002891)"
2020/05/26/02:02:34.584533,164,1590426154,527312040,,"['joint_S', 'joint_L', 'joint_E', 'joint_U', 'joint_R', 'joint_B', 'joint_T']","(-14958, 16187, -14342, 11283, -4773, -87407, 16907)","(-13.0165, -14.0859, -12.4804, 9.8185, 4.1534, -86.3174, -25.1858)","(-17097.6, 18600.0, -16348.8, 12979.2, -5491.2, 4243.2, 19344.0)","(-0.002055, -0.001754, -0.001525, 0.005557, -0.001761, 0.001901, 0.003019)"
2020/05/26/02:02:34.640187,165,1590426154,584284067,,"['joint_S', 'joint_L', 'joint_E', 'joint_U', 'joint_R', 'joint_B', 'joint_T']","(-15909, 17217, -15254, 12004, -5077, -87171, 17993)","(-13.844, -14.9823, -13.274, 10.4459, 4.418, -86.0844, -26.8036)","(-16848.0, 18220.8, -15974.4, 12648.0, -5332.0, 4118.4, 19219.2)","(-0.001958, -0.001761, -0.001806, 0.005353, -0.001833, 0.002154, 0.002509)"
2020/05/26/02:02:34.698339,166,1590426154,639909982,,"['joint_S', 'joint_L', 'joint_E', 'joint_U', 'joint_R', 'joint_B', 'joint_T']","(-16863, 18252, -16171, 12726, -5384, -86936, 19076)","(-14.6742, -15.8829, -14.072, 11.0742, 4.6851, -85.8523, -28.4169)","(-15974.4, 17347.2, -15475.2, 12105.6, -5116.8, 4243.2, 18220.8)","(-0.001924, -0.001976, -0.001498, 0.005233, -0.001823, 0.001926, 0.002466)"
2020/05/26/02:02:34.755547,167,1590426154,698128938,,"['joint_S', 'joint_L', 'joint_E', 'joint_U', 'joint_R', 'joint_B', 'joint_T']","(-17734, 19193, -17006, 13385, -5664, -86722, 20058)","(-15.4322, -16.7018, -14.7986, 11.6476, 4.9288, -85.641, -29.8798)","(-14227.2, 15376.0, -13728.0, 10608.0, -4492.8, 3369.6, 16348.8)","(-0.001622, -0.002076, -0.001407, 0.005479, -0.001817, 0.00191, 0.002466)"
2020/05/26/02:02:34.811566,168,1590426154,755357980,,"['joint_S', 'joint_L', 'joint_E', 'joint_U', 'joint_R', 'joint_B', 'joint_T']","(-18485, 20008, -17728, 13954, -5904, -86532, 20910)","(-16.0857, -17.411, -15.4269, 12.1428, 5.1376, -85.4533, -31.149)","(-12105.6, 13104.0, -11656.0, 9235.2, -3868.8, 3244.8, 13478.4)","(-0.001681, -0.002223, -0.001321, 0.005132, -0.001588, 0.001789, 0.002486)"
2020/05/26/02:02:34.868262,169,1590426154,811418056,,"['joint_S', 'joint_L', 'joint_E', 'joint_U', 'joint_R', 'joint_B', 'joint_T']","(-19101, 20673, -18318, 14418, -6099, -86380, 21610)","(-16.6217, -17.9897, -15.9404, 12.5466, 5.3073, -85.3032, -32.1918)","(-9734.4, 10857.6, -9484.8, 7488.0, -3100.0, 2496.0, 11232.0)","(-0.001362, -0.002361, -0.00121, 0.005149, -0.001796, 0.002005, 0.002142)"
2020/05/26/02:02:34.925698,170,1590426154,868182897,,"['joint_S', 'joint_L', 'joint_E', 'joint_U', 'joint_R', 'joint_B', 'joint_T']","(-19601, 21214, -18796, 14793, -6258, -86255, 22176)","(-17.0568, -18.4605, -16.3563, 12.8729, 5.4457, -85.1798, -33.0349)","(-8112.0, 8611.2, -7737.6, 5990.4, -2620.8, 1872.0, 8985.6)","(-0.001398, -0.002293, -0.00131, 0.005324, -0.001652, 0.002281, 0.002049)"
