time,.header.seq,.header.stamp.secs,.header.stamp.nsecs,.header.frame_id,.wrench.force.x,.wrench.force.y,.wrench.force.z,.wrench.torque.x,.wrench.torque.y,.wrench.torque.z
2020/05/26/02:03:43.593665,40699,1590426223,593470172,robotiq_ft_frame_id,-10.6999998093,239.220001221,4.26999998093,5.22700023651,2.13199996948,1.3259999752
2020/05/26/02:03:43.610113,40700,1590426223,609885292,robotiq_ft_frame_id,-10.6800003052,239.270004272,4.15000009537,5.22900009155,2.13400006294,1.3259999752
2020/05/26/02:03:43.626422,40701,1590426223,626305702,robotiq_ft_frame_id,-10.6400003433,239.320007324,4.17000007629,5.23000001907,2.13400006294,1.3259999752
2020/05/26/02:03:43.642817,40702,1590426223,642631895,robotiq_ft_frame_id,-10.6599998474,239.369995117,4.23999977112,5.23299980164,2.132999897,1.3259999752
2020/05/26/02:03:43.659126,40703,1590426223,658929480,robotiq_ft_frame_id,-10.6099996567,239.320007324,4.15999984741,5.23000001907,2.13199996948,1.32500004768
2020/05/26/02:03:43.675431,40704,1590426223,675215786,robotiq_ft_frame_id,-10.6199998856,239.320007324,4.21999979019,5.23000001907,2.132999897,1.3259999752
2020/05/26/02:03:43.691680,40705,1590426223,691514327,robotiq_ft_frame_id,-10.779999733,239.270004272,4.23000001907,5.22800016403,2.13499999046,1.32500004768
2020/05/26/02:03:43.704002,40706,1590426223,703806399,robotiq_ft_frame_id,-10.8000001907,239.270004272,4.19000005722,5.22900009155,2.13700008392,1.32500004768
2020/05/26/02:03:43.720378,40707,1590426223,720140885,robotiq_ft_frame_id,-10.6099996567,239.190002441,4.21000003815,5.22800016403,2.13199996948,1.32700002193
2020/05/26/02:03:43.736785,40708,1590426223,736533918,robotiq_ft_frame_id,-10.6400003433,239.240005493,4.25,5.23000001907,2.13100004196,1.32799994946
2020/05/26/02:03:43.753077,40709,1590426223,752930495,robotiq_ft_frame_id,-10.720000267,239.320007324,4.17000007629,5.23000001907,2.13499999046,1.3259999752
2020/05/26/02:03:43.769502,40710,1590426223,769320940,robotiq_ft_frame_id,-10.6899995804,239.289993286,4.21000003815,5.22800016403,2.13499999046,1.32500004768
2020/05/26/02:03:43.785881,40711,1590426223,785715304,robotiq_ft_frame_id,-10.7100000381,239.25,4.25,5.22599983215,2.13400006294,1.3259999752
2020/05/26/02:03:43.802339,40712,1590426223,802116656,robotiq_ft_frame_id,-10.6999998093,239.259994507,4.21999979019,5.22800016403,2.13599991798,1.3259999752
2020/05/26/02:03:43.818651,40713,1590426223,818484041,robotiq_ft_frame_id,-10.7399997711,239.309997559,4.19999980927,5.23000001907,2.13599991798,1.32700002193
2020/05/26/02:03:43.835034,40714,1590426223,834870607,robotiq_ft_frame_id,-10.6599998474,239.289993286,4.21999979019,5.22800016403,2.13199996948,1.32799994946
2020/05/26/02:03:43.851395,40715,1590426223,851260689,robotiq_ft_frame_id,-10.6700000763,239.270004272,4.28000020981,5.22700023651,2.132999897,1.32700002193
2020/05/26/02:03:43.863721,40716,1590426223,863550465,robotiq_ft_frame_id,-10.6800003052,239.270004272,4.17999982834,5.22800016403,2.13400006294,1.32799994946
2020/05/26/02:03:43.880170,40717,1590426223,879948404,robotiq_ft_frame_id,-10.6899995804,239.270004272,4.17999982834,5.22800016403,2.13499999046,1.32899999619
2020/05/26/02:03:43.896410,40718,1590426223,896262443,robotiq_ft_frame_id,-10.6499996185,239.259994507,4.15999984741,5.22900009155,2.13199996948,1.32700002193
2020/05/26/02:03:43.912700,40719,1590426223,912545600,robotiq_ft_frame_id,-10.6700000763,239.270004272,4.19000005722,5.22800016403,2.132999897,1.3259999752
2020/05/26/02:03:43.929131,40720,1590426223,928903745,robotiq_ft_frame_id,-10.6899995804,239.270004272,4.19999980927,5.22900009155,2.13499999046,1.32700002193
2020/05/26/02:03:43.945553,40721,1590426223,945309117,robotiq_ft_frame_id,-10.6999998093,239.25,4.30999994278,5.22499990463,2.132999897,1.32700002193
2020/05/26/02:03:43.961837,40722,1590426223,961638883,robotiq_ft_frame_id,-10.7299995422,239.339996338,4.15000009537,5.23000001907,2.13499999046,1.3259999752
2020/05/26/02:03:43.978164,40723,1590426223,977982190,robotiq_ft_frame_id,-10.6800003052,239.279998779,4.13000011444,5.22900009155,2.13400006294,1.32799994946
2020/05/26/02:03:43.994613,40724,1590426223,994379574,robotiq_ft_frame_id,-10.720000267,239.330001831,4.23999977112,5.23000001907,2.13400006294,1.3259999752
2020/05/26/02:03:44.010966,40725,1590426224,10688991,robotiq_ft_frame_id,-10.7399997711,239.350006104,4.13000011444,5.23000001907,2.13599991798,1.3259999752
2020/05/26/02:03:44.027154,40726,1590426224,27004227,robotiq_ft_frame_id,-10.7299995422,239.36000061,4.09999990463,5.22900009155,2.13499999046,1.3259999752
2020/05/26/02:03:44.039413,40727,1590426224,39275394,robotiq_ft_frame_id,-10.6000003815,239.350006104,4.21999979019,5.22800016403,2.13000011444,1.32400000095
2020/05/26/02:03:44.055726,40728,1590426224,55564200,robotiq_ft_frame_id,-10.6400003433,239.419998169,4.25,5.22900009155,2.13100004196,1.32400000095
2020/05/26/02:03:44.072048,40729,1590426224,71862412,robotiq_ft_frame_id,-10.7899999619,239.270004272,4.17000007629,5.22900009155,2.13599991798,1.32899999619
2020/05/26/02:03:44.088358,40730,1590426224,88177560,robotiq_ft_frame_id,-10.6899995804,239.270004272,4.19999980927,5.22900009155,2.13499999046,1.3259999752
2020/05/26/02:03:44.104614,40731,1590426224,104477901,robotiq_ft_frame_id,-10.7100000381,239.220001221,4.15999984741,5.22800016403,2.13400006294,1.3259999752
2020/05/26/02:03:44.120915,40732,1590426224,120763359,robotiq_ft_frame_id,-10.7299995422,239.199996948,4.17999982834,5.22800016403,2.13499999046,1.32700002193
2020/05/26/02:03:44.137286,40733,1590426224,137069823,robotiq_ft_frame_id,-10.7399997711,239.210006714,4.15999984741,5.22700023651,2.13599991798,1.32700002193
2020/05/26/02:03:44.153612,40734,1590426224,153435106,robotiq_ft_frame_id,-10.6499996185,239.300003052,4.21999979019,5.22700023651,2.13100004196,1.32799994946
2020/05/26/02:03:44.169909,40735,1590426224,169771823,robotiq_ft_frame_id,-10.6300001144,239.320007324,4.21999979019,5.23000001907,2.132999897,1.3259999752
2020/05/26/02:03:44.186306,40736,1590426224,186127672,robotiq_ft_frame_id,-10.6700000763,239.270004272,4.21999979019,5.22900009155,2.13400006294,1.32700002193
2020/05/26/02:03:44.202747,40737,1590426224,202528202,robotiq_ft_frame_id,-10.720000267,239.190002441,4.19999980927,5.22800016403,2.13400006294,1.32700002193
2020/05/26/02:03:44.219150,40738,1590426224,218922528,robotiq_ft_frame_id,-10.7700004578,239.240005493,4.19000005722,5.22900009155,2.13499999046,1.32700002193
2020/05/26/02:03:44.231348,40739,1590426224,231202933,robotiq_ft_frame_id,-10.6300001144,239.199996948,4.26999998093,5.22900009155,2.132999897,1.32700002193
2020/05/26/02:03:44.247736,40740,1590426224,247552138,robotiq_ft_frame_id,-10.6700000763,239.330001831,4.34000015259,5.22900009155,2.13100004196,1.32799994946
2020/05/26/02:03:44.264099,40741,1590426224,263861860,robotiq_ft_frame_id,-10.7100000381,239.309997559,4.23999977112,5.23000001907,2.132999897,1.32700002193
2020/05/26/02:03:44.280428,40742,1590426224,280209615,robotiq_ft_frame_id,-10.6999998093,239.199996948,4.19000005722,5.22800016403,2.132999897,1.3259999752
2020/05/26/02:03:44.296694,40743,1590426224,296564351,robotiq_ft_frame_id,-10.7600002289,239.240005493,4.21000003815,5.22900009155,2.13400006294,1.32799994946
2020/05/26/02:03:44.313094,40744,1590426224,312920414,robotiq_ft_frame_id,-10.5699996948,239.279998779,4.23000001907,5.22900009155,2.13000011444,1.3259999752
2020/05/26/02:03:44.329440,40745,1590426224,329242269,robotiq_ft_frame_id,-10.6899995804,239.300003052,4.17999982834,5.23000001907,2.132999897,1.32700002193
2020/05/26/02:03:44.345708,40746,1590426224,345565280,robotiq_ft_frame_id,-10.75,239.270004272,4.21999979019,5.23000001907,2.13400006294,1.32700002193
2020/05/26/02:03:44.362159,40747,1590426224,361907764,robotiq_ft_frame_id,-10.7700004578,239.259994507,4.19999980927,5.22900009155,2.13499999046,1.32799994946
2020/05/26/02:03:44.378374,40748,1590426224,378226659,robotiq_ft_frame_id,-10.7299995422,239.210006714,4.15000009537,5.22800016403,2.13499999046,1.3259999752
2020/05/26/02:03:44.394686,40749,1590426224,394515675,robotiq_ft_frame_id,-10.6499996185,239.259994507,4.17999982834,5.22900009155,2.13199996948,1.32799994946
2020/05/26/02:03:44.406977,40750,1590426224,406779524,robotiq_ft_frame_id,-10.6599998474,239.289993286,4.23000001907,5.22700023651,2.132999897,1.32799994946
2020/05/26/02:03:44.423337,40751,1590426224,423122683,robotiq_ft_frame_id,-10.6599998474,239.289993286,4.23000001907,5.22700023651,2.132999897,1.32799994946
2020/05/26/02:03:44.439609,40752,1590426224,439436458,robotiq_ft_frame_id,-10.7700004578,239.279998779,4.19999980927,5.22900009155,2.13599991798,1.3259999752
2020/05/26/02:03:44.455868,40753,1590426224,455730778,robotiq_ft_frame_id,-10.7399997711,239.210006714,4.23000001907,5.22800016403,2.13599991798,1.3259999752
2020/05/26/02:03:44.472294,40754,1590426224,472054313,robotiq_ft_frame_id,-10.6300001144,239.199996948,4.19999980927,5.22800016403,2.13400006294,1.32400000095
2020/05/26/02:03:44.488647,40755,1590426224,488372232,robotiq_ft_frame_id,-10.6000003815,239.210006714,4.19999980927,5.22700023651,2.13199996948,1.3259999752
2020/05/26/02:03:44.504864,40756,1590426224,504681062,robotiq_ft_frame_id,-10.6899995804,239.350006104,4.21999979019,5.23000001907,2.13199996948,1.32500004768
2020/05/26/02:03:44.521181,40757,1590426224,520982386,robotiq_ft_frame_id,-10.6999998093,239.270004272,4.17999982834,5.22800016403,2.13499999046,1.3259999752
2020/05/26/02:03:44.537491,40758,1590426224,537298861,robotiq_ft_frame_id,-10.7399997711,239.330001831,4.15999984741,5.23000001907,2.13700008392,1.32500004768
2020/05/26/02:03:44.553803,40759,1590426224,553612090,robotiq_ft_frame_id,-10.6999998093,239.330001831,4.23000001907,5.23099994659,2.13199996948,1.3259999752
2020/05/26/02:03:44.570082,40760,1590426224,569916753,robotiq_ft_frame_id,-10.6999998093,239.320007324,4.19999980927,5.23199987411,2.132999897,1.32500004768
2020/05/26/02:03:44.586413,40761,1590426224,586213388,robotiq_ft_frame_id,-10.7299995422,239.229995728,4.13999986649,5.22700023651,2.13499999046,1.32799994946
2020/05/26/02:03:44.598721,40762,1590426224,598467772,robotiq_ft_frame_id,-10.6800003052,239.259994507,4.23000001907,5.22800016403,2.132999897,1.32700002193
2020/05/26/02:03:44.615029,40763,1590426224,614855397,robotiq_ft_frame_id,-10.6800003052,239.279998779,4.21999979019,5.22800016403,2.13400006294,1.32700002193
2020/05/26/02:03:44.631347,40764,1590426224,631199150,robotiq_ft_frame_id,-10.6800003052,239.259994507,4.19999980927,5.22800016403,2.13400006294,1.32799994946
2020/05/26/02:03:44.647722,40765,1590426224,647549017,robotiq_ft_frame_id,-10.7299995422,239.199996948,4.21000003815,5.22700023651,2.13499999046,1.32700002193
2020/05/26/02:03:44.664068,40766,1590426224,663868192,robotiq_ft_frame_id,-10.6599998474,239.229995728,4.21000003815,5.23000001907,2.13199996948,1.32799994946
2020/05/26/02:03:44.680340,40767,1590426224,680175076,robotiq_ft_frame_id,-10.6899995804,239.270004272,4.17999982834,5.22800016403,2.13499999046,1.32799994946
2020/05/26/02:03:44.696720,40768,1590426224,696523294,robotiq_ft_frame_id,-10.6700000763,239.259994507,4.17999982834,5.22900009155,2.132999897,1.32799994946
2020/05/26/02:03:44.713143,40769,1590426224,712979858,robotiq_ft_frame_id,-10.6499996185,239.289993286,4.19000005722,5.22700023651,2.13100004196,1.32700002193
2020/05/26/02:03:44.729608,40770,1590426224,729406608,robotiq_ft_frame_id,-10.6800003052,239.259994507,4.15000009537,5.22900009155,2.13400006294,1.32700002193
2020/05/26/02:03:44.745989,40771,1590426224,745791095,robotiq_ft_frame_id,-10.6999998093,239.199996948,4.17999982834,5.22800016403,2.132999897,1.32700002193
2020/05/26/02:03:44.758321,40772,1590426224,758093609,robotiq_ft_frame_id,-10.5699996948,239.229995728,4.26000022888,5.22900009155,2.13100004196,1.32899999619
2020/05/26/02:03:44.774573,40773,1590426224,774410050,robotiq_ft_frame_id,-10.6099996567,239.320007324,4.28000020981,5.23000001907,2.13199996948,1.32799994946
2020/05/26/02:03:44.790846,40774,1590426224,790688212,robotiq_ft_frame_id,-10.6400003433,239.270004272,4.17999982834,5.22900009155,2.13100004196,1.32799994946
2020/05/26/02:03:44.807225,40775,1590426224,807018806,robotiq_ft_frame_id,-10.6700000763,239.229995728,4.19000005722,5.22800016403,2.13000011444,1.32899999619
2020/05/26/02:03:44.823619,40776,1590426224,823390797,robotiq_ft_frame_id,-10.6499996185,239.240005493,4.26999998093,5.22800016403,2.13100004196,1.32799994946
2020/05/26/02:03:44.839889,40777,1590426224,839726017,robotiq_ft_frame_id,-10.7100000381,239.210006714,4.19999980927,5.22700023651,2.13400006294,1.3259999752
2020/05/26/02:03:44.856188,40778,1590426224,856025311,robotiq_ft_frame_id,-10.7100000381,239.179992676,4.26000022888,5.22800016403,2.13400006294,1.32700002193
2020/05/26/02:03:44.872622,40779,1590426224,872340576,robotiq_ft_frame_id,-10.6400003433,239.300003052,4.30999994278,5.22499990463,2.13100004196,1.32700002193
2020/05/26/02:03:44.888793,40780,1590426224,888654306,robotiq_ft_frame_id,-10.720000267,239.229995728,4.19999980927,5.22599983215,2.13499999046,1.32700002193
2020/05/26/02:03:44.905135,40781,1590426224,904962389,robotiq_ft_frame_id,-10.6999998093,239.220001221,4.15999984741,5.22700023651,2.132999897,1.32500004768
2020/05/26/02:03:44.921564,40782,1590426224,921295271,robotiq_ft_frame_id,-10.7100000381,239.199996948,4.26000022888,5.22599983215,2.13400006294,1.32899999619
2020/05/26/02:03:44.937888,40783,1590426224,937624198,robotiq_ft_frame_id,-10.6999998093,239.199996948,4.21999979019,5.22700023651,2.13199996948,1.32799994946
2020/05/26/02:03:44.950027,40784,1590426224,949855452,robotiq_ft_frame_id,-10.720000267,239.309997559,4.19999980927,5.23099994659,2.13499999046,1.3259999752
2020/05/26/02:03:44.966327,40785,1590426224,966178743,robotiq_ft_frame_id,-10.7399997711,239.309997559,4.26000022888,5.22800016403,2.132999897,1.3259999752
2020/05/26/02:03:44.982702,40786,1590426224,982540700,robotiq_ft_frame_id,-10.7399997711,239.339996338,4.21000003815,5.22800016403,2.13499999046,1.32899999619
2020/05/26/02:03:44.999039,40787,1590426224,998913011,robotiq_ft_frame_id,-10.7100000381,239.210006714,4.15999984741,5.22900009155,2.13400006294,1.32700002193
2020/05/26/02:03:45.015326,40788,1590426225,15235554,robotiq_ft_frame_id,-10.7299995422,239.190002441,4.17000007629,5.22800016403,2.13499999046,1.32700002193
2020/05/26/02:03:45.031745,40789,1590426225,31562123,robotiq_ft_frame_id,-10.720000267,239.229995728,4.17000007629,5.22599983215,2.13400006294,1.32799994946
2020/05/26/02:03:45.048107,40790,1590426225,47873691,robotiq_ft_frame_id,-10.6999998093,239.259994507,4.17999982834,5.22800016403,2.13499999046,1.32700002193
2020/05/26/02:03:45.064419,40791,1590426225,64182616,robotiq_ft_frame_id,-10.5900001526,239.229995728,4.26999998093,5.22599983215,2.13000011444,1.3259999752
2020/05/26/02:03:45.080741,40792,1590426225,80509672,robotiq_ft_frame_id,-10.6899995804,239.339996338,4.21000003815,5.23000001907,2.13199996948,1.3259999752
2020/05/26/02:03:45.097007,40793,1590426225,96841813,robotiq_ft_frame_id,-10.7299995422,239.350006104,4.21999979019,5.22900009155,2.13499999046,1.32799994946
2020/05/26/02:03:45.113329,40794,1590426225,113154178,robotiq_ft_frame_id,-10.6800003052,239.259994507,4.23000001907,5.23099994659,2.132999897,1.32799994946
2020/05/26/02:03:45.125529,40795,1590426225,125417901,robotiq_ft_frame_id,-10.6400003433,239.259994507,4.23000001907,5.23000001907,2.13100004196,1.32799994946
2020/05/26/02:03:45.142084,40796,1590426225,141795776,robotiq_ft_frame_id,-10.6700000763,239.259994507,4.19999980927,5.22800016403,2.132999897,1.32700002193
2020/05/26/02:03:45.158403,40797,1590426225,158182323,robotiq_ft_frame_id,-10.7100000381,239.25,4.30000019073,5.22499990463,2.13400006294,1.32700002193
2020/05/26/02:03:45.174675,40798,1590426225,174516657,robotiq_ft_frame_id,-10.7299995422,239.289993286,4.32000017166,5.22700023651,2.13199996948,1.3259999752
2020/05/26/02:03:45.190942,40799,1590426225,190791074,robotiq_ft_frame_id,-10.779999733,239.25,4.19000005722,5.23000001907,2.13599991798,1.32899999619
2020/05/26/02:03:45.207324,40800,1590426225,207103318,robotiq_ft_frame_id,-10.7399997711,239.309997559,4.26000022888,5.23000001907,2.13400006294,1.32799994946
2020/05/26/02:03:45.223585,40801,1590426225,223392659,robotiq_ft_frame_id,-10.7100000381,239.339996338,4.25,5.22900009155,2.132999897,1.32799994946
2020/05/26/02:03:45.239837,40802,1590426225,239678261,robotiq_ft_frame_id,-10.6499996185,239.289993286,4.19999980927,5.22900009155,2.13100004196,1.32799994946
2020/05/26/02:03:45.256123,40803,1590426225,255963148,robotiq_ft_frame_id,-10.6899995804,239.270004272,4.19000005722,5.22800016403,2.13400006294,1.3259999752
2020/05/26/02:03:45.272480,40804,1590426225,272260393,robotiq_ft_frame_id,-10.6499996185,239.270004272,4.26999998093,5.22700023651,2.13100004196,1.32700002193
2020/05/26/02:03:45.288804,40805,1590426225,288570734,robotiq_ft_frame_id,-10.6300001144,239.300003052,4.21000003815,5.23000001907,2.13199996948,1.32899999619
2020/05/26/02:03:45.305052,40806,1590426225,304897470,robotiq_ft_frame_id,-10.6599998474,239.279998779,4.23000001907,5.22800016403,2.132999897,1.32799994946
2020/05/26/02:03:45.317296,40807,1590426225,317154031,robotiq_ft_frame_id,-10.6000003815,239.199996948,4.23000001907,5.22800016403,2.13000011444,1.32799994946
2020/05/26/02:03:45.333773,40808,1590426225,333562929,robotiq_ft_frame_id,-10.6700000763,239.119995117,4.23000001907,5.22599983215,2.132999897,1.32700002193
2020/05/26/02:03:45.350163,40809,1590426225,349966685,robotiq_ft_frame_id,-10.6199998856,239.36000061,4.23000001907,5.23000001907,2.13100004196,1.32799994946
2020/05/26/02:03:45.366500,40810,1590426225,366365767,robotiq_ft_frame_id,-10.6800003052,239.339996338,4.21999979019,5.22900009155,2.13100004196,1.32700002193
2020/05/26/02:03:45.382882,40811,1590426225,382703820,robotiq_ft_frame_id,-10.6999998093,239.220001221,4.26999998093,5.22599983215,2.132999897,1.32899999619
2020/05/26/02:03:45.399243,40812,1590426225,399093032,robotiq_ft_frame_id,-10.6999998093,239.210006714,4.25,5.22599983215,2.132999897,1.32700002193
2020/05/26/02:03:45.415524,40813,1590426225,415392372,robotiq_ft_frame_id,-10.6700000763,239.279998779,4.21999979019,5.22700023651,2.132999897,1.32700002193
2020/05/26/02:03:45.431900,40814,1590426225,431692382,robotiq_ft_frame_id,-10.6199998856,239.240005493,4.25,5.22599983215,2.13199996948,1.32799994946
2020/05/26/02:03:45.448160,40815,1590426225,447982548,robotiq_ft_frame_id,-10.6199998856,239.210006714,4.15999984741,5.22700023651,2.132999897,1.32899999619
2020/05/26/02:03:45.464455,40816,1590426225,464268374,robotiq_ft_frame_id,-10.6800003052,239.259994507,4.13999986649,5.22900009155,2.13499999046,1.3259999752
2020/05/26/02:03:45.480735,40817,1590426225,480558887,robotiq_ft_frame_id,-10.720000267,239.300003052,4.17000007629,5.23099994659,2.13499999046,1.32700002193
2020/05/26/02:03:45.493049,40818,1590426225,492819815,robotiq_ft_frame_id,-10.720000267,239.240005493,4.17000007629,5.22800016403,2.13400006294,1.32500004768
2020/05/26/02:03:45.509330,40819,1590426225,509161116,robotiq_ft_frame_id,-10.720000267,239.330001831,4.13000011444,5.22900009155,2.13499999046,1.32500004768
2020/05/26/02:03:45.525633,40820,1590426225,525494281,robotiq_ft_frame_id,-10.7899999619,239.270004272,4.17999982834,5.22599983215,2.13499999046,1.32500004768
2020/05/26/02:03:45.542024,40821,1590426225,541827475,robotiq_ft_frame_id,-10.7299995422,239.220001221,4.17999982834,5.22499990463,2.13400006294,1.32700002193
2020/05/26/02:03:45.558396,40822,1590426225,558189401,robotiq_ft_frame_id,-10.7100000381,239.220001221,4.19000005722,5.22599983215,2.132999897,1.32700002193
2020/05/26/02:03:45.574792,40823,1590426225,574570448,robotiq_ft_frame_id,-10.7700004578,239.240005493,4.23999977112,5.23000001907,2.13499999046,1.32899999619
2020/05/26/02:03:45.591151,40824,1590426225,590944729,robotiq_ft_frame_id,-10.6899995804,239.300003052,4.23000001907,5.22800016403,2.132999897,1.32799994946
2020/05/26/02:03:45.607529,40825,1590426225,607309388,robotiq_ft_frame_id,-10.6899995804,239.279998779,4.19000005722,5.22700023651,2.13499999046,1.32799994946
2020/05/26/02:03:45.623865,40826,1590426225,623624528,robotiq_ft_frame_id,-10.720000267,239.25,4.25,5.22599983215,2.13400006294,1.32799994946
2020/05/26/02:03:45.640149,40827,1590426225,639959973,robotiq_ft_frame_id,-10.7399997711,239.279998779,4.26000022888,5.22800016403,2.132999897,1.32799994946
2020/05/26/02:03:45.656449,40828,1590426225,656246072,robotiq_ft_frame_id,-10.7899999619,239.279998779,4.15000009537,5.22800016403,2.13599991798,1.32700002193
2020/05/26/02:03:45.668645,40829,1590426225,668460940,robotiq_ft_frame_id,-10.6700000763,239.160003662,4.17999982834,5.22800016403,2.13199996948,1.32799994946
2020/05/26/02:03:45.684954,40830,1590426225,684754359,robotiq_ft_frame_id,-10.6300001144,239.119995117,4.23000001907,5.22700023651,2.13000011444,1.32799994946
2020/05/26/02:03:45.701289,40831,1590426225,701084177,robotiq_ft_frame_id,-10.8199996948,239.320007324,4.19000005722,5.23099994659,2.13599991798,1.3259999752
2020/05/26/02:03:45.717637,40832,1590426225,717427431,robotiq_ft_frame_id,-10.75,239.229995728,4.19999980927,5.23000001907,2.13499999046,1.3259999752
2020/05/26/02:03:45.733993,40833,1590426225,733771793,robotiq_ft_frame_id,-10.6499996185,239.270004272,4.19999980927,5.22800016403,2.13100004196,1.32700002193
2020/05/26/02:03:45.750309,40834,1590426225,750126803,robotiq_ft_frame_id,-10.6999998093,239.149993896,4.15999984741,5.22599983215,2.13499999046,1.3259999752
2020/05/26/02:03:45.766657,40835,1590426225,766501156,robotiq_ft_frame_id,-10.6899995804,239.13999939,4.19000005722,5.22499990463,2.13499999046,1.3259999752
2020/05/26/02:03:45.783017,40836,1590426225,782870451,robotiq_ft_frame_id,-10.6599998474,239.240005493,4.25,5.22700023651,2.13100004196,1.32799994946
2020/05/26/02:03:45.799411,40837,1590426225,799265013,robotiq_ft_frame_id,-10.6800003052,239.330001831,4.25,5.22800016403,2.13199996948,1.3259999752
2020/05/26/02:03:45.815819,40838,1590426225,815639593,robotiq_ft_frame_id,-10.6700000763,239.279998779,4.23999977112,5.22800016403,2.13199996948,1.32700002193
2020/05/26/02:03:45.832115,40839,1590426225,831963326,robotiq_ft_frame_id,-10.6499996185,239.13999939,4.13000011444,5.22700023651,2.13100004196,1.32799994946
2020/05/26/02:03:45.844334,40840,1590426225,844180855,robotiq_ft_frame_id,-10.6199998856,239.130004883,4.15000009537,5.22599983215,2.1289999485,1.32799994946
2020/05/26/02:03:45.860642,40841,1590426225,860483042,robotiq_ft_frame_id,-10.7100000381,239.300003052,4.21999979019,5.22900009155,2.13199996948,1.32700002193
2020/05/26/02:03:45.877006,40842,1590426225,876782284,robotiq_ft_frame_id,-10.6599998474,239.279998779,4.23000001907,5.22900009155,2.13199996948,1.3259999752
2020/05/26/02:03:45.893337,40843,1590426225,893096888,robotiq_ft_frame_id,-10.6199998856,239.399993896,4.32000017166,5.22900009155,2.13000011444,1.32500004768
2020/05/26/02:03:45.909636,40844,1590426225,909462756,robotiq_ft_frame_id,-10.75,239.210006714,4.23999977112,5.22800016403,2.13599991798,1.32500004768
2020/05/26/02:03:45.926037,40845,1590426225,925772453,robotiq_ft_frame_id,-10.6899995804,239.240005493,4.21000003815,5.22800016403,2.13400006294,1.3259999752
2020/05/26/02:03:45.942254,40846,1590426225,942060296,robotiq_ft_frame_id,-10.6999998093,239.300003052,4.25,5.23099994659,2.13199996948,1.32700002193
2020/05/26/02:03:45.958591,40847,1590426225,958366997,robotiq_ft_frame_id,-10.6700000763,239.279998779,4.21999979019,5.23000001907,2.13199996948,1.3259999752
2020/05/26/02:03:45.974887,40848,1590426225,974720900,robotiq_ft_frame_id,-10.720000267,239.300003052,4.19000005722,5.23000001907,2.13499999046,1.3259999752
2020/05/26/02:03:45.991209,40849,1590426225,991008722,robotiq_ft_frame_id,-10.6999998093,239.36000061,4.26999998093,5.22800016403,2.13199996948,1.32700002193
2020/05/26/02:03:46.007411,40850,1590426226,7293399,robotiq_ft_frame_id,-10.6300001144,239.289993286,4.19999980927,5.22800016403,2.13000011444,1.3259999752
2020/05/26/02:03:46.023741,40851,1590426226,23572660,robotiq_ft_frame_id,-10.7100000381,239.240005493,4.13999986649,5.22700023651,2.13499999046,1.32700002193
2020/05/26/02:03:46.040090,40852,1590426226,39892852,robotiq_ft_frame_id,-10.7600002289,239.259994507,4.15000009537,5.22800016403,2.13499999046,1.32799994946
2020/05/26/02:03:46.052356,40853,1590426226,52102387,robotiq_ft_frame_id,-10.7399997711,239.339996338,4.15999984741,5.22900009155,2.13499999046,1.3259999752
2020/05/26/02:03:46.068604,40854,1590426226,68411162,robotiq_ft_frame_id,-10.779999733,239.300003052,4.17000007629,5.22900009155,2.13700008392,1.32700002193
2020/05/26/02:03:46.085000,40855,1590426226,84737328,robotiq_ft_frame_id,-10.7399997711,239.220001221,4.26000022888,5.22599983215,2.13499999046,1.32700002193
2020/05/26/02:03:46.101301,40856,1590426226,101133323,robotiq_ft_frame_id,-10.6899995804,239.25,4.23999977112,5.22800016403,2.13400006294,1.32700002193
2020/05/26/02:03:46.117620,40857,1590426226,117460954,robotiq_ft_frame_id,-10.6899995804,239.270004272,4.17999982834,5.22800016403,2.13499999046,1.32700002193
2020/05/26/02:03:46.133870,40858,1590426226,133745223,robotiq_ft_frame_id,-10.720000267,239.190002441,4.19999980927,5.22800016403,2.13400006294,1.3259999752
2020/05/26/02:03:46.150319,40859,1590426226,150093980,robotiq_ft_frame_id,-10.6599998474,239.229995728,4.17000007629,5.22900009155,2.13100004196,1.32700002193
2020/05/26/02:03:46.166594,40860,1590426226,166429973,robotiq_ft_frame_id,-10.75,239.270004272,4.19999980927,5.23000001907,2.13400006294,1.32799994946
2020/05/26/02:03:46.182871,40861,1590426226,182721111,robotiq_ft_frame_id,-10.720000267,239.210006714,4.21999979019,5.22700023651,2.13400006294,1.3259999752
2020/05/26/02:03:46.199311,40862,1590426226,199034918,robotiq_ft_frame_id,-10.7100000381,239.210006714,4.26000022888,5.22700023651,2.132999897,1.3259999752
2020/05/26/02:03:46.215563,40863,1590426226,215345286,robotiq_ft_frame_id,-10.6400003433,239.369995117,4.21000003815,5.23000001907,2.13100004196,1.3259999752
2020/05/26/02:03:46.227805,40864,1590426226,227596475,robotiq_ft_frame_id,-10.720000267,239.320007324,4.19999980927,5.23000001907,2.132999897,1.32500004768
2020/05/26/02:03:46.244143,40865,1590426226,243985262,robotiq_ft_frame_id,-10.6199998856,239.169998169,4.23000001907,5.22700023651,2.13100004196,1.32500004768
2020/05/26/02:03:46.260494,40866,1590426226,260311577,robotiq_ft_frame_id,-10.6199998856,239.160003662,4.21999979019,5.22599983215,2.13100004196,1.32700002193
2020/05/26/02:03:46.276859,40867,1590426226,276652561,robotiq_ft_frame_id,-10.6999998093,239.220001221,4.21999979019,5.22700023651,2.13199996948,1.3259999752
2020/05/26/02:03:46.293266,40868,1590426226,292978856,robotiq_ft_frame_id,-10.7399997711,239.259994507,4.26999998093,5.22900009155,2.13199996948,1.3259999752
2020/05/26/02:03:46.309512,40869,1590426226,309303949,robotiq_ft_frame_id,-10.7399997711,239.25,4.19999980927,5.22900009155,2.13199996948,1.32700002193
2020/05/26/02:03:46.325777,40870,1590426226,325605588,robotiq_ft_frame_id,-10.779999733,239.259994507,4.11999988556,5.22800016403,2.13499999046,1.32799994946
2020/05/26/02:03:46.342085,40871,1590426226,341880078,robotiq_ft_frame_id,-10.6700000763,239.240005493,4.17999982834,5.22800016403,2.13199996948,1.3259999752
2020/05/26/02:03:46.358346,40872,1590426226,358184521,robotiq_ft_frame_id,-10.6400003433,239.259994507,4.19999980927,5.22800016403,2.13100004196,1.3259999752
2020/05/26/02:03:46.374738,40873,1590426226,374511379,robotiq_ft_frame_id,-10.720000267,239.199996948,4.15000009537,5.22700023651,2.13499999046,1.3259999752
2020/05/26/02:03:46.390974,40874,1590426226,390799792,robotiq_ft_frame_id,-10.6999998093,239.240005493,4.15000009537,5.22700023651,2.13499999046,1.3259999752
2020/05/26/02:03:46.407351,40875,1590426226,407083728,robotiq_ft_frame_id,-10.6199998856,239.229995728,4.21999979019,5.23000001907,2.1289999485,1.32899999619
2020/05/26/02:03:46.419552,40876,1590426226,419354562,robotiq_ft_frame_id,-10.6899995804,239.36000061,4.19999980927,5.23000001907,2.13400006294,1.32799994946
2020/05/26/02:03:46.435910,40877,1590426226,435686387,robotiq_ft_frame_id,-10.6599998474,239.350006104,4.15999984741,5.23000001907,2.13499999046,1.32700002193
2020/05/26/02:03:46.452265,40878,1590426226,452051041,robotiq_ft_frame_id,-10.6400003433,239.289993286,4.17999982834,5.22700023651,2.13100004196,1.3259999752
2020/05/26/02:03:46.468604,40879,1590426226,468429344,robotiq_ft_frame_id,-10.6800003052,239.229995728,4.13999986649,5.22800016403,2.132999897,1.3259999752
2020/05/26/02:03:46.485024,40880,1590426226,484812168,robotiq_ft_frame_id,-10.7600002289,239.300003052,4.17999982834,5.23000001907,2.13599991798,1.32799994946
2020/05/26/02:03:46.501328,40881,1590426226,501191454,robotiq_ft_frame_id,-10.720000267,239.320007324,4.15000009537,5.23099994659,2.13400006294,1.32799994946
2020/05/26/02:03:46.517730,40882,1590426226,517543615,robotiq_ft_frame_id,-10.6800003052,239.289993286,4.11999988556,5.23000001907,2.132999897,1.32700002193
2020/05/26/02:03:46.534186,40883,1590426226,533944958,robotiq_ft_frame_id,-10.6599998474,239.270004272,4.17000007629,5.22900009155,2.132999897,1.32799994946
2020/05/26/02:03:46.550604,40884,1590426226,550373763,robotiq_ft_frame_id,-10.7299995422,239.199996948,4.21999979019,5.22700023651,2.13400006294,1.32799994946
2020/05/26/02:03:46.566904,40885,1590426226,566738243,robotiq_ft_frame_id,-10.6800003052,239.25,4.19999980927,5.22800016403,2.13400006294,1.32799994946
2020/05/26/02:03:46.579151,40886,1590426226,579014220,robotiq_ft_frame_id,-10.6999998093,239.259994507,4.15999984741,5.22800016403,2.13499999046,1.32899999619
2020/05/26/02:03:46.595659,40887,1590426226,595439962,robotiq_ft_frame_id,-10.720000267,239.199996948,4.17999982834,5.22900009155,2.13400006294,1.32899999619
2020/05/26/02:03:46.612000,40888,1590426226,611811340,robotiq_ft_frame_id,-10.6700000763,239.309997559,4.19000005722,5.23000001907,2.13100004196,1.32700002193
2020/05/26/02:03:46.628340,40889,1590426226,628137357,robotiq_ft_frame_id,-10.6999998093,239.339996338,4.15000009537,5.23000001907,2.132999897,1.32700002193
2020/05/26/02:03:46.644629,40890,1590426226,644442015,robotiq_ft_frame_id,-10.6499996185,239.279998779,4.19999980927,5.22800016403,2.13199996948,1.3259999752
2020/05/26/02:03:46.660991,40891,1590426226,660751490,robotiq_ft_frame_id,-10.779999733,239.380004883,4.21999979019,5.22900009155,2.13400006294,1.3259999752
2020/05/26/02:03:46.677347,40892,1590426226,677081564,robotiq_ft_frame_id,-10.779999733,239.320007324,4.19999980927,5.22900009155,2.13400006294,1.32700002193
2020/05/26/02:03:46.693663,40893,1590426226,693423268,robotiq_ft_frame_id,-10.7299995422,239.220001221,4.19000005722,5.22800016403,2.13199996948,1.32799994946
2020/05/26/02:03:46.710029,40894,1590426226,709823008,robotiq_ft_frame_id,-10.6999998093,239.190002441,4.19999980927,5.22800016403,2.13199996948,1.32899999619
2020/05/26/02:03:46.726297,40895,1590426226,726150092,robotiq_ft_frame_id,-10.6599998474,239.220001221,4.15999984741,5.22900009155,2.13100004196,1.3259999752
2020/05/26/02:03:46.742602,40896,1590426226,742436080,robotiq_ft_frame_id,-10.6499996185,239.240005493,4.15000009537,5.23000001907,2.13199996948,1.32500004768
2020/05/26/02:03:46.754850,40897,1590426226,754680230,robotiq_ft_frame_id,-10.6099996567,239.25,4.19999980927,5.22700023651,2.13000011444,1.3259999752
2020/05/26/02:03:46.771174,40898,1590426226,771015006,robotiq_ft_frame_id,-10.6099996567,239.240005493,4.19000005722,5.22700023651,2.13100004196,1.32700002193
2020/05/26/02:03:46.787493,40899,1590426226,787322859,robotiq_ft_frame_id,-10.6400003433,239.259994507,4.15999984741,5.22900009155,2.13100004196,1.32700002193
2020/05/26/02:03:46.803992,40900,1590426226,803739513,robotiq_ft_frame_id,-10.6800003052,239.369995117,4.17999982834,5.22900009155,2.132999897,1.32899999619
2020/05/26/02:03:46.820403,40901,1590426226,820143325,robotiq_ft_frame_id,-10.6400003433,239.410003662,4.23999977112,5.23000001907,2.13100004196,1.32799994946
2020/05/26/02:03:46.836698,40902,1590426226,836523640,robotiq_ft_frame_id,-10.6899995804,239.339996338,4.17000007629,5.22900009155,2.13100004196,1.32799994946
2020/05/26/02:03:46.853015,40903,1590426226,852873597,robotiq_ft_frame_id,-10.7100000381,239.320007324,4.17000007629,5.23000001907,2.132999897,1.32799994946
2020/05/26/02:03:46.869463,40904,1590426226,869228846,robotiq_ft_frame_id,-10.7100000381,239.320007324,4.15000009537,5.23000001907,2.132999897,1.32799994946
2020/05/26/02:03:46.885770,40905,1590426226,885536863,robotiq_ft_frame_id,-10.6599998474,239.240005493,4.17999982834,5.22700023651,2.13100004196,1.3259999752
2020/05/26/02:03:46.902038,40906,1590426226,901859716,robotiq_ft_frame_id,-10.6999998093,239.240005493,4.25,5.22700023651,2.13100004196,1.32700002193
2020/05/26/02:03:46.918423,40907,1590426226,918245350,robotiq_ft_frame_id,-10.8000001907,239.509994507,4.30999994278,5.23999977112,2.1210000515,1.32700002193
2020/05/26/02:03:46.930667,40908,1590426226,930519605,robotiq_ft_frame_id,-11.470000267,239.229995728,4.19999980927,5.21600008011,2.06399989128,1.3259999752
2020/05/26/02:03:46.947110,40909,1590426226,946910889,robotiq_ft_frame_id,-11.6300001144,239.539993286,4.13999986649,5.24900007248,2.05900001526,1.32799994946
2020/05/26/02:03:46.963415,40910,1590426226,963277608,robotiq_ft_frame_id,-11.0200004578,239.059997559,4.17999982834,5.21400022507,2.11500000954,1.32899999619
2020/05/26/02:03:46.979785,40911,1590426226,979647558,robotiq_ft_frame_id,-10.9099998474,239.570007324,4.23999977112,5.24100017548,2.12199997902,1.33000004292
2020/05/26/02:03:46.996130,40912,1590426226,995984091,robotiq_ft_frame_id,-11.3199996948,239.279998779,4.23000001907,5.21299982071,2.08299994469,1.32799994946
2020/05/26/02:03:47.012511,40913,1590426227,12318880,robotiq_ft_frame_id,-11.1700000763,239.229995728,4.17999982834,5.22900009155,2.09100008011,1.32899999619
2020/05/26/02:03:47.028907,40914,1590426227,28690149,robotiq_ft_frame_id,-11.1099996567,238.88999939,4.13000011444,5.21400022507,2.08999991417,1.32899999619
2020/05/26/02:03:47.045226,40915,1590426227,45046681,robotiq_ft_frame_id,-11.6000003815,239.229995728,4.13999986649,5.21799993515,2.06699991226,1.32799994946
2020/05/26/02:03:47.061559,40916,1590426227,61398835,robotiq_ft_frame_id,-11.5600004196,239.080001831,4.19000005722,5.20200014114,2.05100011826,1.32799994946
2020/05/26/02:03:47.077934,40917,1590426227,77777158,robotiq_ft_frame_id,-11.2100000381,239.160003662,4.23999977112,5.23099994659,2.10100007057,1.32899999619
2020/05/26/02:03:47.094312,40918,1590426227,94091090,robotiq_ft_frame_id,-11.1700000763,239.119995117,4.32999992371,5.21899986267,2.09800004959,1.33099997044
2020/05/26/02:03:47.106467,40919,1590426227,106322842,robotiq_ft_frame_id,-11.3299999237,239.300003052,4.38000011444,5.23199987411,2.08599996567,1.33200001717
2020/05/26/02:03:47.122810,40920,1590426227,122624179,robotiq_ft_frame_id,-11.1300001144,239.38999939,4.36999988556,5.2389998436,2.10599994659,1.33200001717
2020/05/26/02:03:47.139209,40921,1590426227,138951180,robotiq_ft_frame_id,-10.8999996185,239.479995728,4.38000011444,5.24399995804,2.13100004196,1.33299994469
2020/05/26/02:03:47.155476,40922,1590426227,155272901,robotiq_ft_frame_id,-10.8800001144,239.380004883,4.59999990463,5.23699998856,2.14199995995,1.33200001717
2020/05/26/02:03:47.171762,40923,1590426227,171605229,robotiq_ft_frame_id,-11.3699998856,239.130004883,4.63999986649,5.21999979019,2.08100008965,1.33200001717
2020/05/26/02:03:47.188111,40924,1590426227,187963914,robotiq_ft_frame_id,-11.3599996567,239.240005493,4.57999992371,5.23099994659,2.07399988174,1.33299994469
2020/05/26/02:03:47.204422,40925,1590426227,204278145,robotiq_ft_frame_id,-11.4600000381,239.229995728,4.57000017166,5.22399997711,2.06900000572,1.33399999142
2020/05/26/02:03:47.220740,40926,1590426227,220614591,robotiq_ft_frame_id,-11.6599998474,239.009994507,4.65000009537,5.20699977875,2.04500007629,1.33399999142
2020/05/26/02:03:47.237114,40927,1590426227,236946640,robotiq_ft_frame_id,-11.1899995804,239.229995728,4.76999998093,5.24800014496,2.11199998856,1.33599996567
2020/05/26/02:03:47.253538,40928,1590426227,253350055,robotiq_ft_frame_id,-9.71000003815,239.690002441,5.09000015259,5.26399993896,2.2460000515,1.33899998665
2020/05/26/02:03:47.270002,40929,1590426227,269764706,robotiq_ft_frame_id,-9.90999984741,238.880004883,5.11000013351,5.18699979782,2.24499988556,1.3370000124
2020/05/26/02:03:47.282227,40930,1590426227,282088278,robotiq_ft_frame_id,-11.8100004196,239.86000061,5.05999994278,5.28299999237,2.03200006485,1.3370000124
2020/05/26/02:03:47.298679,40931,1590426227,298471522,robotiq_ft_frame_id,-12.3000001907,238.919998169,4.88000011444,5.21799993515,1.98000001907,1.33500003815
2020/05/26/02:03:47.314957,40932,1590426227,314803346,robotiq_ft_frame_id,-11.5200004578,239.490005493,4.86000013351,5.27500009537,2.06900000572,1.3370000124
2020/05/26/02:03:47.331301,40933,1590426227,331119871,robotiq_ft_frame_id,-10.6899995804,239.580001831,5.36000013351,5.23400020599,2.13899993896,1.33899998665
2020/05/26/02:03:47.347747,40934,1590426227,347494239,robotiq_ft_frame_id,-10.4799995422,239.559997559,5.48999977112,5.23500013351,2.17300009727,1.33800005913
2020/05/26/02:03:47.364121,40935,1590426227,363957736,robotiq_ft_frame_id,-9.92000007629,238.699996948,5.48000001907,5.19600009918,2.23900008202,1.33800005913
2020/05/26/02:03:47.380473,40936,1590426227,380314866,robotiq_ft_frame_id,-10.3900003433,239.160003662,5.44000005722,5.24800014496,2.20000004768,1.33899998665
2020/05/26/02:03:47.396861,40937,1590426227,396675155,robotiq_ft_frame_id,-12.1800003052,238.669998169,5.26999998093,5.19899988174,1.99100005627,1.33800005913
2020/05/26/02:03:47.413356,40938,1590426227,413115677,robotiq_ft_frame_id,-11.6899995804,239.36000061,5.44999980927,5.25099992752,2.03999996185,1.34000003338
2020/05/26/02:03:47.429666,40939,1590426227,429494169,robotiq_ft_frame_id,-10.6400003433,238.869995117,5.57000017166,5.21400022507,2.14499998093,1.34000003338
2020/05/26/02:03:47.441929,40940,1590426227,441780254,robotiq_ft_frame_id,-9.30000019073,238.440002441,5.90999984741,5.17700004578,2.29699993134,1.34000003338
2020/05/26/02:03:47.458322,40941,1590426227,458152170,robotiq_ft_frame_id,-9.85999965668,239.160003662,6.05999994278,5.23699998856,2.24799990654,1.3409999609
2020/05/26/02:03:47.474752,40942,1590426227,474545115,robotiq_ft_frame_id,-12.0699996948,238.910003662,5.80000019073,5.19500017166,1.98599994183,1.34000003338
2020/05/26/02:03:47.491127,40943,1590426227,490908144,robotiq_ft_frame_id,-12.5399999619,239.75,5.53000020981,5.28100013733,1.94500005245,1.34000003338
2020/05/26/02:03:47.507479,40944,1590426227,507295256,robotiq_ft_frame_id,-11.8000001907,239.050003052,5.61999988556,5.24599981308,2.05500006676,1.34200000763
2020/05/26/02:03:47.523897,40945,1590426227,523698802,robotiq_ft_frame_id,-10.3599996567,239.220001221,6.38999986649,5.22700023651,2.19799995422,1.34500002861
2020/05/26/02:03:47.540274,40946,1590426227,540044779,robotiq_ft_frame_id,-9.64000034332,240.100006104,6.51000022888,5.27400016785,2.25699996948,1.34500002861
2020/05/26/02:03:47.556479,40947,1590426227,556356997,robotiq_ft_frame_id,-11.0399999619,239.029998779,6.25,5.19500017166,2.12599992752,1.3409999609
2020/05/26/02:03:47.572985,40948,1590426227,572752826,robotiq_ft_frame_id,-12.4099998474,239.789993286,6.09999990463,5.28999996185,1.97200000286,1.34200000763
2020/05/26/02:03:47.589266,40949,1590426227,589120284,robotiq_ft_frame_id,-12.6899995804,238.940002441,5.94000005722,5.28200006485,1.92700004578,1.34500002861
2020/05/26/02:03:47.601527,40950,1590426227,601400239,robotiq_ft_frame_id,-9.43000030518,237.63999939,6.48999977112,5.12400007248,2.31599998474,1.34500002861
2020/05/26/02:03:47.618001,40951,1590426227,617757164,robotiq_ft_frame_id,-8.47999954224,240.0,7.0,5.27799987793,2.38499999046,1.34800004959
2020/05/26/02:03:47.634321,40952,1590426227,634172314,robotiq_ft_frame_id,-12.1099996567,238.13999939,7.03000020981,5.07999992371,1.99800002575,1.34300005436
2020/05/26/02:03:47.650669,40953,1590426227,650521406,robotiq_ft_frame_id,-13.2100000381,240.259994507,6.59999990463,5.30999994278,1.8259999752,1.34399998188
2020/05/26/02:03:47.667003,40954,1590426227,666851135,robotiq_ft_frame_id,-11.8699998856,237.669998169,5.98999977112,5.20499992371,2.02900004387,1.34700000286
2020/05/26/02:03:47.683560,40955,1590426227,683288826,robotiq_ft_frame_id,-9.43000030518,238.25,6.90999984741,5.15199995041,2.35100007057,1.34700000286
2020/05/26/02:03:47.699881,40956,1590426227,699722972,robotiq_ft_frame_id,-9.77999973297,238.440002441,7.48000001907,5.11100006104,2.2539999485,1.34500002861
2020/05/26/02:03:47.716196,40957,1590426227,716040912,robotiq_ft_frame_id,-12.8699998856,238.570007324,7.30999994278,5.15700006485,1.95399999619,1.34599995613
2020/05/26/02:03:47.732616,40958,1590426227,732404098,robotiq_ft_frame_id,-12.4099998474,238.619995117,6.92999982834,5.23000001907,1.93099999428,1.34800004959
2020/05/26/02:03:47.749050,40959,1590426227,748814500,robotiq_ft_frame_id,-9.84000015259,236.63999939,6.63000011444,5.13000011444,2.26900005341,1.35000002384
2020/05/26/02:03:47.761275,40960,1590426227,761127545,robotiq_ft_frame_id,-11.1899995804,240.690002441,7.73999977112,5.35200023651,2.17300009727,1.35300004482
2020/05/26/02:03:47.777667,40961,1590426227,777504338,robotiq_ft_frame_id,-12.4899997711,238.490005493,7.80999994278,5.09100008011,1.93700003624,1.34500002861
2020/05/26/02:03:47.794116,40962,1590426227,793894208,robotiq_ft_frame_id,-12.3800001144,240.210006714,7.25,5.33099985123,2.03900003433,1.35399997234
2020/05/26/02:03:47.810466,40963,1590426227,810316871,robotiq_ft_frame_id,-10.6700000763,238.210006714,7.03000020981,5.23799991608,2.14499998093,1.35199999809
2020/05/26/02:03:47.826843,40964,1590426227,826666108,robotiq_ft_frame_id,-9.97999954224,238.949996948,7.76999998093,5.28200006485,2.29299998283,1.35800004005
2020/05/26/02:03:47.843217,40965,1590426227,843039994,robotiq_ft_frame_id,-12.7700004578,241.0,8.14999961853,5.30999994278,1.98899996281,1.35000002384
2020/05/26/02:03:47.859532,40966,1590426227,859368148,robotiq_ft_frame_id,-13.2600002289,239.460006714,7.71000003815,5.15899991989,1.87699997425,1.34899997711
2020/05/26/02:03:47.875867,40967,1590426227,875708201,robotiq_ft_frame_id,-10.9099998474,240.320007324,7.80999994278,5.41699981689,2.22499990463,1.35699999332
2020/05/26/02:03:47.892237,40968,1590426227,892050960,robotiq_ft_frame_id,-9.22999954224,237.240005493,7.90999984741,5.1970000267,2.35800004005,1.35300004482
2020/05/26/02:03:47.908616,40969,1590426227,908444708,robotiq_ft_frame_id,-11.8599996567,240.740005493,8.38000011444,5.38800001144,2.09599995613,1.36699998379
2020/05/26/02:03:47.920838,40970,1590426227,920723304,robotiq_ft_frame_id,-14.1000003815,239.509994507,7.73000001907,5.2389998436,1.83299994469,1.34500002861
2020/05/26/02:03:47.937246,40971,1590426227,937061080,robotiq_ft_frame_id,-12.779999733,240.100006104,7.63999986649,5.26800012589,1.90499997139,1.35800004005
2020/05/26/02:03:47.953665,40972,1590426227,953446302,robotiq_ft_frame_id,-9.44999980927,239.729995728,8.59000015259,5.37300014496,2.35100007057,1.35099995136
2020/05/26/02:03:47.969937,40973,1590426227,969780658,robotiq_ft_frame_id,-9.60000038147,238.770004272,8.84000015259,5.26200008392,2.37800002098,1.36000001431
2020/05/26/02:03:47.986261,40974,1590426227,986082493,robotiq_ft_frame_id,-13.1000003815,240.789993286,8.28999996185,5.37599992752,1.88699996471,1.36099994183
2020/05/26/02:03:48.002719,40975,1590426228,2482369,robotiq_ft_frame_id,-13.9799995422,238.25,8.21000003815,5.19600009918,1.875,1.36199998856
2020/05/26/02:03:48.019195,40976,1590426228,18916302,robotiq_ft_frame_id,-11.3299999237,241.100006104,8.64000034332,5.4439997673,2.15799999237,1.37199997902
2020/05/26/02:03:48.035467,40977,1590426228,35313764,robotiq_ft_frame_id,-8.80000019073,238.470001221,9.27999973297,5.1859998703,2.35500001907,1.35899996758
2020/05/26/02:03:48.051781,40978,1590426228,51624536,robotiq_ft_frame_id,-11.75,241.929992676,9.38000011444,5.42600011826,2.1099998951,1.3710000515
2020/05/26/02:03:48.068134,40979,1590426228,67978919,robotiq_ft_frame_id,-15.3100004196,239.770004272,8.42000007629,5.26700019836,1.73399996758,1.36199998856
2020/05/26/02:03:48.084475,40980,1590426228,84278925,robotiq_ft_frame_id,-11.5600004196,236.009994507,8.39000034332,5.06699991226,2.02699995041,1.34899997711
2020/05/26/02:03:48.096736,40981,1590426228,96539673,robotiq_ft_frame_id,-9.06999969482,240.25,9.21000003815,5.4310002327,2.28299999237,1.36300003529
2020/05/26/02:03:48.113025,40982,1590426228,112844687,robotiq_ft_frame_id,-11.1999998093,236.580001831,9.46000003815,4.97800016403,2.23900008202,1.36300003529
2020/05/26/02:03:48.129346,40983,1590426228,129124166,robotiq_ft_frame_id,-13.1099996567,241.710006714,9.02999973297,5.44600009918,1.89999997616,1.35300004482
2020/05/26/02:03:48.145648,40984,1590426228,145438491,robotiq_ft_frame_id,-14.4300003052,236.929992676,8.64000034332,5.0640001297,1.74300003052,1.36800003052
2020/05/26/02:03:48.162042,40985,1590426228,161872452,robotiq_ft_frame_id,-12.3599996567,241.759994507,9.14000034332,5.55200004578,2.08699989319,1.37600004673
2020/05/26/02:03:48.178451,40986,1590426228,178269744,robotiq_ft_frame_id,-8.56000041962,237.470001221,9.72000026703,5.06300020218,2.36599993706,1.36000001431
2020/05/26/02:03:48.194893,40987,1590426228,194702660,robotiq_ft_frame_id,-15.1499996185,237.339996338,9.72000026703,5.08400011063,1.85199999809,1.35500001907
2020/05/26/02:03:48.211388,40988,1590426228,211145907,robotiq_ft_frame_id,-15.8400001526,238.410003662,9.18999958038,5.23000001907,1.68700003624,1.35099995136
2020/05/26/02:03:48.227713,40989,1590426228,227514742,robotiq_ft_frame_id,-11.7899999619,236.080001831,8.77000045776,5.07299995422,1.98599994183,1.35699999332
2020/05/26/02:03:48.244044,40990,1590426228,243887548,robotiq_ft_frame_id,-9.38000011444,240.100006104,9.77000045776,5.42600011826,2.25200009346,1.35500001907
2020/05/26/02:03:48.260368,40991,1590426228,260171675,robotiq_ft_frame_id,-11.8800001144,236.880004883,10.1199998856,4.96400022507,2.19799995422,1.37800002098
2020/05/26/02:03:48.272595,40992,1590426228,272411512,robotiq_ft_frame_id,-14.7600002289,239.550003052,8.89000034332,5.25099992752,1.6590000391,1.34300005436
2020/05/26/02:03:48.288971,40993,1590426228,288727075,robotiq_ft_frame_id,-14.1899995804,237.419998169,9.03999996185,5.09600019455,1.71399998665,1.37000000477
2020/05/26/02:03:48.305256,40994,1590426228,305064692,robotiq_ft_frame_id,-10.8199996948,236.63999939,10.1899995804,5.12599992752,2.38100004196,1.35699999332
2020/05/26/02:03:48.321531,40995,1590426228,321373953,robotiq_ft_frame_id,-9.35000038147,237.289993286,10.2299995422,5.03200006485,2.32500004768,1.37300002575
2020/05/26/02:03:48.337926,40996,1590426228,337735464,robotiq_ft_frame_id,-15.1899995804,236.539993286,9.93999958038,5.0689997673,1.8029999733,1.35199999809
2020/05/26/02:03:48.354483,40997,1590426228,354096001,robotiq_ft_frame_id,-15.1400003433,241.529998779,9.72999954224,5.46700000763,1.75,1.38699996471
2020/05/26/02:03:48.370599,40998,1590426228,370417050,robotiq_ft_frame_id,-12.1499996185,236.130004883,9.56999969482,5.0689997673,1.97300004959,1.35800004005
2020/05/26/02:03:48.387006,40999,1590426228,386773929,robotiq_ft_frame_id,-10.5699996948,241.179992676,10.9300003052,5.33599996567,2.36999988556,1.38399994373
2020/05/26/02:03:48.403404,41000,1590426228,403197512,robotiq_ft_frame_id,-12.7399997711,236.910003662,10.4499998093,4.95499992371,2.15700006485,1.38199996948
2020/05/26/02:03:48.419814,41001,1590426228,419591869,robotiq_ft_frame_id,-15.4799995422,239.220001221,9.39000034332,5.25899982452,1.61399996281,1.35000002384
2020/05/26/02:03:48.436057,41002,1590426228,435955318,robotiq_ft_frame_id,-12.9099998474,241.36000061,10.4899997711,5.53100013733,2.02200007439,1.37699997425
2020/05/26/02:03:48.448323,41003,1590426228,448162837,robotiq_ft_frame_id,-10.9899997711,236.669998169,10.8699998856,5.10799980164,2.34999990463,1.37300002575
2020/05/26/02:03:48.464664,41004,1590426228,464499739,robotiq_ft_frame_id,-11.9799995422,242.830001831,10.779999733,5.51200008392,2.00200009346,1.38600003719
2020/05/26/02:03:48.480939,41005,1590426228,480783775,robotiq_ft_frame_id,-15.9099998474,236.740005493,10.4200000763,5.09899997711,1.72699999809,1.35800004005
2020/05/26/02:03:48.497336,41006,1590426228,497102892,robotiq_ft_frame_id,-15.2399997711,241.839996338,10.2100000381,5.48500013351,1.71300005913,1.38399994373
2020/05/26/02:03:48.513733,41007,1590426228,513512077,robotiq_ft_frame_id,-10.1800003052,240.690002441,11.0,5.37400007248,2.19600009918,1.37000000477
2020/05/26/02:03:48.530063,41008,1590426228,529843958,robotiq_ft_frame_id,-10.8299999237,241.5,11.5399999619,5.35400009155,2.29500007629,1.38900005817
2020/05/26/02:03:48.546469,41009,1590426228,546202016,robotiq_ft_frame_id,-14.4399995804,241.179992676,10.4899997711,5.44199991226,1.7539999485,1.37000000477
2020/05/26/02:03:48.562723,41010,1590426228,562564190,robotiq_ft_frame_id,-16.1200008392,238.720001221,10.1300001144,5.27899980545,1.60199999809,1.36300003529
2020/05/26/02:03:48.579110,41011,1590426228,578951360,robotiq_ft_frame_id,-13.3699998856,241.330001831,10.8800001144,5.48199987411,1.90400004387,1.38399994373
2020/05/26/02:03:48.595452,41012,1590426228,595305648,robotiq_ft_frame_id,-10.6899995804,237.710006714,11.470000267,5.05999994278,2.27800011635,1.3789999485
2020/05/26/02:03:48.611813,41013,1590426228,611651017,robotiq_ft_frame_id,-12.3299999237,242.539993286,11.5200004578,5.47300004959,2.03800010681,1.38900005817
2020/05/26/02:03:48.624158,41014,1590426228,623913934,robotiq_ft_frame_id,-16.9599990845,238.529998779,10.4799995422,5.28499984741,1.5379999876,1.36199998856
2020/05/26/02:03:48.640514,41015,1590426228,640295143,robotiq_ft_frame_id,-15.8999996185,240.899993896,10.3900003433,5.46000003815,1.58299994469,1.3710000515
2020/05/26/02:03:48.656898,41016,1590426228,656704862,robotiq_ft_frame_id,-11.4300003052,241.11000061,11.4899997711,5.36999988556,2.14599990845,1.38800001144
2020/05/26/02:03:48.673169,41017,1590426228,673019841,robotiq_ft_frame_id,-12.720000267,236.559997559,11.3800001144,5.00400018692,2.08500003815,1.37399995327
2020/05/26/02:03:48.689462,41018,1590426228,689326168,robotiq_ft_frame_id,-14.8800001144,241.199996948,11.1300001144,5.42500019073,1.78299999237,1.38600003719
2020/05/26/02:03:48.705853,41019,1590426228,705703721,robotiq_ft_frame_id,-16.5799999237,237.279998779,10.779999733,5.18200016022,1.57899999619,1.36099994183
2020/05/26/02:03:48.722231,41020,1590426228,722045910,robotiq_ft_frame_id,-13.9399995804,241.779998779,11.0699996948,5.49700021744,1.74199998379,1.37699997425
2020/05/26/02:03:48.738646,41021,1590426228,738430823,robotiq_ft_frame_id,-11.5900001526,238.270004272,12.0900001526,5.11299991608,2.30599999428,1.39100003242
2020/05/26/02:03:48.755036,41022,1590426228,754764171,robotiq_ft_frame_id,-15.6599998474,236.330001831,11.3000001907,5.01200008392,1.69299995899,1.37800002098
2020/05/26/02:03:48.771314,41023,1590426228,771107595,robotiq_ft_frame_id,-17.3799991608,239.199996948,10.970000267,5.27099990845,1.44099998474,1.3789999485
2020/05/26/02:03:48.783524,41024,1590426228,783370875,robotiq_ft_frame_id,-15.529999733,235.880004883,11.3999996185,5.01599979401,1.82000005245,1.37199997902
2020/05/26/02:03:48.800038,41025,1590426228,799768417,robotiq_ft_frame_id,-11.7600002289,241.5,11.8599996567,5.38100004196,2.0759999752,1.40100002289
2020/05/26/02:03:48.816314,41026,1590426228,816121718,robotiq_ft_frame_id,-13.1800003052,236.330001831,11.8299999237,5.00899982452,2.03299999237,1.3710000515
2020/05/26/02:03:48.832563,41027,1590426228,832454741,robotiq_ft_frame_id,-17.6599998474,238.679992676,11.2399997711,5.20100021362,1.56299996376,1.39100003242
2020/05/26/02:03:48.849011,41028,1590426228,848811221,robotiq_ft_frame_id,-16.7900009155,237.300003052,10.9099998474,5.16499996185,1.49699997902,1.37199997902
2020/05/26/02:03:48.865345,41029,1590426228,865172189,robotiq_ft_frame_id,-13.6099996567,237.080001831,12.3999996185,4.99800014496,2.07899999619,1.39900004864
2020/05/26/02:03:48.881763,41030,1590426228,881529249,robotiq_ft_frame_id,-12.6499996185,238.369995117,12.5600004196,5.10300016403,2.2460000515,1.40400004387
2020/05/26/02:03:48.898065,41031,1590426228,897897183,robotiq_ft_frame_id,-15.8599996567,236.25,11.5100002289,5.01000022888,1.63100004196,1.37699997425
2020/05/26/02:03:48.914365,41032,1590426228,914201964,robotiq_ft_frame_id,-17.9500007629,240.75,11.6300001144,5.42999982834,1.47899997234,1.38499999046
2020/05/26/02:03:48.930691,41033,1590426228,930506468,robotiq_ft_frame_id,-16.1399993896,236.039993286,11.779999733,5.03000020981,1.74000000954,1.37800002098
2020/05/26/02:03:48.947075,41034,1590426228,946843237,robotiq_ft_frame_id,-11.5,240.61000061,12.3599996567,5.29899978638,2.12199997902,1.39999997616
2020/05/26/02:03:48.959339,41035,1590426228,959153201,robotiq_ft_frame_id,-13.8999996185,236.009994507,12.3999996185,4.98600006104,1.99100005627,1.37999999523
2020/05/26/02:03:48.975736,41036,1590426228,975550343,robotiq_ft_frame_id,-18.3299999237,238.460006714,11.6000003815,5.17700004578,1.50600004196,1.38999998569
2020/05/26/02:03:48.992104,41037,1590426228,991947302,robotiq_ft_frame_id,-17.8099994659,237.570007324,11.3500003815,5.16400003433,1.43400001526,1.37600004673
2020/05/26/02:03:49.008526,41038,1590426229,8283908,robotiq_ft_frame_id,-14.5900001526,236.940002441,12.6400003433,4.98600006104,1.98599994183,1.40199995041
2020/05/26/02:03:49.024873,41039,1590426229,24648070,robotiq_ft_frame_id,-13.1099996567,242.059997559,12.5,5.47800016403,1.98699998856,1.38900005817
2020/05/26/02:03:49.041148,41040,1590426229,40979791,robotiq_ft_frame_id,-16.2000007629,235.960006714,11.8000001907,4.96999979019,1.6210000515,1.3789999485
2020/05/26/02:03:49.057500,41041,1590426229,57277335,robotiq_ft_frame_id,-19.1800003052,241.080001831,11.9399995804,5.40899991989,1.35800004005,1.39499998093
2020/05/26/02:03:49.073919,41042,1590426229,73700478,robotiq_ft_frame_id,-16.9200000763,235.880004883,12.1499996185,5.01300001144,1.58500003815,1.38999998569
2020/05/26/02:03:49.090296,41043,1590426229,90077226,robotiq_ft_frame_id,-12.9399995804,239.630004883,12.9600000381,5.30000019073,2.13000011444,1.40100002289
2020/05/26/02:03:49.106555,41044,1590426229,106395363,robotiq_ft_frame_id,-16.1599998474,241.419998169,12.2299995422,5.36000013351,1.6779999733,1.40100002289
2020/05/26/02:03:49.122955,41045,1590426229,122762765,robotiq_ft_frame_id,-18.6900005341,238.440002441,11.9399995804,5.15899991989,1.48599994183,1.38699996471
2020/05/26/02:03:49.135237,41046,1590426229,135048979,robotiq_ft_frame_id,-17.5900001526,241.839996338,12.4099998474,5.44199991226,1.49199998379,1.39400005341
2020/05/26/02:03:49.151541,41047,1590426229,151370453,robotiq_ft_frame_id,-15.2399997711,236.61000061,12.6999998093,4.96899986267,1.8220000267,1.39199995995
2020/05/26/02:03:49.167791,41048,1590426229,167706332,robotiq_ft_frame_id,-13.5100002289,242.270004272,12.9600000381,5.44099998474,1.99899995327,1.40100002289
2020/05/26/02:03:49.184235,41049,1590426229,184044719,robotiq_ft_frame_id,-18.9599990845,240.020004272,11.9899997711,5.32100009918,1.30499994755,1.39900004864
2020/05/26/02:03:49.200540,41050,1590426229,200350738,robotiq_ft_frame_id,-19.5599994659,240.580001831,11.9099998474,5.40999984741,1.26699995995,1.40299999714
2020/05/26/02:03:49.216901,41051,1590426229,216669273,robotiq_ft_frame_id,-15.1000003815,240.009994507,12.8299999237,5.45699977875,1.78900003433,1.40100002289
2020/05/26/02:03:49.233232,41052,1590426229,233014687,robotiq_ft_frame_id,-14.8100004196,238.669998169,13.3699998856,5.23299980164,2.07800006866,1.40799999237
2020/05/26/02:03:49.249572,41053,1590426229,249396360,robotiq_ft_frame_id,-15.779999733,242.339996338,12.3800001144,5.40100002289,1.65600001812,1.38999998569
2020/05/26/02:03:49.265943,41054,1590426229,265694583,robotiq_ft_frame_id,-19.7600002289,239.61000061,12.1499996185,5.18400001526,1.28199994564,1.40299999714
2020/05/26/02:03:49.282245,41055,1590426229,282037777,robotiq_ft_frame_id,-19.3199996948,241.770004272,12.75,5.40999984741,1.41199994087,1.40499997139
2020/05/26/02:03:49.298616,41056,1590426229,298418625,robotiq_ft_frame_id,-13.3000001907,239.440002441,12.8199996948,5.22800016403,1.9470000267,1.40400004387
2020/05/26/02:03:49.310843,41057,1590426229,310711148,robotiq_ft_frame_id,-13.8900003433,241.979995728,13.0600004196,5.38999986649,1.94900000095,1.41999995708
2020/05/26/02:03:49.327195,41058,1590426229,327052865,robotiq_ft_frame_id,-20.1800003052,240.199996948,12.2899999619,5.375,1.27699995041,1.39300000668
2020/05/26/02:03:49.343604,41059,1590426229,343428472,robotiq_ft_frame_id,-18.3400001526,236.470001221,11.9099998474,5.04099988937,1.32799994946,1.41499996185
2020/05/26/02:03:49.360070,41060,1590426229,359846663,robotiq_ft_frame_id,-16.1599998474,240.440002441,12.8400001526,5.47300004959,1.70399999619,1.40299999714
2020/05/26/02:03:49.376347,41061,1590426229,376204126,robotiq_ft_frame_id,-14.8800001144,237.309997559,13.3599996567,4.98000001907,1.91999995708,1.41999995708
2020/05/26/02:03:49.392663,41062,1590426229,392545381,robotiq_ft_frame_id,-16.3899993896,242.300003052,12.6700000763,5.39599990845,1.61699998379,1.40199995041
2020/05/26/02:03:49.409143,41063,1590426229,408949384,robotiq_ft_frame_id,-20.9200000763,239.839996338,12.3999996185,5.17700004578,1.17700004578,1.40600001812
2020/05/26/02:03:49.425503,41064,1590426229,425367283,robotiq_ft_frame_id,-17.2199993134,236.330001831,12.9399995804,4.96600008011,1.60500001907,1.39100003242
2020/05/26/02:03:49.441862,41065,1590426229,441719040,robotiq_ft_frame_id,-14.25,240.0,13.1700000763,5.25899982452,1.87600004673,1.40299999714
2020/05/26/02:03:49.458286,41066,1590426229,458048845,robotiq_ft_frame_id,-18.1000003815,235.979995728,13.0200004578,4.90000009537,1.64900004864,1.41400003433
2020/05/26/02:03:49.470503,41067,1590426229,470297826,robotiq_ft_frame_id,-20.4300003052,241.059997559,12.470000267,5.40399980545,1.22099995613,1.39800000191
2020/05/26/02:03:49.486866,41068,1590426229,486609682,robotiq_ft_frame_id,-19.8999996185,236.520004272,11.9399995804,5.03800010681,1.20200002193,1.41900002956
2020/05/26/02:03:49.503117,41069,1590426229,502933117,robotiq_ft_frame_id,-16.1599998474,237.199996948,13.4600000381,5.125,1.93599998951,1.41499996185
2020/05/26/02:03:49.519507,41070,1590426229,519311651,robotiq_ft_frame_id,-14.8100004196,237.339996338,13.470000267,4.98199987411,1.89499998093,1.42299997807
2020/05/26/02:03:49.535873,41071,1590426229,535694936,robotiq_ft_frame_id,-19.7999992371,237.929992676,12.5200004578,5.02600002289,1.28299999237,1.38999998569
2020/05/26/02:03:49.552287,41072,1590426229,552067359,robotiq_ft_frame_id,-21.8999996185,239.539993286,12.5600004196,5.15399980545,1.09000003338,1.40499997139
2020/05/26/02:03:49.568621,41073,1590426229,568454686,robotiq_ft_frame_id,-18.5599994659,236.520004272,12.970000267,4.98500013351,1.46000003815,1.39900004864
2020/05/26/02:03:49.585065,41074,1590426229,584890084,robotiq_ft_frame_id,-15.4200000763,241.550003052,13.5500001907,5.3220000267,1.86899995804,1.4279999733
2020/05/26/02:03:49.601438,41075,1590426229,601262092,robotiq_ft_frame_id,-18.3400001526,236.289993286,13.0799999237,4.90600013733,1.65400004387,1.41999995708
2020/05/26/02:03:49.617887,41076,1590426229,617677478,robotiq_ft_frame_id,-22.0400009155,240.770004272,12.5699996948,5.29500007629,0.919000029564,1.41799998283
2020/05/26/02:03:49.634239,41077,1590426229,634021177,robotiq_ft_frame_id,-20.9300003052,237.020004272,12.9600000381,4.97300004959,1.01999998093,1.42499995232
2020/05/26/02:03:49.646504,41078,1590426229,646298486,robotiq_ft_frame_id,-16.9400005341,237.0,13.5500001907,5.11800003052,1.82099997997,1.41400003433
