time,.header.seq,.header.stamp.secs,.header.stamp.nsecs,.header.frame_id,.name,.pulse,.position,.velocity,.torque
2020/05/26/01:50:21.454265,48,1590425421,408479928,,"['joint_S', 'joint_L', 'joint_E', 'joint_U', 'joint_R', 'joint_B', 'joint_T']","(5, 1, 5, 5, 2, -3, 1)","(0.0043, -0.0008, 0.0043, 0.0043, -0.0017, -0.0029, -0.0014)","(0.0, 0.0, 0.0, 0.0, 0.0, 0.0, 0.0)","(0.0, -0.37, 0.02, 0.2484, -0.027, 0.0648, -0.0036)"
2020/05/26/01:50:21.500971,49,1590425421,454276084,,"['joint_S', 'joint_L', 'joint_E', 'joint_U', 'joint_R', 'joint_B', 'joint_T']","(5, 1, 5, 5, 2, -3, 1)","(0.0043, -0.0008, 0.0043, 0.0043, -0.0017, -0.0029, -0.0014)","(0.0, 0.0, 0.0, 0.0, 0.0, 0.0, 0.0)","(0.0, -0.37, 0.02, 0.2484, -0.027, 0.0648, -0.0036)"
2020/05/26/01:50:21.546534,50,1590425421,500864982,,"['joint_S', 'joint_L', 'joint_E', 'joint_U', 'joint_R', 'joint_B', 'joint_T']","(5, 1, 5, 5, 2, -3, 1)","(0.0043, -0.0008, 0.0043, 0.0043, -0.0017, -0.0029, -0.0014)","(0.0, 0.0, 0.0, 0.0, 0.0, 0.0, 0.0)","(0.0, -0.37, 0.02, 0.2484, -0.027, 0.0648, -0.0036)"
2020/05/26/01:50:21.593371,51,1590425421,546554088,,"['joint_S', 'joint_L', 'joint_E', 'joint_U', 'joint_R', 'joint_B', 'joint_T']","(5, 1, 5, 5, 2, -3, 1)","(0.0043, -0.0008, 0.0043, 0.0043, -0.0017, -0.0029, -0.0014)","(0.0, 0.0, 0.0, 0.0, 0.0, 0.0, 0.0)","(0.0, -0.37, 0.02, 0.2484, -0.027, 0.0648, -0.0036)"
2020/05/26/01:50:21.637477,52,1590425421,593206882,,"['joint_S', 'joint_L', 'joint_E', 'joint_U', 'joint_R', 'joint_B', 'joint_T']","(5, 1, 5, 5, 2, -3, 1)","(0.0043, -0.0008, 0.0043, 0.0043, -0.0017, -0.0029, -0.0014)","(0.0, 0.0, 0.0, 0.0, 0.0, 0.0, 0.0)","(0.0, -0.37, 0.02, 0.2484, -0.027, 0.0648, -0.0036)"
2020/05/26/01:50:21.682144,53,1590425421,637406110,,"['joint_S', 'joint_L', 'joint_E', 'joint_U', 'joint_R', 'joint_B', 'joint_T']","(5, 1, 5, 5, 2, -3, 1)","(0.0043, -0.0008, 0.0043, 0.0043, -0.0017, -0.0029, -0.0014)","(0.0, 0.0, 0.0, 0.0, 0.0, 0.0, 0.0)","(0.0, -0.37, 0.02, 0.2484, -0.027, 0.0648, -0.0036)"
2020/05/26/01:50:21.728002,54,1590425421,682121992,,"['joint_S', 'joint_L', 'joint_E', 'joint_U', 'joint_R', 'joint_B', 'joint_T']","(5, 1, 5, 5, 2, -3, 1)","(0.0043, -0.0008, 0.0043, 0.0043, -0.0017, -0.0029, -0.0014)","(0.0, 0.0, 0.0, 0.0, 0.0, 0.0, 0.0)","(0.0, -0.37, 0.02, 0.2484, -0.027, 0.0648, -0.0036)"
2020/05/26/01:50:21.774055,55,1590425421,728101015,,"['joint_S', 'joint_L', 'joint_E', 'joint_U', 'joint_R', 'joint_B', 'joint_T']","(5, 1, 5, 5, 2, -3, 1)","(0.0043, -0.0008, 0.0043, 0.0043, -0.0017, -0.0029, -0.0014)","(0.0, 0.0, 0.0, 0.0, 0.0, 0.0, 0.0)","(0.0, -0.37, 0.02, 0.2484, -0.027, 0.0648, -0.0036)"
2020/05/26/01:50:21.819174,56,1590425421,774116039,,"['joint_S', 'joint_L', 'joint_E', 'joint_U', 'joint_R', 'joint_B', 'joint_T']","(5, 1, 5, 5, 2, -3, 1)","(0.0043, -0.0008, 0.0043, 0.0043, -0.0017, -0.0029, -0.0014)","(0.0, 0.0, 0.0, 0.0, 0.0, 0.0, 0.0)","(0.0, -0.37, 0.02, 0.2484, -0.027, 0.0648, -0.0036)"
2020/05/26/01:50:21.863632,57,1590425421,819117069,,"['joint_S', 'joint_L', 'joint_E', 'joint_U', 'joint_R', 'joint_B', 'joint_T']","(5, 1, 5, 5, 2, -3, 1)","(0.0043, -0.0008, 0.0043, 0.0043, -0.0017, -0.0029, -0.0014)","(0.0, 0.0, 0.0, 0.0, 0.0, 0.0, 0.0)","(0.0, -0.37, 0.02, 0.2484, -0.027, 0.0648, -0.0036)"
2020/05/26/01:50:21.911232,58,1590425421,863569021,,"['joint_S', 'joint_L', 'joint_E', 'joint_U', 'joint_R', 'joint_B', 'joint_T']","(5, 1, 5, 5, 2, -3, 1)","(0.0043, -0.0008, 0.0043, 0.0043, -0.0017, -0.0029, -0.0014)","(0.0, 0.0, 0.0, 0.0, 0.0, 0.0, 0.0)","(0.0, -0.37, 0.02, 0.2484, -0.027, 0.0648, -0.0036)"
2020/05/26/01:50:21.955671,59,1590425421,911027908,,"['joint_S', 'joint_L', 'joint_E', 'joint_U', 'joint_R', 'joint_B', 'joint_T']","(5, 1, 5, 5, 2, -3, 1)","(0.0043, -0.0008, 0.0043, 0.0043, -0.0017, -0.0029, -0.0014)","(0.0, 0.0, 0.0, 0.0, 0.0, 0.0, 0.0)","(0.0, -0.37, 0.02, 0.2484, -0.027, 0.0648, -0.0036)"
2020/05/26/01:50:22.007754,60,1590425421,955648899,,"['joint_S', 'joint_L', 'joint_E', 'joint_U', 'joint_R', 'joint_B', 'joint_T']","(5, 1, 5, 5, 2, -3, 1)","(0.0043, -0.0008, 0.0043, 0.0043, -0.0017, -0.0029, -0.0014)","(0.0, 0.0, 0.0, 0.0, 0.0, 0.0, 0.0)","(0.0, -0.37, 0.02, 0.2484, -0.027, 0.0648, -0.0036)"
2020/05/26/01:50:22.045844,61,1590425422,7694005,,"['joint_S', 'joint_L', 'joint_E', 'joint_U', 'joint_R', 'joint_B', 'joint_T']","(5, 1, 5, 5, 2, -3, 1)","(0.0043, -0.0008, 0.0043, 0.0043, -0.0017, -0.0029, -0.0014)","(0.0, 0.0, 0.0, 0.0, 0.0, 0.0, 0.0)","(0.0, -0.37, 0.02, 0.2484, -0.027, 0.0648, -0.0036)"
2020/05/26/01:50:22.090061,62,1590425422,45706033,,"['joint_S', 'joint_L', 'joint_E', 'joint_U', 'joint_R', 'joint_B', 'joint_T']","(5, 1, 5, 5, 2, -3, 1)","(0.0043, -0.0008, 0.0043, 0.0043, -0.0017, -0.0029, -0.0014)","(0.0, 0.0, 0.0, 0.0, 0.0, 0.0, 0.0)","(0.0, -0.37, 0.02, 0.2484, -0.027, 0.0648, -0.0036)"
2020/05/26/01:50:22.134890,63,1590425422,90131998,,"['joint_S', 'joint_L', 'joint_E', 'joint_U', 'joint_R', 'joint_B', 'joint_T']","(5, 1, 5, 5, 2, -3, 1)","(0.0043, -0.0008, 0.0043, 0.0043, -0.0017, -0.0029, -0.0014)","(0.0, 0.0, 0.0, 0.0, 0.0, 0.0, 0.0)","(0.0, -0.37, 0.02, 0.2484, -0.027, 0.0648, -0.0036)"
2020/05/26/01:50:22.181336,64,1590425422,134922027,,"['joint_S', 'joint_L', 'joint_E', 'joint_U', 'joint_R', 'joint_B', 'joint_T']","(5, 1, 5, 5, 2, -3, 1)","(0.0043, -0.0008, 0.0043, 0.0043, -0.0017, -0.0029, -0.0014)","(0.0, 0.0, 0.0, 0.0, 0.0, 0.0, 0.0)","(0.0, -0.37, 0.02, 0.2484, -0.027, 0.0648, -0.0036)"
2020/05/26/01:50:22.227636,65,1590425422,181365013,,"['joint_S', 'joint_L', 'joint_E', 'joint_U', 'joint_R', 'joint_B', 'joint_T']","(5, 1, 5, 5, 2, -3, 1)","(0.0043, -0.0008, 0.0043, 0.0043, -0.0017, -0.0029, -0.0014)","(0.0, 0.0, 0.0, 0.0, 0.0, 0.0, 0.0)","(0.0, -0.37, 0.02, 0.2484, -0.027, 0.0648, -0.0036)"
2020/05/26/01:50:22.271409,66,1590425422,227557897,,"['joint_S', 'joint_L', 'joint_E', 'joint_U', 'joint_R', 'joint_B', 'joint_T']","(5, 1, 5, 5, 2, -3, 1)","(0.0043, -0.0008, 0.0043, 0.0043, -0.0017, -0.0029, -0.0014)","(0.0, 0.0, 0.0, 0.0, 0.0, 0.0, 0.0)","(0.0, -0.37, 0.02, 0.2484, -0.027, 0.0648, -0.0036)"
2020/05/26/01:50:22.316937,67,1590425422,271505117,,"['joint_S', 'joint_L', 'joint_E', 'joint_U', 'joint_R', 'joint_B', 'joint_T']","(5, 1, 5, 5, 2, -3, 1)","(0.0043, -0.0008, 0.0043, 0.0043, -0.0017, -0.0029, -0.0014)","(0.0, 0.0, 0.0, 0.0, 0.0, 0.0, 0.0)","(0.0, -0.37, 0.02, 0.2484, -0.027, 0.0648, -0.0036)"
2020/05/26/01:50:22.364135,68,1590425422,317084074,,"['joint_S', 'joint_L', 'joint_E', 'joint_U', 'joint_R', 'joint_B', 'joint_T']","(5, 1, 5, 5, 2, -3, 1)","(0.0043, -0.0008, 0.0043, 0.0043, -0.0017, -0.0029, -0.0014)","(0.0, 0.0, 0.0, 0.0, 0.0, 0.0, 0.0)","(0.0, -0.37, 0.02, 0.2484, -0.027, 0.0648, -0.0036)"
2020/05/26/01:50:22.406362,69,1590425422,364240884,,"['joint_S', 'joint_L', 'joint_E', 'joint_U', 'joint_R', 'joint_B', 'joint_T']","(5, 1, 5, 5, 2, -3, 1)","(0.0043, -0.0008, 0.0043, 0.0043, -0.0017, -0.0029, -0.0014)","(0.0, 0.0, 0.0, 0.0, 0.0, 0.0, 0.0)","(0.0, -0.37, 0.02, 0.2484, -0.027, 0.0648, -0.0036)"
2020/05/26/01:50:22.452960,70,1590425422,406322956,,"['joint_S', 'joint_L', 'joint_E', 'joint_U', 'joint_R', 'joint_B', 'joint_T']","(5, 1, 5, 5, 2, -3, 1)","(0.0043, -0.0008, 0.0043, 0.0043, -0.0017, -0.0029, -0.0014)","(0.0, 0.0, 0.0, 0.0, 0.0, 0.0, 0.0)","(0.0, -0.37, 0.02, 0.2484, -0.027, 0.0648, -0.0036)"
2020/05/26/01:50:22.499794,71,1590425422,453001022,,"['joint_S', 'joint_L', 'joint_E', 'joint_U', 'joint_R', 'joint_B', 'joint_T']","(5, 1, 5, 5, 2, -3, 1)","(0.0043, -0.0008, 0.0043, 0.0043, -0.0017, -0.0029, -0.0014)","(0.0, 0.0, 0.0, 0.0, 0.0, 0.0, 0.0)","(0.0, -0.37, 0.02, 0.2484, -0.027, 0.0648, -0.0036)"
2020/05/26/01:50:22.543911,72,1590425422,499774932,,"['joint_S', 'joint_L', 'joint_E', 'joint_U', 'joint_R', 'joint_B', 'joint_T']","(5, 1, 5, 5, 2, -3, 1)","(0.0043, -0.0008, 0.0043, 0.0043, -0.0017, -0.0029, -0.0014)","(0.0, 0.0, 0.0, 0.0, 0.0, 0.0, 0.0)","(0.0, -0.37, 0.02, 0.2484, -0.027, 0.0648, -0.0036)"
2020/05/26/01:50:22.590259,73,1590425422,543950080,,"['joint_S', 'joint_L', 'joint_E', 'joint_U', 'joint_R', 'joint_B', 'joint_T']","(5, 1, 5, 5, 2, -3, 1)","(0.0043, -0.0008, 0.0043, 0.0043, -0.0017, -0.0029, -0.0014)","(0.0, 0.0, 0.0, 0.0, 0.0, 0.0, 0.0)","(0.0, -0.37, 0.02, 0.2484, -0.027, 0.0648, -0.0036)"
2020/05/26/01:50:22.637336,74,1590425422,590060949,,"['joint_S', 'joint_L', 'joint_E', 'joint_U', 'joint_R', 'joint_B', 'joint_T']","(5, 1, 5, 5, 2, -3, 1)","(0.0043, -0.0008, 0.0043, 0.0043, -0.0017, -0.0029, -0.0014)","(0.0, 0.0, 0.0, 0.0, 0.0, 0.0, 0.0)","(0.0, -0.37, 0.02, 0.2484, -0.027, 0.0648, -0.0036)"
2020/05/26/01:50:22.680373,75,1590425422,637315034,,"['joint_S', 'joint_L', 'joint_E', 'joint_U', 'joint_R', 'joint_B', 'joint_T']","(5, 1, 5, 5, 2, -3, 1)","(0.0043, -0.0008, 0.0043, 0.0043, -0.0017, -0.0029, -0.0014)","(0.0, 0.0, 0.0, 0.0, 0.0, 0.0, 0.0)","(0.0, -0.37, 0.02, 0.2484, -0.027, 0.0648, -0.0036)"
2020/05/26/01:50:22.727775,76,1590425422,680455923,,"['joint_S', 'joint_L', 'joint_E', 'joint_U', 'joint_R', 'joint_B', 'joint_T']","(5, 1, 5, 5, 2, -3, 1)","(0.0043, -0.0008, 0.0043, 0.0043, -0.0017, -0.0029, -0.0014)","(0.0, 0.0, 0.0, 0.0, 0.0, 0.0, 0.0)","(0.0, -0.37, 0.02, 0.2484, -0.027, 0.0648, -0.0036)"
2020/05/26/01:50:22.773359,77,1590425422,727229118,,"['joint_S', 'joint_L', 'joint_E', 'joint_U', 'joint_R', 'joint_B', 'joint_T']","(5, 1, 5, 5, 2, -3, 1)","(0.0043, -0.0008, 0.0043, 0.0043, -0.0017, -0.0029, -0.0014)","(0.0, 0.0, 0.0, 0.0, 0.0, 0.0, 0.0)","(0.0, -0.37, 0.02, 0.2484, -0.027, 0.0648, -0.0036)"
2020/05/26/01:50:22.817458,78,1590425422,773144006,,"['joint_S', 'joint_L', 'joint_E', 'joint_U', 'joint_R', 'joint_B', 'joint_T']","(5, 1, 5, 5, 2, -3, 1)","(0.0043, -0.0008, 0.0043, 0.0043, -0.0017, -0.0029, -0.0014)","(0.0, 0.0, 0.0, 0.0, 0.0, 0.0, 0.0)","(0.0, -0.37, 0.02, 0.2484, -0.027, 0.0648, -0.0036)"
2020/05/26/01:50:22.862814,79,1590425422,817517042,,"['joint_S', 'joint_L', 'joint_E', 'joint_U', 'joint_R', 'joint_B', 'joint_T']","(5, 1, 5, 5, 2, -3, 1)","(0.0043, -0.0008, 0.0043, 0.0043, -0.0017, -0.0029, -0.0014)","(0.0, 0.0, 0.0, 0.0, 0.0, 0.0, 0.0)","(0.0, -0.37, 0.02, 0.2484, -0.027, 0.0648, -0.0036)"
2020/05/26/01:50:22.911100,80,1590425422,862636089,,"['joint_S', 'joint_L', 'joint_E', 'joint_U', 'joint_R', 'joint_B', 'joint_T']","(5, 1, 5, 5, 2, -3, 1)","(0.0043, -0.0008, 0.0043, 0.0043, -0.0017, -0.0029, -0.0014)","(0.0, 0.0, 0.0, 0.0, 0.0, 0.0, 0.0)","(0.0, -0.37, 0.02, 0.2484, -0.027, 0.0648, -0.0036)"
2020/05/26/01:50:22.954926,81,1590425422,910706043,,"['joint_S', 'joint_L', 'joint_E', 'joint_U', 'joint_R', 'joint_B', 'joint_T']","(5, 1, 5, 5, 2, -3, 1)","(0.0043, -0.0008, 0.0043, 0.0043, -0.0017, -0.0029, -0.0014)","(0.0, 0.0, 0.0, 0.0, 0.0, 0.0, 0.0)","(0.0, -0.37, 0.02, 0.2484, -0.027, 0.0648, -0.0036)"
2020/05/26/01:50:22.998298,82,1590425422,954715967,,"['joint_S', 'joint_L', 'joint_E', 'joint_U', 'joint_R', 'joint_B', 'joint_T']","(5, 1, 5, 5, 2, -3, 1)","(0.0043, -0.0008, 0.0043, 0.0043, -0.0017, -0.0029, -0.0014)","(0.0, 0.0, 0.0, 0.0, 0.0, 0.0, 0.0)","(0.0, -0.37, 0.02, 0.2484, -0.027, 0.0648, -0.0036)"
2020/05/26/01:50:23.043114,83,1590425422,998346090,,"['joint_S', 'joint_L', 'joint_E', 'joint_U', 'joint_R', 'joint_B', 'joint_T']","(5, 1, 5, 5, 2, -3, 1)","(0.0043, -0.0008, 0.0043, 0.0043, -0.0017, -0.0029, -0.0014)","(0.0, 0.0, 0.0, 0.0, 0.0, 0.0, 0.0)","(0.0, -0.37, 0.02, 0.2484, -0.027, 0.0648, -0.0036)"
2020/05/26/01:50:23.088578,84,1590425423,43206930,,"['joint_S', 'joint_L', 'joint_E', 'joint_U', 'joint_R', 'joint_B', 'joint_T']","(5, 1, 5, 5, 2, -3, 1)","(0.0043, -0.0008, 0.0043, 0.0043, -0.0017, -0.0029, -0.0014)","(0.0, 0.0, 0.0, 0.0, 0.0, 0.0, 0.0)","(0.0, -0.37, 0.02, 0.2484, -0.027, 0.0648, -0.0036)"
2020/05/26/01:50:23.133988,85,1590425423,88660955,,"['joint_S', 'joint_L', 'joint_E', 'joint_U', 'joint_R', 'joint_B', 'joint_T']","(5, 1, 5, 5, 2, -3, 1)","(0.0043, -0.0008, 0.0043, 0.0043, -0.0017, -0.0029, -0.0014)","(0.0, 0.0, 0.0, 0.0, 0.0, 0.0, 0.0)","(0.0, -0.37, 0.02, 0.2484, -0.027, 0.0648, -0.0036)"
2020/05/26/01:50:23.181066,86,1590425423,133816003,,"['joint_S', 'joint_L', 'joint_E', 'joint_U', 'joint_R', 'joint_B', 'joint_T']","(5, 1, 5, 5, 2, -3, 1)","(0.0043, -0.0008, 0.0043, 0.0043, -0.0017, -0.0029, -0.0014)","(0.0, 0.0, 0.0, 0.0, 0.0, 0.0, 0.0)","(0.0, -0.37, 0.02, 0.2484, -0.027, 0.0648, -0.0036)"
2020/05/26/01:50:23.223867,87,1590425423,181055068,,"['joint_S', 'joint_L', 'joint_E', 'joint_U', 'joint_R', 'joint_B', 'joint_T']","(5, 1, 5, 5, 2, -3, 1)","(0.0043, -0.0008, 0.0043, 0.0043, -0.0017, -0.0029, -0.0014)","(0.0, 0.0, 0.0, 0.0, 0.0, 0.0, 0.0)","(0.0, -0.37, 0.02, 0.2484, -0.027, 0.0648, -0.0036)"
2020/05/26/01:50:23.269811,88,1590425423,223671913,,"['joint_S', 'joint_L', 'joint_E', 'joint_U', 'joint_R', 'joint_B', 'joint_T']","(5, 1, 5, 5, 2, -3, 1)","(0.0043, -0.0008, 0.0043, 0.0043, -0.0017, -0.0029, -0.0014)","(0.0, 0.0, 0.0, 0.0, 0.0, 0.0, 0.0)","(0.0, -0.37, 0.02, 0.2484, -0.027, 0.0648, -0.0036)"
2020/05/26/01:50:23.316709,89,1590425423,269781112,,"['joint_S', 'joint_L', 'joint_E', 'joint_U', 'joint_R', 'joint_B', 'joint_T']","(5, 1, 5, 5, 2, -3, 1)","(0.0043, -0.0008, 0.0043, 0.0043, -0.0017, -0.0029, -0.0014)","(0.0, 0.0, 0.0, 0.0, 0.0, 0.0, 0.0)","(0.0, -0.37, 0.02, 0.2484, -0.027, 0.0648, -0.0036)"
2020/05/26/01:50:23.358536,90,1590425423,316745996,,"['joint_S', 'joint_L', 'joint_E', 'joint_U', 'joint_R', 'joint_B', 'joint_T']","(5, 1, 5, 5, 2, -3, 1)","(0.0043, -0.0008, 0.0043, 0.0043, -0.0017, -0.0029, -0.0014)","(0.0, 0.0, 0.0, 0.0, 0.0, 0.0, 0.0)","(0.0, -0.37, 0.02, 0.2484, -0.027, 0.0648, -0.0036)"
2020/05/26/01:50:23.403671,91,1590425423,358609914,,"['joint_S', 'joint_L', 'joint_E', 'joint_U', 'joint_R', 'joint_B', 'joint_T']","(5, 1, 5, 5, 2, -3, 1)","(0.0043, -0.0008, 0.0043, 0.0043, -0.0017, -0.0029, -0.0014)","(0.0, 0.0, 0.0, 0.0, 0.0, 0.0, 0.0)","(0.0, -0.37, 0.02, 0.2484, -0.027, 0.0648, -0.0036)"
2020/05/26/01:50:23.449640,92,1590425423,403829097,,"['joint_S', 'joint_L', 'joint_E', 'joint_U', 'joint_R', 'joint_B', 'joint_T']","(5, 1, 5, 5, 2, -3, 1)","(0.0043, -0.0008, 0.0043, 0.0043, -0.0017, -0.0029, -0.0014)","(0.0, 0.0, 0.0, 0.0, 0.0, 0.0, 0.0)","(0.0, -0.37, 0.02, 0.2484, -0.027, 0.0648, -0.0036)"
2020/05/26/01:50:23.494337,93,1590425423,449378013,,"['joint_S', 'joint_L', 'joint_E', 'joint_U', 'joint_R', 'joint_B', 'joint_T']","(5, 1, 5, 5, 2, -3, 1)","(0.0043, -0.0008, 0.0043, 0.0043, -0.0017, -0.0029, -0.0014)","(0.0, 0.0, 0.0, 0.0, 0.0, 0.0, 0.0)","(0.0, -0.37, 0.02, 0.2484, -0.027, 0.0648, -0.0036)"
2020/05/26/01:50:23.541772,94,1590425423,494359970,,"['joint_S', 'joint_L', 'joint_E', 'joint_U', 'joint_R', 'joint_B', 'joint_T']","(5, 1, 5, 5, 2, -3, 1)","(0.0043, -0.0008, 0.0043, 0.0043, -0.0017, -0.0029, -0.0014)","(0.0, 0.0, 0.0, 0.0, 0.0, 0.0, 0.0)","(0.0, -0.37, 0.02, 0.2484, -0.027, 0.0648, -0.0036)"
2020/05/26/01:50:23.584684,95,1590425423,541548013,,"['joint_S', 'joint_L', 'joint_E', 'joint_U', 'joint_R', 'joint_B', 'joint_T']","(5, 1, 5, 5, 2, -3, 1)","(0.0043, -0.0008, 0.0043, 0.0043, -0.0017, -0.0029, -0.0014)","(0.0, 0.0, 0.0, 0.0, 0.0, 0.0, 0.0)","(0.0, -0.37, 0.02, 0.2484, -0.027, 0.0648, -0.0036)"
2020/05/26/01:50:23.630210,96,1590425423,584763050,,"['joint_S', 'joint_L', 'joint_E', 'joint_U', 'joint_R', 'joint_B', 'joint_T']","(5, 1, 5, 5, 2, -3, 1)","(0.0043, -0.0008, 0.0043, 0.0043, -0.0017, -0.0029, -0.0014)","(0.0, 0.0, 0.0, 0.0, 0.0, 0.0, 0.0)","(0.0, -0.37, 0.02, 0.2484, -0.027, 0.0648, -0.0036)"
2020/05/26/01:50:23.675748,97,1590425423,630312919,,"['joint_S', 'joint_L', 'joint_E', 'joint_U', 'joint_R', 'joint_B', 'joint_T']","(5, 1, 5, 5, 2, -3, 1)","(0.0043, -0.0008, 0.0043, 0.0043, -0.0017, -0.0029, -0.0014)","(0.0, 0.0, 0.0, 0.0, 0.0, 0.0, 0.0)","(0.0, -0.37, 0.02, 0.2484, -0.027, 0.0648, -0.0036)"
2020/05/26/01:50:23.721486,98,1590425423,675683021,,"['joint_S', 'joint_L', 'joint_E', 'joint_U', 'joint_R', 'joint_B', 'joint_T']","(5, 1, 5, 5, 2, -3, 1)","(0.0043, -0.0008, 0.0043, 0.0043, -0.0017, -0.0029, -0.0014)","(0.0, 0.0, 0.0, 0.0, 0.0, 0.0, 0.0)","(0.0, -0.37, 0.02, 0.2484, -0.027, 0.0648, -0.0036)"
2020/05/26/01:50:23.789788,99,1590425423,721529006,,"['joint_S', 'joint_L', 'joint_E', 'joint_U', 'joint_R', 'joint_B', 'joint_T']","(5, 1, 5, 5, 2, -3, 1)","(0.0043, -0.0008, 0.0043, 0.0043, -0.0017, -0.0029, -0.0014)","(0.0, 0.0, 0.0, 0.0, 0.0, 0.0, 0.0)","(0.0, -0.37, 0.02, 0.2484, -0.027, 0.0648, -0.0036)"
2020/05/26/01:50:23.811420,100,1590425423,789716958,,"['joint_S', 'joint_L', 'joint_E', 'joint_U', 'joint_R', 'joint_B', 'joint_T']","(5, 1, 5, 5, 2, -3, 1)","(0.0043, -0.0008, 0.0043, 0.0043, -0.0017, -0.0029, -0.0014)","(0.0, 0.0, 0.0, 0.0, 0.0, 0.0, 0.0)","(0.0, -0.37, 0.02, 0.2484, -0.027, 0.0648, -0.0036)"
2020/05/26/01:50:23.856726,101,1590425423,811340093,,"['joint_S', 'joint_L', 'joint_E', 'joint_U', 'joint_R', 'joint_B', 'joint_T']","(5, 1, 5, 5, 2, -3, 1)","(0.0043, -0.0008, 0.0043, 0.0043, -0.0017, -0.0029, -0.0014)","(0.0, 0.0, 0.0, 0.0, 0.0, 0.0, 0.0)","(0.0, -0.37, 0.02, 0.2484, -0.027, 0.0648, -0.0036)"
2020/05/26/01:50:23.903206,102,1590425423,856586933,,"['joint_S', 'joint_L', 'joint_E', 'joint_U', 'joint_R', 'joint_B', 'joint_T']","(5, 1, 5, 5, 2, -3, 1)","(0.0043, -0.0008, 0.0043, 0.0043, -0.0017, -0.0029, -0.0014)","(0.0, 0.0, 0.0, 0.0, 0.0, 0.0, 0.0)","(0.0, -0.37, 0.02, 0.2484, -0.027, 0.0648, -0.0036)"
2020/05/26/01:50:23.949756,103,1590425423,903156995,,"['joint_S', 'joint_L', 'joint_E', 'joint_U', 'joint_R', 'joint_B', 'joint_T']","(5, 1, 5, 5, 2, -3, 1)","(0.0043, -0.0008, 0.0043, 0.0043, -0.0017, -0.0029, -0.0014)","(0.0, 0.0, 0.0, 0.0, 0.0, 0.0, 0.0)","(0.0, -0.37, 0.02, 0.2484, -0.027, 0.0648, -0.0036)"
2020/05/26/01:50:23.993227,104,1590425423,949558973,,"['joint_S', 'joint_L', 'joint_E', 'joint_U', 'joint_R', 'joint_B', 'joint_T']","(5, 1, 5, 5, 2, -3, 1)","(0.0043, -0.0008, 0.0043, 0.0043, -0.0017, -0.0029, -0.0014)","(0.0, 0.0, 0.0, 0.0, 0.0, 0.0, 0.0)","(0.0, -0.37, 0.02, 0.2484, -0.027, 0.0648, -0.0036)"
2020/05/26/01:50:24.041098,105,1590425423,993313074,,"['joint_S', 'joint_L', 'joint_E', 'joint_U', 'joint_R', 'joint_B', 'joint_T']","(5, 1, 5, 5, 2, -3, 1)","(0.0043, -0.0008, 0.0043, 0.0043, -0.0017, -0.0029, -0.0014)","(0.0, 0.0, 0.0, 0.0, 0.0, 0.0, 0.0)","(0.0, -0.37, 0.02, 0.2484, -0.027, 0.0648, -0.0036)"
2020/05/26/01:50:24.085520,106,1590425424,41189908,,"['joint_S', 'joint_L', 'joint_E', 'joint_U', 'joint_R', 'joint_B', 'joint_T']","(5, 1, 5, 5, 2, -3, 1)","(0.0043, -0.0008, 0.0043, 0.0043, -0.0017, -0.0029, -0.0014)","(0.0, 0.0, 0.0, 0.0, 0.0, 0.0, 0.0)","(0.0, -0.37, 0.02, 0.2484, -0.027, 0.0648, -0.0036)"
2020/05/26/01:50:24.130478,107,1590425424,85480928,,"['joint_S', 'joint_L', 'joint_E', 'joint_U', 'joint_R', 'joint_B', 'joint_T']","(5, 1, 5, 5, 2, -3, 1)","(0.0043, -0.0008, 0.0043, 0.0043, -0.0017, -0.0029, -0.0014)","(0.0, 0.0, 0.0, 0.0, 0.0, 0.0, 0.0)","(0.0, -0.37, 0.02, 0.2484, -0.027, 0.0648, -0.0036)"
2020/05/26/01:50:24.178144,108,1590425424,130552053,,"['joint_S', 'joint_L', 'joint_E', 'joint_U', 'joint_R', 'joint_B', 'joint_T']","(5, 1, 5, 5, 2, -3, 1)","(0.0043, -0.0008, 0.0043, 0.0043, -0.0017, -0.0029, -0.0014)","(0.0, 0.0, 0.0, 0.0, 0.0, 0.0, 0.0)","(0.0, -0.37, 0.02, 0.2484, -0.027, 0.0648, -0.0036)"
2020/05/26/01:50:24.224723,109,1590425424,177895069,,"['joint_S', 'joint_L', 'joint_E', 'joint_U', 'joint_R', 'joint_B', 'joint_T']","(5, 1, 5, 5, 2, -3, 1)","(0.0043, -0.0008, 0.0043, 0.0043, -0.0017, -0.0029, -0.0014)","(0.0, 0.0, 0.0, 0.0, 0.0, 0.0, 0.0)","(0.0, -0.37, 0.02, 0.2484, -0.027, 0.0648, -0.0036)"
2020/05/26/01:50:24.266814,110,1590425424,224767923,,"['joint_S', 'joint_L', 'joint_E', 'joint_U', 'joint_R', 'joint_B', 'joint_T']","(5, 1, 5, 5, 2, -3, 1)","(0.0043, -0.0008, 0.0043, 0.0043, -0.0017, -0.0029, -0.0014)","(0.0, 0.0, 0.0, 0.0, 0.0, 0.0, 0.0)","(0.0, -0.37, 0.02, 0.2484, -0.027, 0.0648, -0.0036)"
2020/05/26/01:50:24.312208,111,1590425424,266820907,,"['joint_S', 'joint_L', 'joint_E', 'joint_U', 'joint_R', 'joint_B', 'joint_T']","(5, 1, 5, 5, 2, -3, 1)","(0.0043, -0.0008, 0.0043, 0.0043, -0.0017, -0.0029, -0.0014)","(0.0, 0.0, 0.0, 0.0, 0.0, 0.0, 0.0)","(0.0, -0.37, 0.02, 0.2484, -0.027, 0.0648, -0.0036)"
2020/05/26/01:50:24.359272,112,1590425424,312282085,,"['joint_S', 'joint_L', 'joint_E', 'joint_U', 'joint_R', 'joint_B', 'joint_T']","(5, 1, 5, 5, 2, -3, 1)","(0.0043, -0.0008, 0.0043, 0.0043, -0.0017, -0.0029, -0.0014)","(0.0, 0.0, 0.0, 0.0, 0.0, 0.0, 0.0)","(0.0, -0.37, 0.02, 0.2484, -0.027, 0.0648, -0.0036)"
2020/05/26/01:50:24.401128,113,1590425424,359239101,,"['joint_S', 'joint_L', 'joint_E', 'joint_U', 'joint_R', 'joint_B', 'joint_T']","(5, 1, 5, 5, 2, -3, 1)","(0.0043, -0.0008, 0.0043, 0.0043, -0.0017, -0.0029, -0.0014)","(0.0, 0.0, 0.0, 0.0, 0.0, 0.0, 0.0)","(0.0, -0.37, 0.02, 0.2484, -0.027, 0.0648, -0.0036)"
2020/05/26/01:50:24.449809,114,1590425424,401087045,,"['joint_S', 'joint_L', 'joint_E', 'joint_U', 'joint_R', 'joint_B', 'joint_T']","(5, 1, 5, 5, 2, -3, 1)","(0.0043, -0.0008, 0.0043, 0.0043, -0.0017, -0.0029, -0.0014)","(0.0, 0.0, 0.0, 0.0, 0.0, 0.0, 0.0)","(0.0, -0.37, 0.02, 0.2484, -0.027, 0.0648, -0.0036)"
2020/05/26/01:50:24.493361,115,1590425424,449754953,,"['joint_S', 'joint_L', 'joint_E', 'joint_U', 'joint_R', 'joint_B', 'joint_T']","(5, 1, 5, 5, 2, -3, 1)","(0.0043, -0.0008, 0.0043, 0.0043, -0.0017, -0.0029, -0.0014)","(0.0, 0.0, 0.0, 0.0, 0.0, 0.0, 0.0)","(0.0, -0.37, 0.02, 0.2484, -0.027, 0.0648, -0.0036)"
2020/05/26/01:50:24.538543,116,1590425424,493139028,,"['joint_S', 'joint_L', 'joint_E', 'joint_U', 'joint_R', 'joint_B', 'joint_T']","(5, 1, 5, 5, 2, -3, 1)","(0.0043, -0.0008, 0.0043, 0.0043, -0.0017, -0.0029, -0.0014)","(0.0, 0.0, 0.0, 0.0, 0.0, 0.0, 0.0)","(0.0, -0.37, 0.02, 0.2484, -0.027, 0.0648, -0.0036)"
2020/05/26/01:50:24.585084,117,1590425424,538583993,,"['joint_S', 'joint_L', 'joint_E', 'joint_U', 'joint_R', 'joint_B', 'joint_T']","(5, 1, 5, 5, 2, -3, 1)","(0.0043, -0.0008, 0.0043, 0.0043, -0.0017, -0.0029, -0.0014)","(0.0, 0.0, 0.0, 0.0, 0.0, 0.0, 0.0)","(0.0, -0.37, 0.02, 0.2484, -0.027, 0.0648, -0.0036)"
2020/05/26/01:50:24.628967,118,1590425424,585242986,,"['joint_S', 'joint_L', 'joint_E', 'joint_U', 'joint_R', 'joint_B', 'joint_T']","(5, 1, 5, 5, 2, -3, 1)","(0.0043, -0.0008, 0.0043, 0.0043, -0.0017, -0.0029, -0.0014)","(0.0, 0.0, 0.0, 0.0, 0.0, 0.0, 0.0)","(0.0, -0.37, 0.02, 0.2484, -0.027, 0.0648, -0.0036)"
2020/05/26/01:50:24.673345,119,1590425424,628993988,,"['joint_S', 'joint_L', 'joint_E', 'joint_U', 'joint_R', 'joint_B', 'joint_T']","(5, 1, 5, 5, 2, -3, 1)","(0.0043, -0.0008, 0.0043, 0.0043, -0.0017, -0.0029, -0.0014)","(0.0, 0.0, 0.0, 0.0, 0.0, 0.0, 0.0)","(0.0, -0.37, 0.02, 0.2484, -0.027, 0.0648, -0.0036)"
2020/05/26/01:50:24.718119,120,1590425424,673273086,,"['joint_S', 'joint_L', 'joint_E', 'joint_U', 'joint_R', 'joint_B', 'joint_T']","(5, 1, 5, 5, 2, -3, 1)","(0.0043, -0.0008, 0.0043, 0.0043, -0.0017, -0.0029, -0.0014)","(0.0, 0.0, 0.0, 0.0, 0.0, 0.0, 0.0)","(0.0, -0.37, 0.02, 0.2484, -0.027, 0.0648, -0.0036)"
2020/05/26/01:50:24.762588,121,1590425424,718290090,,"['joint_S', 'joint_L', 'joint_E', 'joint_U', 'joint_R', 'joint_B', 'joint_T']","(4, 0, 4, 4, 1, -14, 0)","(0.0034, 0.0, 0.0034, 0.0034, -0.0008, -0.0138, 0.0)","(0.0, 0.0, 0.0, 0.0, 0.0, 0.0, 0.0)","(0.0, -0.37, 0.02, 0.2484, -0.027, 0.0648, -0.0036)"
2020/05/26/01:50:24.805442,122,1590425424,762332916,,"['joint_S', 'joint_L', 'joint_E', 'joint_U', 'joint_R', 'joint_B', 'joint_T']","(4, 0, 4, 4, 1, -161, 0)","(0.0034, 0.0, 0.0034, 0.0034, -0.0008, -0.1589, 0.0)","(0.0, 0.0, 0.0, 0.0, 0.0, 0.0, 0.0)","(0.0, -0.37, 0.02, 0.2484, -0.027, 0.0648, -0.0036)"
2020/05/26/01:50:24.854242,123,1590425424,805553913,,"['joint_S', 'joint_L', 'joint_E', 'joint_U', 'joint_R', 'joint_B', 'joint_T']","(4, 0, 4, 4, 1, -465, 0)","(0.0034, 0.0, 0.0034, 0.0034, -0.0008, -0.4592, 0.0)","(0.0, 0.0, 0.0, 0.0, 0.0, 0.0, 0.0)","(0.0, -0.37, 0.02, 0.2484, -0.027, 0.0648, -0.0036)"
2020/05/26/01:50:24.896439,124,1590425424,854437112,,"['joint_S', 'joint_L', 'joint_E', 'joint_U', 'joint_R', 'joint_B', 'joint_T']","(4, 0, 4, 4, 1, -932, 0)","(0.0034, 0.0, 0.0034, 0.0034, -0.0008, -0.9203, 0.0)","(0.0, 0.0, 0.0, 0.0, 0.0, 0.0, 0.0)","(0.0, -0.37, 0.02, 0.2484, -0.027, 0.0648, -0.0036)"
2020/05/26/01:50:24.940546,125,1590425424,896444082,,"['joint_S', 'joint_L', 'joint_E', 'joint_U', 'joint_R', 'joint_B', 'joint_T']","(4, 0, 4, 4, 1, -1507, 0)","(0.0034, 0.0, 0.0034, 0.0034, -0.0008, -1.4882, 0.0)","(0.0, 0.0, 0.0, 0.0, 0.0, 0.0, 0.0)","(0.0, -0.37, 0.02, 0.2484, -0.027, 0.0648, -0.0036)"
2020/05/26/01:50:24.984774,126,1590425424,940491914,,"['joint_S', 'joint_L', 'joint_E', 'joint_U', 'joint_R', 'joint_B', 'joint_T']","(4, 0, 4, 4, 1, -2224, 0)","(0.0034, 0.0, 0.0034, 0.0034, -0.0008, -2.1962, 0.0)","(0.0, 0.0, 0.0, 0.0, 0.0, 0.0, 0.0)","(0.0, -0.37, 0.02, 0.2484, -0.027, 0.0648, -0.0036)"
2020/05/26/01:50:25.031751,127,1590425424,984828948,,"['joint_S', 'joint_L', 'joint_E', 'joint_U', 'joint_R', 'joint_B', 'joint_T']","(4, 0, 4, 4, 1, -2967, 0)","(0.0034, 0.0, 0.0034, 0.0034, -0.0008, -2.93, 0.0)","(0.0, 0.0, 0.0, 0.0, 0.0, 0.0, 0.0)","(0.0, -0.37, 0.02, 0.2484, -0.027, 0.0648, -0.0036)"
2020/05/26/01:50:25.076915,128,1590425425,31605958,,"['joint_S', 'joint_L', 'joint_E', 'joint_U', 'joint_R', 'joint_B', 'joint_T']","(4, 0, 4, 4, 1, -3902, 0)","(0.0034, 0.0, 0.0034, 0.0034, -0.0008, -3.8533, 0.0)","(0.0, 0.0, 0.0, 0.0, 0.0, 0.0, 0.0)","(0.0, -0.37, 0.02, 0.2484, -0.027, 0.0648, -0.0036)"
2020/05/26/01:50:25.120312,129,1590425425,76844930,,"['joint_S', 'joint_L', 'joint_E', 'joint_U', 'joint_R', 'joint_B', 'joint_T']","(4, 0, 4, 4, 1, -4823, 0)","(0.0034, 0.0, 0.0034, 0.0034, -0.0008, -4.7628, 0.0)","(0.0, 0.0, 0.0, 0.0, 0.0, 0.0, 0.0)","(0.0, -0.37, 0.02, 0.2484, -0.027, 0.0648, -0.0036)"
2020/05/26/01:50:25.168074,130,1590425425,120258092,,"['joint_S', 'joint_L', 'joint_E', 'joint_U', 'joint_R', 'joint_B', 'joint_T']","(4, 0, 4, 4, 1, -5789, 0)","(0.0034, 0.0, 0.0034, 0.0034, -0.0008, -5.7168, 0.0)","(-11.0, -43.0, 0.0, 2.0, 0.0, 0.0, 0.0)","(0.0, -0.37, 0.02, 0.2484, -0.027, 0.0648, -0.0036)"
2020/05/26/01:50:25.215046,131,1590425425,167854070,,"['joint_S', 'joint_L', 'joint_E', 'joint_U', 'joint_R', 'joint_B', 'joint_T']","(4, 0, 4, 4, 1, -6875, 0)","(0.0034, 0.0, 0.0034, 0.0034, -0.0008, -6.7893, 0.0)","(-11.0, -43.0, -8.0, 2.0, -8.0, -18358.0, -12.0)","(0.0, -0.37, 0.02, 0.2484, -0.027, 0.0648, -0.0036)"
2020/05/26/01:50:25.259726,132,1590425425,214982986,,"['joint_S', 'joint_L', 'joint_E', 'joint_U', 'joint_R', 'joint_B', 'joint_T']","(4, 0, 4, 4, 1, -7884, 0)","(0.0034, 0.0, 0.0034, 0.0034, -0.0008, -7.7857, 0.0)","(-11.0, -43.0, -8.0, 2.0, -8.0, -18358.0, -12.0)","(0.0, -0.37, 0.02, 0.2484, -0.027, 0.0648, -0.0036)"
2020/05/26/01:50:25.304682,133,1590425425,259743928,,"['joint_S', 'joint_L', 'joint_E', 'joint_U', 'joint_R', 'joint_B', 'joint_T']","(4, 0, 4, 4, 1, -8980, 0)","(0.0034, 0.0, 0.0034, 0.0034, -0.0008, -8.868, 0.0)","(-11.0, -43.0, -8.0, 2.0, -8.0, -18358.0, -12.0)","(0.0, -0.37, 0.02, 0.2484, -0.027, 0.0648, -0.0036)"
2020/05/26/01:50:25.351149,134,1590425425,304765939,,"['joint_S', 'joint_L', 'joint_E', 'joint_U', 'joint_R', 'joint_B', 'joint_T']","(4, 0, 4, 4, 1, -10030, 0)","(0.0034, 0.0, 0.0034, 0.0034, -0.0008, -9.9049, 0.0)","(-11.0, -43.0, -8.0, 2.0, -8.0, -18358.0, -12.0)","(-0.04, -0.34, 0.02, 0.1674, 0.0, -0.0468, -0.0036)"
2020/05/26/01:50:25.398401,135,1590425425,351243972,,"['joint_S', 'joint_L', 'joint_E', 'joint_U', 'joint_R', 'joint_B', 'joint_T']","(4, 0, 4, 3, 1, -11320, 0)","(0.0034, 0.0, 0.0034, 0.0026, -0.0008, -11.1788, 0.0)","(-11.0, -43.0, -8.0, 2.0, -8.0, -18358.0, -12.0)","(-0.04, -0.34, -0.03, 0.1674, 0.0, -0.0468, -0.0108)"
2020/05/26/01:50:25.445163,136,1590425425,398140907,,"['joint_S', 'joint_L', 'joint_E', 'joint_U', 'joint_R', 'joint_B', 'joint_T']","(4, 0, 4, 3, 1, -12662, 0)","(0.0034, 0.0, 0.0034, 0.0026, -0.0008, -12.5041, 0.0)","(-11.0, -43.0, -8.0, 2.0, -8.0, -18358.0, -12.0)","(-0.04, -0.34, -0.03, 0.1674, 0.0, -0.0468, -0.0108)"
2020/05/26/01:50:25.491261,137,1590425425,445342063,,"['joint_S', 'joint_L', 'joint_E', 'joint_U', 'joint_R', 'joint_B', 'joint_T']","(4, 0, 4, 3, 1, -14068, 0)","(0.0034, 0.0, 0.0034, 0.0026, -0.0008, -13.8926, 0.0)","(-11.0, -43.0, -8.0, 2.0, -8.0, -18358.0, -12.0)","(-0.04, -0.34, -0.03, 0.1674, 0.0, -0.0468, -0.0108)"
2020/05/26/01:50:25.535799,138,1590425425,491302013,,"['joint_S', 'joint_L', 'joint_E', 'joint_U', 'joint_R', 'joint_B', 'joint_T']","(4, 0, 4, 3, 1, -15561, 0)","(0.0034, 0.0, 0.0034, 0.0026, -0.0008, -15.367, 0.0)","(-11.0, -43.0, -8.0, 2.0, -8.0, -18358.0, -12.0)","(-0.04, -0.34, -0.03, 0.1674, 0.0, -0.0468, -0.0108)"
2020/05/26/01:50:25.583435,139,1590425425,535743951,,"['joint_S', 'joint_L', 'joint_E', 'joint_U', 'joint_R', 'joint_B', 'joint_T']","(4, 0, 4, 3, 1, -16919, 0)","(0.0034, 0.0, 0.0034, 0.0026, -0.0008, -16.7081, 0.0)","(-11.0, -43.0, -8.0, 2.0, -8.0, -18358.0, -12.0)","(-0.04, -0.34, -0.03, 0.1674, 0.0, -0.0468, -0.0108)"
2020/05/26/01:50:25.629389,140,1590425425,583559989,,"['joint_S', 'joint_L', 'joint_E', 'joint_U', 'joint_R', 'joint_B', 'joint_T']","(4, 0, 4, 3, 1, -18287, 0)","(0.0034, 0.0, 0.0034, 0.0026, -0.0008, -18.059, 0.0)","(-11.0, -43.0, -8.0, 2.0, -8.0, -18358.0, -12.0)","(-0.04, -0.34, -0.03, 0.1674, 0.0, -0.0468, -0.0108)"
2020/05/26/01:50:25.676994,141,1590425425,629547119,,"['joint_S', 'joint_L', 'joint_E', 'joint_U', 'joint_R', 'joint_B', 'joint_T']","(4, 0, 4, 3, 1, -19622, 0)","(0.0034, 0.0, 0.0034, 0.0026, -0.0008, -19.3774, 0.0)","(-11.0, -43.0, -8.0, 2.0, -8.0, -18358.0, -12.0)","(-0.04, -0.34, -0.03, 0.1674, 0.0, -0.0468, -0.0108)"
2020/05/26/01:50:25.725140,142,1590425425,676896095,,"['joint_S', 'joint_L', 'joint_E', 'joint_U', 'joint_R', 'joint_B', 'joint_T']","(4, 0, 4, 3, 1, -21073, 0)","(0.0034, 0.0, 0.0034, 0.0026, -0.0008, -20.8103, 0.0)","(-11.0, -43.0, -8.0, 2.0, -8.0, -18358.0, -12.0)","(-0.04, -0.34, -0.03, 0.1674, 0.0, -0.0468, -0.0108)"
2020/05/26/01:50:25.775810,143,1590425425,725086927,,"['joint_S', 'joint_L', 'joint_E', 'joint_U', 'joint_R', 'joint_B', 'joint_T']","(4, 0, 4, 2, 1, -22409, 0)","(0.0034, 0.0, 0.0034, 0.0017, -0.0008, -22.1296, 0.0)","(-11.0, -43.0, -8.0, 2.0, -8.0, -18358.0, -12.0)","(-0.04, -0.34, -0.03, 0.1674, 0.0, -0.0468, -0.0108)"
2020/05/26/01:50:25.816515,144,1590425425,775896072,,"['joint_S', 'joint_L', 'joint_E', 'joint_U', 'joint_R', 'joint_B', 'joint_T']","(4, 0, 4, 2, 1, -23744, 0)","(0.0034, 0.0, 0.0034, 0.0017, -0.0008, -23.448, 0.0)","(-11.0, -43.0, -8.0, 2.0, -8.0, -18358.0, -12.0)","(-0.04, -0.34, -0.03, 0.1674, 0.0, -0.0468, -0.0108)"
2020/05/26/01:50:25.864032,145,1590425425,816590070,,"['joint_S', 'joint_L', 'joint_E', 'joint_U', 'joint_R', 'joint_B', 'joint_T']","(4, 0, 4, 2, 1, -25137, 0)","(0.0034, 0.0, 0.0034, 0.0017, -0.0008, -24.8236, 0.0)","(-11.0, -43.0, -8.0, 2.0, -8.0, -18358.0, -12.0)","(-0.04, -0.34, -0.03, 0.1674, 0.0, -0.0468, -0.0108)"
2020/05/26/01:50:25.912405,146,1590425425,864103078,,"['joint_S', 'joint_L', 'joint_E', 'joint_U', 'joint_R', 'joint_B', 'joint_T']","(4, 0, 4, 2, 1, -26472, 0)","(0.0034, 0.0, 0.0034, 0.0017, -0.0008, -26.142, 0.0)","(-11.0, -43.0, -8.0, 2.0, -8.0, -18358.0, -12.0)","(-0.04, -0.34, -0.03, 0.1674, 0.0, -0.0468, -0.0108)"
2020/05/26/01:50:25.958850,147,1590425425,912121057,,"['joint_S', 'joint_L', 'joint_E', 'joint_U', 'joint_R', 'joint_B', 'joint_T']","(4, 0, 3, 2, 1, -27865, 0)","(0.0034, 0.0, 0.0026, 0.0017, -0.0008, -27.5176, 0.0)","(-11.0, -43.0, -8.0, 2.0, -8.0, -18358.0, -12.0)","(-0.04, -0.34, -0.03, 0.1674, 0.0, -0.0468, -0.0108)"
2020/05/26/01:50:26.002455,148,1590425425,958851099,,"['joint_S', 'joint_L', 'joint_E', 'joint_U', 'joint_R', 'joint_B', 'joint_T']","(4, -1, 3, 2, 1, -29200, 0)","(0.0034, 0.0008, 0.0026, 0.0017, -0.0008, -28.836, 0.0)","(-11.0, -43.0, -8.0, 2.0, -8.0, -18358.0, -12.0)","(-0.04, -0.34, -0.03, 0.1674, 0.0, -0.0468, -0.0108)"
2020/05/26/01:50:26.050277,149,1590425426,2429008,,"['joint_S', 'joint_L', 'joint_E', 'joint_U', 'joint_R', 'joint_B', 'joint_T']","(4, -1, 3, 2, 1, -30535, 0)","(0.0034, 0.0008, 0.0026, 0.0017, -0.0008, -30.1543, 0.0)","(-2.0, 24.0, -8.0, 19.0, 0.0, -28998.0, -12.0)","(-0.04, -0.34, -0.03, 0.1674, 0.0, -0.0468, -0.0108)"
2020/05/26/01:50:26.095292,150,1590425426,50260066,,"['joint_S', 'joint_L', 'joint_E', 'joint_U', 'joint_R', 'joint_B', 'joint_T']","(4, -1, 3, 2, 1, -31812, 0)","(0.0034, 0.0008, 0.0026, 0.0017, -0.0008, -31.4154, 0.0)","(-2.0, 24.0, -8.0, 19.0, 0.0, -28998.0, -11.0)","(-0.04, -0.34, -0.03, 0.1674, 0.0, -0.0468, -0.0108)"
2020/05/26/01:50:26.139667,151,1590425426,95417976,,"['joint_S', 'joint_L', 'joint_E', 'joint_U', 'joint_R', 'joint_B', 'joint_T']","(4, -1, 3, 1, 1, -33206, 0)","(0.0034, 0.0008, 0.0026, 0.0008, -0.0008, -32.792, 0.0)","(-2.0, 24.0, -8.0, 19.0, 0.0, -28998.0, -11.0)","(-0.04, -0.34, -0.03, 0.1674, 0.0, -0.0468, -0.0108)"
2020/05/26/01:50:26.186847,152,1590425426,139612913,,"['joint_S', 'joint_L', 'joint_E', 'joint_U', 'joint_R', 'joint_B', 'joint_T']","(4, -1, 3, 1, 1, -34483, 0)","(0.0034, 0.0008, 0.0026, 0.0008, -0.0008, -34.0531, 0.0)","(-2.0, 24.0, -8.0, 19.0, 0.0, -28998.0, -11.0)","(-0.07, -0.34, -0.03, 0.1674, 0.0, -0.0468, -0.0108)"
2020/05/26/01:50:26.231297,153,1590425426,186583995,,"['joint_S', 'joint_L', 'joint_E', 'joint_U', 'joint_R', 'joint_B', 'joint_T']","(4, -1, 3, 1, 1, -35818, 0)","(0.0034, 0.0008, 0.0026, 0.0008, -0.0008, -35.3715, 0.0)","(-2.0, 24.0, -8.0, 19.0, 0.0, -28998.0, -11.0)","(-0.07, -0.43, -0.03, 0.297, 0.0054, -0.0684, -0.0216)"
2020/05/26/01:50:26.276874,154,1590425426,231312990,,"['joint_S', 'joint_L', 'joint_E', 'joint_U', 'joint_R', 'joint_B', 'joint_T']","(4, -1, 3, 1, 1, -37152, 0)","(0.0034, 0.0008, 0.0026, 0.0008, -0.0008, -36.6889, 0.0)","(-2.0, 24.0, -8.0, 19.0, 0.0, -28998.0, -11.0)","(-0.07, -0.43, -0.07, 0.297, 0.0054, -0.0684, -0.0216)"
2020/05/26/01:50:26.323046,155,1590425426,276705026,,"['joint_S', 'joint_L', 'joint_E', 'joint_U', 'joint_R', 'joint_B', 'joint_T']","(4, -1, 3, 1, 1, -38429, 0)","(0.0034, 0.0008, 0.0026, 0.0008, -0.0008, -37.9499, 0.0)","(-2.0, 24.0, -8.0, 19.0, 0.0, -28998.0, -11.0)","(-0.07, -0.43, -0.07, 0.297, 0.0054, -0.0684, -0.0216)"
2020/05/26/01:50:26.369434,156,1590425426,322786092,,"['joint_S', 'joint_L', 'joint_E', 'joint_U', 'joint_R', 'joint_B', 'joint_T']","(4, -1, 3, 1, 1, -39764, 0)","(0.0034, 0.0008, 0.0026, 0.0008, -0.0008, -39.2683, 0.0)","(-2.0, 24.0, -8.0, 19.0, 0.0, -28998.0, -11.0)","(-0.07, -0.43, -0.07, 0.297, 0.0054, -0.0684, -0.0216)"
2020/05/26/01:50:26.412566,157,1590425426,369196891,,"['joint_S', 'joint_L', 'joint_E', 'joint_U', 'joint_R', 'joint_B', 'joint_T']","(4, -1, 3, 1, 1, -41100, 0)","(0.0034, 0.0008, 0.0026, 0.0008, -0.0008, -40.5876, 0.0)","(-2.0, 24.0, -8.0, 19.0, 0.0, -28998.0, -11.0)","(-0.07, -0.43, -0.07, 0.297, 0.0054, -0.0684, -0.0216)"
2020/05/26/01:50:26.458514,158,1590425426,412411928,,"['joint_S', 'joint_L', 'joint_E', 'joint_U', 'joint_R', 'joint_B', 'joint_T']","(4, -2, 3, 1, 1, -42435, 0)","(0.0034, 0.0017, 0.0026, 0.0008, -0.0008, -41.906, 0.0)","(-2.0, 24.0, -8.0, 19.0, 0.0, -28998.0, -11.0)","(-0.07, -0.43, -0.07, 0.297, 0.0054, -0.0684, -0.0216)"
2020/05/26/01:50:26.505550,159,1590425426,458508968,,"['joint_S', 'joint_L', 'joint_E', 'joint_U', 'joint_R', 'joint_B', 'joint_T']","(4, -2, 3, 1, 0, -43712, 0)","(0.0034, 0.0017, 0.0026, 0.0008, 0.0, -43.1671, 0.0)","(-2.0, 24.0, -8.0, 19.0, 0.0, -28998.0, -11.0)","(-0.07, -0.43, -0.07, 0.297, 0.0054, -0.0684, -0.0216)"
2020/05/26/01:50:26.550559,160,1590425426,505752086,,"['joint_S', 'joint_L', 'joint_E', 'joint_U', 'joint_R', 'joint_B', 'joint_T']","(4, -2, 3, 0, 0, -45047, 0)","(0.0034, 0.0017, 0.0026, 0.0, 0.0, -44.4854, 0.0)","(-2.0, 24.0, -8.0, 19.0, 0.0, -28998.0, -11.0)","(-0.07, -0.43, -0.07, 0.297, 0.0054, -0.0684, -0.0216)"
2020/05/26/01:50:26.594139,161,1590425426,550486087,,"['joint_S', 'joint_L', 'joint_E', 'joint_U', 'joint_R', 'joint_B', 'joint_T']","(4, -2, 3, 0, 0, -46382, 0)","(0.0034, 0.0017, 0.0026, 0.0, 0.0, -45.8038, 0.0)","(-2.0, 24.0, -8.0, 19.0, 0.0, -28998.0, -11.0)","(-0.07, -0.43, -0.07, 0.297, 0.0054, -0.0684, -0.0216)"
2020/05/26/01:50:26.641072,162,1590425426,594100952,,"['joint_S', 'joint_L', 'joint_E', 'joint_U', 'joint_R', 'joint_B', 'joint_T']","(4, -2, 3, 0, 0, -47659, 0)","(0.0034, 0.0017, 0.0026, 0.0, 0.0, -47.0649, 0.0)","(-2.0, 24.0, -8.0, 19.0, 0.0, -28998.0, -11.0)","(-0.07, -0.43, -0.07, 0.297, 0.0054, -0.0684, -0.0216)"
2020/05/26/01:50:26.686956,163,1590425426,641176939,,"['joint_S', 'joint_L', 'joint_E', 'joint_U', 'joint_R', 'joint_B', 'joint_T']","(4, -2, 3, 0, 0, -48994, 0)","(0.0034, 0.0017, 0.0026, 0.0, 0.0, -48.3832, 0.0)","(-2.0, 24.0, -8.0, 19.0, 0.0, -28998.0, -11.0)","(-0.07, -0.43, -0.07, 0.297, 0.0054, -0.0684, -0.0216)"
2020/05/26/01:50:26.732306,164,1590425426,687026977,,"['joint_S', 'joint_L', 'joint_E', 'joint_U', 'joint_R', 'joint_B', 'joint_T']","(4, -2, 3, 0, 0, -50329, 0)","(0.0034, 0.0017, 0.0026, 0.0, 0.0, -49.7016, 0.0)","(-2.0, 24.0, -8.0, 19.0, 0.0, -28998.0, -11.0)","(-0.07, -0.43, -0.07, 0.297, 0.0054, -0.0684, -0.0216)"
2020/05/26/01:50:26.782288,165,1590425426,732140064,,"['joint_S', 'joint_L', 'joint_E', 'joint_U', 'joint_R', 'joint_B', 'joint_T']","(4, -2, 3, 0, 0, -51723, 0)","(0.0034, 0.0017, 0.0026, 0.0, 0.0, -51.0782, 0.0)","(-2.0, 24.0, -8.0, 19.0, 0.0, -28998.0, -11.0)","(-0.07, -0.43, -0.07, 0.297, 0.0054, -0.0684, -0.0216)"
2020/05/26/01:50:26.822150,166,1590425426,781994104,,"['joint_S', 'joint_L', 'joint_E', 'joint_U', 'joint_R', 'joint_B', 'joint_T']","(4, -2, 3, 0, 0, -53000, 0)","(0.0034, 0.0017, 0.0026, 0.0, 0.0, -52.3393, 0.0)","(-2.0, 24.0, -8.0, 19.0, 0.0, -28998.0, -11.0)","(-0.07, -0.43, -0.07, 0.297, 0.0054, -0.0684, -0.0216)"
2020/05/26/01:50:26.868314,167,1590425426,822153091,,"['joint_S', 'joint_L', 'joint_E', 'joint_U', 'joint_R', 'joint_B', 'joint_T']","(4, -2, 3, 0, 0, -54277, 0)","(0.0034, 0.0017, 0.0026, 0.0, 0.0, -53.6004, 0.0)","(-2.0, 24.0, -8.0, 19.0, 0.0, -28998.0, -11.0)","(-0.07, -0.43, -0.07, 0.297, 0.0054, -0.0684, -0.0216)"
2020/05/26/01:50:26.915847,168,1590425426,868347883,,"['joint_S', 'joint_L', 'joint_E', 'joint_U', 'joint_R', 'joint_B', 'joint_T']","(3, -2, 2, 0, 0, -55668, 0)","(0.0026, 0.0017, 0.0017, 0.0, 0.0, -54.9741, 0.0)","(0.0, -4.0, -8.0, -16.0, -6.0, -28998.0, -11.0)","(-0.07, -0.43, -0.07, 0.297, 0.0054, -0.0684, -0.0216)"
2020/05/26/01:50:26.959591,169,1590425426,916071891,,"['joint_S', 'joint_L', 'joint_E', 'joint_U', 'joint_R', 'joint_B', 'joint_T']","(3, -3, 2, 0, 0, -57000, 0)","(0.0026, 0.0026, 0.0017, 0.0, 0.0, -56.2895, 0.0)","(0.0, -4.0, 1.0, -16.0, -6.0, -28941.0, -7.0)","(-0.07, -0.43, -0.07, 0.297, 0.0054, -0.0684, -0.0216)"
2020/05/26/01:50:27.004742,170,1590425426,959621906,,"['joint_S', 'joint_L', 'joint_E', 'joint_U', 'joint_R', 'joint_B', 'joint_T']","(3, -3, 2, 0, 0, -58271, 0)","(0.0026, 0.0026, 0.0017, 0.0, 0.0, -57.5446, 0.0)","(0.0, -4.0, 1.0, -16.0, -6.0, -28941.0, -7.0)","(-0.07, -0.43, -0.07, 0.297, 0.0054, -0.0684, -0.0216)"
2020/05/26/01:50:27.052365,171,1590425427,4668951,,"['joint_S', 'joint_L', 'joint_E', 'joint_U', 'joint_R', 'joint_B', 'joint_T']","(3, -3, 2, 0, 0, -59601, 0)","(0.0026, 0.0026, 0.0017, 0.0, 0.0, -58.858, 0.0)","(0.0, -4.0, 1.0, -16.0, -6.0, -28941.0, -7.0)","(-0.07, -0.43, -0.07, 0.297, 0.0054, -0.0684, -0.0216)"
2020/05/26/01:50:27.095680,172,1590425427,52428960,,"['joint_S', 'joint_L', 'joint_E', 'joint_U', 'joint_R', 'joint_B', 'joint_T']","(3, -3, 2, 0, 0, -60930, 0)","(0.0026, 0.0026, 0.0017, 0.0, 0.0, -60.1705, 0.0)","(0.0, -4.0, 1.0, -16.0, -6.0, -28941.0, -7.0)","(-0.08, -0.45, -0.07, 0.2484, 0.0324, -0.0972, -0.0288)"
2020/05/26/01:50:27.140165,173,1590425427,95819950,,"['joint_S', 'joint_L', 'joint_E', 'joint_U', 'joint_R', 'joint_B', 'joint_T']","(3, -3, 2, 0, 0, -62203, 0)","(0.0026, 0.0026, 0.0017, 0.0, 0.0, -61.4276, 0.0)","(0.0, -4.0, 1.0, -16.0, -6.0, -28941.0, -7.0)","(-0.08, -0.45, -0.08, 0.2484, 0.0324, -0.0972, -0.0288)"
2020/05/26/01:50:27.187314,174,1590425427,140207052,,"['joint_S', 'joint_L', 'joint_E', 'joint_U', 'joint_R', 'joint_B', 'joint_T']","(3, -3, 2, 0, 0, -63535, 0)","(0.0026, 0.0026, 0.0017, 0.0, 0.0, -62.743, 0.0)","(0.0, -4.0, 1.0, -16.0, -6.0, -28941.0, -7.0)","(-0.08, -0.45, -0.08, 0.2484, 0.0324, -0.0972, -0.0288)"
2020/05/26/01:50:27.232991,175,1590425427,187387943,,"['joint_S', 'joint_L', 'joint_E', 'joint_U', 'joint_R', 'joint_B', 'joint_T']","(3, -3, 2, 0, 0, -64812, 0)","(0.0026, 0.0026, 0.0017, 0.0, 0.0, -64.0041, 0.0)","(0.0, -4.0, 1.0, -16.0, -6.0, -28941.0, -7.0)","(-0.08, -0.45, -0.08, 0.2484, 0.0324, -0.0972, -0.0288)"
2020/05/26/01:50:27.278455,176,1590425427,233066082,,"['joint_S', 'joint_L', 'joint_E', 'joint_U', 'joint_R', 'joint_B', 'joint_T']","(3, -3, 2, 0, 0, -66147, 0)","(0.0026, 0.0026, 0.0017, 0.0, 0.0, -65.3224, 0.0)","(0.0, -4.0, 1.0, -16.0, -6.0, -28941.0, -7.0)","(-0.08, -0.45, -0.08, 0.2484, 0.0324, -0.0972, -0.0288)"
2020/05/26/01:50:27.324232,177,1590425427,278584003,,"['joint_S', 'joint_L', 'joint_E', 'joint_U', 'joint_R', 'joint_B', 'joint_T']","(3, -3, 2, -1, 0, -67482, 0)","(0.0026, 0.0026, 0.0017, -0.0008, 0.0, -66.6408, 0.0)","(0.0, -4.0, 1.0, -16.0, -6.0, -28941.0, -7.0)","(-0.08, -0.45, -0.08, 0.2484, 0.0324, -0.0972, -0.0288)"
2020/05/26/01:50:27.370425,178,1590425427,324206113,,"['joint_S', 'joint_L', 'joint_E', 'joint_U', 'joint_R', 'joint_B', 'joint_T']","(3, -3, 2, -1, 0, -68817, 0)","(0.0026, 0.0026, 0.0017, -0.0008, 0.0, -67.9592, 0.0)","(0.0, -4.0, 1.0, -16.0, -6.0, -28941.0, -7.0)","(-0.08, -0.45, -0.08, 0.2484, 0.0324, -0.0972, -0.0288)"
2020/05/26/01:50:27.414999,179,1590425427,370490074,,"['joint_S', 'joint_L', 'joint_E', 'joint_U', 'joint_R', 'joint_B', 'joint_T']","(3, -3, 2, -1, 0, -70153, 0)","(0.0026, 0.0026, 0.0017, -0.0008, 0.0, -69.2785, 0.0)","(0.0, -4.0, 1.0, -16.0, -6.0, -28941.0, -7.0)","(-0.08, -0.45, -0.08, 0.2484, 0.0324, -0.0972, -0.0288)"
2020/05/26/01:50:27.458872,180,1590425427,415103912,,"['joint_S', 'joint_L', 'joint_E', 'joint_U', 'joint_R', 'joint_B', 'joint_T']","(3, -4, 2, -1, 0, -71430, 0)","(0.0026, 0.0034, 0.0017, -0.0008, 0.0, -70.5396, 0.0)","(0.0, -4.0, 1.0, -16.0, -6.0, -28941.0, -7.0)","(-0.08, -0.45, -0.08, 0.2484, 0.0324, -0.0972, -0.0288)"
2020/05/26/01:50:27.504941,181,1590425427,458875894,,"['joint_S', 'joint_L', 'joint_E', 'joint_U', 'joint_R', 'joint_B', 'joint_T']","(3, -4, 2, -1, 0, -72764, 0)","(0.0026, 0.0034, 0.0017, -0.0008, 0.0, -71.857, 0.0)","(0.0, -4.0, 1.0, -16.0, -6.0, -28941.0, -7.0)","(-0.08, -0.45, -0.08, 0.2484, 0.0324, -0.0972, -0.0288)"
2020/05/26/01:50:27.549923,182,1590425427,505040884,,"['joint_S', 'joint_L', 'joint_E', 'joint_U', 'joint_R', 'joint_B', 'joint_T']","(3, -4, 2, -1, 0, -74068, 0)","(0.0026, 0.0034, 0.0017, -0.0008, 0.0, -73.1447, 0.0)","(0.0, -4.0, 1.0, -16.0, -6.0, -28941.0, -7.0)","(-0.08, -0.45, -0.08, 0.2484, 0.0324, -0.0972, -0.0288)"
2020/05/26/01:50:27.592763,183,1590425427,549822092,,"['joint_S', 'joint_L', 'joint_E', 'joint_U', 'joint_R', 'joint_B', 'joint_T']","(3, -4, 2, -1, 0, -75422, 0)","(0.0026, 0.0034, 0.0017, -0.0008, 0.0, -74.4818, 0.0)","(0.0, -4.0, 1.0, -16.0, -6.0, -28941.0, -7.0)","(-0.08, -0.45, -0.08, 0.2484, 0.0324, -0.0972, -0.0288)"
2020/05/26/01:50:27.641718,184,1590425427,592783927,,"['joint_S', 'joint_L', 'joint_E', 'joint_U', 'joint_R', 'joint_B', 'joint_T']","(3, -4, 2, -1, 0, -76854, 0)","(0.0026, 0.0034, 0.0017, -0.0008, 0.0, -75.896, 0.0)","(0.0, -4.0, 1.0, -16.0, -6.0, -28941.0, -7.0)","(-0.08, -0.45, -0.08, 0.2484, 0.0324, -0.0972, -0.0288)"
2020/05/26/01:50:27.687435,185,1590425427,641762018,,"['joint_S', 'joint_L', 'joint_E', 'joint_U', 'joint_R', 'joint_B', 'joint_T']","(3, -4, 2, -2, 0, -78327, 0)","(0.0026, 0.0034, 0.0017, -0.0017, 0.0, -77.3506, 0.0)","(0.0, -4.0, 1.0, -16.0, -6.0, -28941.0, -7.0)","(-0.08, -0.45, -0.08, 0.2484, 0.0324, -0.0972, -0.0288)"
2020/05/26/01:50:27.732474,186,1590425427,687508106,,"['joint_S', 'joint_L', 'joint_E', 'joint_U', 'joint_R', 'joint_B', 'joint_T']","(3, -4, 2, -2, 0, -79677, 0)","(0.0026, 0.0034, 0.0017, -0.0017, 0.0, -78.6838, 0.0)","(0.0, -4.0, 1.0, -16.0, -6.0, -28941.0, -7.0)","(-0.08, -0.45, -0.08, 0.2484, 0.0324, -0.0972, -0.0288)"
2020/05/26/01:50:27.779016,187,1590425427,732503890,,"['joint_S', 'joint_L', 'joint_E', 'joint_U', 'joint_R', 'joint_B', 'joint_T']","(3, -4, 2, -2, 0, -80930, 0)","(0.0026, 0.0034, 0.0017, -0.0017, 0.0, -79.9212, 0.0)","(-2.0, -9.0, 1.0, 19.0, -6.0, -28941.0, -7.0)","(-0.08, -0.45, -0.08, 0.2484, 0.0324, -0.0972, -0.0288)"
2020/05/26/01:50:27.825744,188,1590425427,779261112,,"['joint_S', 'joint_L', 'joint_E', 'joint_U', 'joint_R', 'joint_B', 'joint_T']","(3, -4, 2, -2, 0, -82000, 0)","(0.0026, 0.0034, 0.0017, -0.0017, 0.0, -80.9778, 0.0)","(-2.0, -9.0, 4.0, 19.0, 0.0, -30356.0, -7.0)","(-0.08, -0.45, -0.08, 0.2484, 0.0324, -0.0972, -0.0288)"
2020/05/26/01:50:27.867967,189,1590425427,825742959,,"['joint_S', 'joint_L', 'joint_E', 'joint_U', 'joint_R', 'joint_B', 'joint_T']","(3, -4, 2, -2, 0, -83048, 0)","(0.0026, 0.0034, 0.0017, -0.0017, 0.0, -82.0128, 0.0)","(-2.0, -9.0, 4.0, 19.0, 0.0, -30356.0, -7.0)","(-0.08, -0.45, -0.08, 0.2484, 0.0324, -0.0972, -0.0288)"
2020/05/26/01:50:27.913393,190,1590425427,867784023,,"['joint_S', 'joint_L', 'joint_E', 'joint_U', 'joint_R', 'joint_B', 'joint_T']","(3, -4, 1, -2, 0, -84058, 0)","(0.0026, 0.0034, 0.0008, -0.0017, 0.0, -83.0102, 0.0)","(-2.0, -9.0, 4.0, 19.0, 0.0, -30356.0, -7.0)","(-0.08, -0.45, -0.08, 0.2484, 0.0324, -0.0972, -0.0288)"
2020/05/26/01:50:27.960659,191,1590425427,913368940,,"['joint_S', 'joint_L', 'joint_E', 'joint_U', 'joint_R', 'joint_B', 'joint_T']","(3, -5, 1, -2, 0, -85103, 0)","(0.0026, 0.0043, 0.0008, -0.0017, 0.0, -84.0422, 0.0)","(-2.0, -9.0, 4.0, 19.0, 0.0, -30356.0, -7.0)","(-0.12, -0.45, -0.08, 0.216, 0.027, -0.0972, -0.0288)"
2020/05/26/01:50:28.004648,192,1590425427,960674047,,"['joint_S', 'joint_L', 'joint_E', 'joint_U', 'joint_R', 'joint_B', 'joint_T']","(3, -5, 1, -2, 0, -86121, 0)","(0.0026, 0.0043, 0.0008, -0.0017, 0.0, -85.0475, 0.0)","(-2.0, -9.0, 4.0, 19.0, 0.0, -30356.0, -7.0)","(-0.12, -0.45, -0.07, 0.216, 0.027, -0.1044, -0.0324)"
2020/05/26/01:50:28.051875,193,1590425428,4492044,,"['joint_S', 'joint_L', 'joint_E', 'joint_U', 'joint_R', 'joint_B', 'joint_T']","(3, -5, 1, -2, 0, -87094, 0)","(0.0026, 0.0043, 0.0008, -0.0017, 0.0, -86.0083, 0.0)","(-2.0, -9.0, 4.0, 19.0, 0.0, -30356.0, -7.0)","(-0.12, -0.45, -0.07, 0.216, 0.027, -0.1044, -0.0324)"
2020/05/26/01:50:28.096072,194,1590425428,51990032,,"['joint_S', 'joint_L', 'joint_E', 'joint_U', 'joint_R', 'joint_B', 'joint_T']","(3, -5, 1, -2, 0, -87965, 0)","(0.0026, 0.0043, 0.0008, -0.0017, 0.0, -86.8685, 0.0)","(-2.0, -9.0, 4.0, 19.0, 0.0, -30356.0, -7.0)","(-0.12, -0.45, -0.07, 0.216, 0.027, -0.1044, -0.0324)"
2020/05/26/01:50:28.141608,195,1590425428,96177101,,"['joint_S', 'joint_L', 'joint_E', 'joint_U', 'joint_R', 'joint_B', 'joint_T']","(3, -5, 1, -3, 0, -88796, 0)","(0.0026, 0.0043, 0.0008, -0.0026, 0.0, -87.6891, 0.0)","(-2.0, -9.0, 4.0, 19.0, 0.0, -30356.0, -7.0)","(-0.12, -0.45, -0.07, 0.216, 0.027, -0.1044, -0.0324)"
2020/05/26/01:50:28.188209,196,1590425428,141695022,,"['joint_S', 'joint_L', 'joint_E', 'joint_U', 'joint_R', 'joint_B', 'joint_T']","(3, -5, 1, -3, 0, -89530, 0)","(0.0026, 0.0043, 0.0008, -0.0026, 0.0, -88.414, 0.0)","(-2.0, -9.0, 4.0, 19.0, 0.0, -30356.0, -7.0)","(-0.12, -0.45, -0.07, 0.216, 0.027, -0.1044, -0.0324)"
2020/05/26/01:50:28.235050,197,1590425428,188277006,,"['joint_S', 'joint_L', 'joint_E', 'joint_U', 'joint_R', 'joint_B', 'joint_T']","(3, -5, 1, -3, 0, -90147, 0)","(0.0026, 0.0043, 0.0008, -0.0026, 0.0, -89.0233, 0.0)","(-2.0, -9.0, 4.0, 19.0, 0.0, -30356.0, -7.0)","(-0.12, -0.45, -0.07, 0.216, 0.027, -0.1044, -0.0324)"
2020/05/26/01:50:28.277365,198,1590425428,234781980,,"['joint_S', 'joint_L', 'joint_E', 'joint_U', 'joint_R', 'joint_B', 'joint_T']","(3, -5, 1, -3, 0, -90612, 0)","(0.0026, 0.0043, 0.0008, -0.0026, 0.0, -89.4825, 0.0)","(-2.0, -9.0, 4.0, 19.0, 0.0, -30356.0, -7.0)","(-0.12, -0.45, -0.07, 0.216, 0.027, -0.1044, -0.0324)"
2020/05/26/01:50:28.320748,199,1590425428,277373075,,"['joint_S', 'joint_L', 'joint_E', 'joint_U', 'joint_R', 'joint_B', 'joint_T']","(3, -5, 1, -3, 0, -90951, 0)","(0.0026, 0.0043, 0.0008, -0.0026, 0.0, -89.8173, 0.0)","(-2.0, -9.0, 4.0, 19.0, 0.0, -30356.0, -7.0)","(-0.12, -0.45, -0.07, 0.216, 0.027, -0.1044, -0.0324)"
2020/05/26/01:50:28.369044,200,1590425428,320765972,,"['joint_S', 'joint_L', 'joint_E', 'joint_U', 'joint_R', 'joint_B', 'joint_T']","(3, -5, 1, -3, 0, -91116, 0)","(0.0026, 0.0043, 0.0008, -0.0026, 0.0, -89.9802, 0.0)","(-2.0, -9.0, 4.0, 19.0, 0.0, -30356.0, -7.0)","(-0.12, -0.45, -0.07, 0.216, 0.027, -0.1044, -0.0324)"
2020/05/26/01:50:28.412309,201,1590425428,369179964,,"['joint_S', 'joint_L', 'joint_E', 'joint_U', 'joint_R', 'joint_B', 'joint_T']","(3, -5, 1, -3, 0, -91136, 0)","(0.0026, 0.0043, 0.0008, -0.0026, 0.0, -90.0, 0.0)","(-2.0, -9.0, 4.0, 19.0, 0.0, -30356.0, -7.0)","(-0.12, -0.45, -0.07, 0.216, 0.027, -0.1044, -0.0324)"
2020/05/26/01:50:28.459894,202,1590425428,412460088,,"['joint_S', 'joint_L', 'joint_E', 'joint_U', 'joint_R', 'joint_B', 'joint_T']","(3, -5, 1, -3, 0, -91136, 0)","(0.0026, 0.0043, 0.0008, -0.0026, 0.0, -90.0, 0.0)","(-2.0, -9.0, 4.0, 19.0, 0.0, -30356.0, -7.0)","(-0.12, -0.45, -0.07, 0.216, 0.027, -0.1044, -0.0324)"
2020/05/26/01:50:28.505212,203,1590425428,459856986,,"['joint_S', 'joint_L', 'joint_E', 'joint_U', 'joint_R', 'joint_B', 'joint_T']","(3, -5, 1, -3, 0, -91136, 0)","(0.0026, 0.0043, 0.0008, -0.0026, 0.0, -90.0, 0.0)","(-2.0, -9.0, 4.0, 19.0, 0.0, -30356.0, -7.0)","(-0.12, -0.45, -0.07, 0.216, 0.027, -0.1044, -0.0324)"
2020/05/26/01:50:28.553282,204,1590425428,505251884,,"['joint_S', 'joint_L', 'joint_E', 'joint_U', 'joint_R', 'joint_B', 'joint_T']","(3, -5, 1, -3, 0, -91136, 0)","(0.0026, 0.0043, 0.0008, -0.0026, 0.0, -90.0, 0.0)","(-2.0, -9.0, 4.0, 19.0, 0.0, -30356.0, -7.0)","(-0.12, -0.45, -0.07, 0.216, 0.027, -0.1044, -0.0324)"
2020/05/26/01:50:28.599767,205,1590425428,553294897,,"['joint_S', 'joint_L', 'joint_E', 'joint_U', 'joint_R', 'joint_B', 'joint_T']","(3, -5, 1, -3, 0, -91136, 0)","(0.0026, 0.0043, 0.0008, -0.0026, 0.0, -90.0, 0.0)","(-2.0, -9.0, 4.0, 19.0, 0.0, -30356.0, -7.0)","(-0.12, -0.45, -0.07, 0.216, 0.027, -0.1044, -0.0324)"
2020/05/26/01:50:28.647905,206,1590425428,599870920,,"['joint_S', 'joint_L', 'joint_E', 'joint_U', 'joint_R', 'joint_B', 'joint_T']","(3, -5, 1, -3, 0, -91136, 0)","(0.0026, 0.0043, 0.0008, -0.0026, 0.0, -90.0, 0.0)","(3.0, 16.0, 4.0, 19.0, 0.0, -30356.0, -7.0)","(-0.12, -0.45, -0.07, 0.216, 0.027, -0.1044, -0.0324)"
2020/05/26/01:50:28.694386,207,1590425428,647973060,,"['joint_S', 'joint_L', 'joint_E', 'joint_U', 'joint_R', 'joint_B', 'joint_T']","(3, -5, 1, -3, 0, -91136, 0)","(0.0026, 0.0043, 0.0008, -0.0026, 0.0, -90.0, 0.0)","(3.0, 16.0, 3.0, -63.0, 0.0, 22.0, 0.0)","(-0.12, -0.45, -0.07, 0.216, 0.027, -0.1044, -0.0324)"
2020/05/26/01:50:28.739478,208,1590425428,694214105,,"['joint_S', 'joint_L', 'joint_E', 'joint_U', 'joint_R', 'joint_B', 'joint_T']","(3, -5, 1, -3, 0, -91136, 0)","(0.0026, 0.0043, 0.0008, -0.0026, 0.0, -90.0, 0.0)","(3.0, 16.0, 3.0, -63.0, 0.0, 22.0, 0.0)","(-0.12, -0.45, -0.07, 0.216, 0.027, -0.1044, -0.0324)"
2020/05/26/01:50:28.787360,209,1590425428,739320039,,"['joint_S', 'joint_L', 'joint_E', 'joint_U', 'joint_R', 'joint_B', 'joint_T']","(3, -5, 1, -3, 0, -91136, 0)","(0.0026, 0.0043, 0.0008, -0.0026, 0.0, -90.0, 0.0)","(3.0, 16.0, 3.0, -63.0, 0.0, 22.0, 0.0)","(-0.12, -0.45, -0.07, 0.216, 0.027, -0.1044, -0.0324)"
2020/05/26/01:50:28.834850,210,1590425428,787434101,,"['joint_S', 'joint_L', 'joint_E', 'joint_U', 'joint_R', 'joint_B', 'joint_T']","(3, -5, 1, -3, 0, -91136, 0)","(0.0026, 0.0043, 0.0008, -0.0026, 0.0, -90.0, 0.0)","(3.0, 16.0, 3.0, -63.0, 0.0, 22.0, 0.0)","(-0.1, -0.34, -0.07, 0.1512, 0.027, -0.072, -0.0324)"
2020/05/26/01:50:28.880571,211,1590425428,834984064,,"['joint_S', 'joint_L', 'joint_E', 'joint_U', 'joint_R', 'joint_B', 'joint_T']","(3, -5, 1, -3, 0, -91136, 0)","(0.0026, 0.0043, 0.0008, -0.0026, 0.0, -90.0, 0.0)","(3.0, 16.0, 3.0, -63.0, 0.0, 22.0, 0.0)","(-0.1, -0.34, -0.07, 0.1512, 0.027, -0.072, -0.036)"
2020/05/26/01:50:28.926548,212,1590425428,880383968,,"['joint_S', 'joint_L', 'joint_E', 'joint_U', 'joint_R', 'joint_B', 'joint_T']","(3, -5, 1, -3, 0, -91136, 0)","(0.0026, 0.0043, 0.0008, -0.0026, 0.0, -90.0, 0.0)","(3.0, 16.0, 3.0, -63.0, 0.0, 22.0, 0.0)","(-0.1, -0.34, -0.07, 0.1512, 0.027, -0.072, -0.036)"
2020/05/26/01:50:28.978052,213,1590425428,926497936,,"['joint_S', 'joint_L', 'joint_E', 'joint_U', 'joint_R', 'joint_B', 'joint_T']","(3, -5, 1, -3, 0, -91136, 0)","(0.0026, 0.0043, 0.0008, -0.0026, 0.0, -90.0, 0.0)","(3.0, 16.0, 3.0, -63.0, 0.0, 22.0, 0.0)","(-0.1, -0.34, -0.07, 0.1512, 0.027, -0.072, -0.036)"
2020/05/26/01:50:29.018606,214,1590425428,978240013,,"['joint_S', 'joint_L', 'joint_E', 'joint_U', 'joint_R', 'joint_B', 'joint_T']","(3, -5, 1, -3, 0, -91136, 0)","(0.0026, 0.0043, 0.0008, -0.0026, 0.0, -90.0, 0.0)","(3.0, 16.0, 3.0, -63.0, 0.0, 22.0, 0.0)","(-0.1, -0.34, -0.07, 0.1512, 0.027, -0.072, -0.036)"
2020/05/26/01:50:29.065096,215,1590425429,18712043,,"['joint_S', 'joint_L', 'joint_E', 'joint_U', 'joint_R', 'joint_B', 'joint_T']","(3, -5, 1, -3, 0, -91136, 0)","(0.0026, 0.0043, 0.0008, -0.0026, 0.0, -90.0, 0.0)","(3.0, 16.0, 3.0, -63.0, 0.0, 22.0, 0.0)","(-0.1, -0.34, -0.07, 0.1512, 0.027, -0.072, -0.036)"
2020/05/26/01:50:29.111368,216,1590425429,65238952,,"['joint_S', 'joint_L', 'joint_E', 'joint_U', 'joint_R', 'joint_B', 'joint_T']","(3, -5, 1, -3, 0, -91136, 0)","(0.0026, 0.0043, 0.0008, -0.0026, 0.0, -90.0, 0.0)","(3.0, 16.0, 3.0, -63.0, 0.0, 22.0, 0.0)","(-0.1, -0.34, -0.07, 0.1512, 0.027, -0.072, -0.036)"
2020/05/26/01:50:29.157742,217,1590425429,111167907,,"['joint_S', 'joint_L', 'joint_E', 'joint_U', 'joint_R', 'joint_B', 'joint_T']","(3, -5, 1, -3, 0, -91136, 0)","(0.0026, 0.0043, 0.0008, -0.0026, 0.0, -90.0, 0.0)","(3.0, 16.0, 3.0, -63.0, 0.0, 22.0, 0.0)","(-0.1, -0.34, -0.07, 0.1512, 0.027, -0.072, -0.036)"
2020/05/26/01:50:29.205372,218,1590425429,157507896,,"['joint_S', 'joint_L', 'joint_E', 'joint_U', 'joint_R', 'joint_B', 'joint_T']","(3, -5, 1, -3, 0, -91136, 0)","(0.0026, 0.0043, 0.0008, -0.0026, 0.0, -90.0, 0.0)","(3.0, 16.0, 3.0, -63.0, 0.0, 22.0, 0.0)","(-0.1, -0.34, -0.07, 0.1512, 0.027, -0.072, -0.036)"
2020/05/26/01:50:29.251888,219,1590425429,205466985,,"['joint_S', 'joint_L', 'joint_E', 'joint_U', 'joint_R', 'joint_B', 'joint_T']","(3, -5, 1, -3, 0, -91136, 0)","(0.0026, 0.0043, 0.0008, -0.0026, 0.0, -90.0, 0.0)","(3.0, 16.0, 3.0, -63.0, 0.0, 22.0, 0.0)","(-0.1, -0.34, -0.07, 0.1512, 0.027, -0.072, -0.036)"
2020/05/26/01:50:29.299226,220,1590425429,251655101,,"['joint_S', 'joint_L', 'joint_E', 'joint_U', 'joint_R', 'joint_B', 'joint_T']","(3, -5, 1, -3, 0, -91136, 0)","(0.0026, 0.0043, 0.0008, -0.0026, 0.0, -90.0, 0.0)","(3.0, 16.0, 3.0, -63.0, 0.0, 22.0, 0.0)","(-0.1, -0.34, -0.07, 0.1512, 0.027, -0.072, -0.036)"
2020/05/26/01:50:29.344729,221,1590425429,299205064,,"['joint_S', 'joint_L', 'joint_E', 'joint_U', 'joint_R', 'joint_B', 'joint_T']","(3, -5, 1, -3, 0, -91136, 0)","(0.0026, 0.0043, 0.0008, -0.0026, 0.0, -90.0, 0.0)","(3.0, 16.0, 3.0, -63.0, 0.0, 22.0, 0.0)","(-0.1, -0.34, -0.07, 0.1512, 0.027, -0.072, -0.036)"
2020/05/26/01:50:29.392945,222,1590425429,344736099,,"['joint_S', 'joint_L', 'joint_E', 'joint_U', 'joint_R', 'joint_B', 'joint_T']","(3, -5, 1, -3, 0, -91136, 0)","(0.0026, 0.0043, 0.0008, -0.0026, 0.0, -90.0, 0.0)","(3.0, 16.0, 3.0, -63.0, 0.0, 22.0, 0.0)","(-0.1, -0.34, -0.07, 0.1512, 0.027, -0.072, -0.036)"
2020/05/26/01:50:29.439338,223,1590425429,392941951,,"['joint_S', 'joint_L', 'joint_E', 'joint_U', 'joint_R', 'joint_B', 'joint_T']","(3, -5, 1, -3, 0, -91136, 0)","(0.0026, 0.0043, 0.0008, -0.0026, 0.0, -90.0, 0.0)","(3.0, 16.0, 3.0, -63.0, 0.0, 22.0, 0.0)","(-0.1, -0.34, -0.07, 0.1512, 0.027, -0.072, -0.036)"
2020/05/26/01:50:29.485547,224,1590425429,439318895,,"['joint_S', 'joint_L', 'joint_E', 'joint_U', 'joint_R', 'joint_B', 'joint_T']","(3, -5, 1, -3, 0, -91136, 0)","(0.0026, 0.0043, 0.0008, -0.0026, 0.0, -90.0, 0.0)","(3.0, 16.0, 3.0, -63.0, 0.0, 22.0, 0.0)","(-0.1, -0.34, -0.07, 0.1512, 0.027, -0.072, -0.036)"
2020/05/26/01:50:29.530603,225,1590425429,485312938,,"['joint_S', 'joint_L', 'joint_E', 'joint_U', 'joint_R', 'joint_B', 'joint_T']","(3, -5, 1, -3, 0, -91136, 0)","(0.0026, 0.0043, 0.0008, -0.0026, 0.0, -90.0, 0.0)","(3.0, 0.0, 3.0, -8.0, 0.0, 22.0, 0.0)","(-0.1, -0.34, -0.07, 0.1512, 0.027, -0.072, -0.036)"
2020/05/26/01:50:29.576666,226,1590425429,530478000,,"['joint_S', 'joint_L', 'joint_E', 'joint_U', 'joint_R', 'joint_B', 'joint_T']","(3, -5, 1, -3, 0, -91136, 0)","(0.0026, 0.0043, 0.0008, -0.0026, 0.0, -90.0, 0.0)","(3.0, 0.0, 3.0, -8.0, 0.0, 43.0, 2.0)","(-0.1, -0.34, -0.07, 0.1512, 0.027, -0.072, -0.036)"
2020/05/26/01:50:29.624475,227,1590425429,576493978,,"['joint_S', 'joint_L', 'joint_E', 'joint_U', 'joint_R', 'joint_B', 'joint_T']","(3, -5, 1, -3, 0, -91136, 0)","(0.0026, 0.0043, 0.0008, -0.0026, 0.0, -90.0, 0.0)","(3.0, 0.0, 3.0, -8.0, 0.0, 43.0, 2.0)","(-0.1, -0.34, -0.07, 0.1512, 0.027, -0.072, -0.036)"
2020/05/26/01:50:29.668325,228,1590425429,624416112,,"['joint_S', 'joint_L', 'joint_E', 'joint_U', 'joint_R', 'joint_B', 'joint_T']","(3, -5, 1, -3, 0, -91136, 0)","(0.0026, 0.0043, 0.0008, -0.0026, 0.0, -90.0, 0.0)","(3.0, 0.0, 3.0, -8.0, 0.0, 43.0, 2.0)","(-0.1, -0.34, -0.07, 0.1512, 0.027, -0.072, -0.036)"
2020/05/26/01:50:29.715024,229,1590425429,668189048,,"['joint_S', 'joint_L', 'joint_E', 'joint_U', 'joint_R', 'joint_B', 'joint_T']","(3, -5, 1, -3, 0, -91136, 0)","(0.0026, 0.0043, 0.0008, -0.0026, 0.0, -90.0, 0.0)","(3.0, 0.0, 3.0, -8.0, 0.0, 43.0, 2.0)","(-0.07, -0.29, -0.07, 0.0918, 0.0216, -0.0288, -0.0324)"
2020/05/26/01:50:29.759522,230,1590425429,715100049,,"['joint_S', 'joint_L', 'joint_E', 'joint_U', 'joint_R', 'joint_B', 'joint_T']","(2, -4, 0, -2, 0, -91138, 0)","(0.0017, 0.0034, 0.0, -0.0017, 0.0, -90.0019, 0.0)","(3.0, 0.0, 3.0, -8.0, 0.0, 43.0, 2.0)","(-0.07, -0.29, -0.03, 0.0918, 0.0216, -0.0288, -0.0324)"
2020/05/26/01:50:29.804489,231,1590425429,759692907,,"['joint_S', 'joint_L', 'joint_E', 'joint_U', 'joint_R', 'joint_B', 'joint_T']","(-41, 43, -41, 30, -14, -91127, 50)","(-0.0356, -0.0374, -0.0356, 0.0261, 0.0121, -89.9911, -0.0744)","(3.0, 0.0, 3.0, -8.0, 0.0, 43.0, 2.0)","(-0.07, -0.29, -0.03, 0.0918, 0.0216, -0.0288, -0.0324)"
2020/05/26/01:50:29.849439,232,1590425429,804419040,,"['joint_S', 'joint_L', 'joint_E', 'joint_U', 'joint_R', 'joint_B', 'joint_T']","(-168, 181, -164, 127, -54, -91096, 194)","(-0.1461, -0.1575, -0.1427, 0.1105, 0.0469, -89.9605, -0.2889)","(3.0, 0.0, 3.0, -8.0, 0.0, 43.0, 2.0)","(-0.07, -0.29, -0.03, 0.0918, 0.0216, -0.0288, -0.0324)"
2020/05/26/01:50:29.895906,233,1590425429,849379062,,"['joint_S', 'joint_L', 'joint_E', 'joint_U', 'joint_R', 'joint_B', 'joint_T']","(-369, 400, -358, 280, -118, -91046, 422)","(-0.3211, -0.348, -0.3115, 0.2436, 0.1026, -89.9111, -0.6286)","(3.0, 0.0, 3.0, -8.0, 0.0, 43.0, 2.0)","(-0.07, -0.29, -0.03, 0.0918, 0.0216, -0.0288, -0.0324)"
2020/05/26/01:50:29.941697,234,1590425429,895905017,,"['joint_S', 'joint_L', 'joint_E', 'joint_U', 'joint_R', 'joint_B', 'joint_T']","(-635, 689, -615, 482, -203, -90980, 723)","(-0.5525, -0.5995, -0.5351, 0.4194, 0.1766, -89.8459, -1.077)","(3.0, 0.0, 3.0, -8.0, 0.0, 43.0, 2.0)","(-0.07, -0.29, -0.03, 0.0918, 0.0216, -0.0288, -0.0324)"
2020/05/26/01:50:29.991441,235,1590425429,941756010,,"['joint_S', 'joint_L', 'joint_E', 'joint_U', 'joint_R', 'joint_B', 'joint_T']","(-957, 1039, -925, 727, -306, -90900, 1086)","(-0.8327, -0.9041, -0.8049, 0.6326, 0.2662, -89.7669, -1.6177)","(3.0, 0.0, 3.0, -8.0, 0.0, 43.0, 2.0)","(-0.07, -0.29, -0.03, 0.0918, 0.0216, -0.0288, -0.0324)"
